~Version --------------------------------------------------
VERS.   2.0 : CWLS log ASCII Standard -VERSION 2.0
WRAP.    NO : One line per depth step
DLM . SPACE : Column Data Section Delimiter
~Well ------------------------------------------------------
STRT.M                   1200.00000 : START DEPTH (mMD)
STOP.                    2500.00000 : STOP DEPTH (mMD)
STEP.                       0.15240 : STEP (m)
NULL.                      -999.25 : NULL VALUE
COMP.  Petroleum Asia Pacific (PAPC)     : COMPANY
WELL.  BOKOR-1                          : WELL
FLD .  BOKOR                            : FIELD
LOC .  Offshore Sarawak, Malaysia Block : LOCATION
PROV.  Sarawak                          : PROVINCE
CNTY.  Sarawak                          : COUNTY
STAT.  Malaysia                        : STATE
CTRY.  Malaysia                        : COUNTRY
SRVC.  Geoquest Malaysia Sdn Bhd       : SERVICE COMPANY
DATE.  2024-03-15                      : LOG DATE
UWI .  BOKOR-1 ST00                     : UNIQUE WELL ID
API .  97MSAW00001B000                  : API NUMBER
EKB .  1234.56                          : ELEVATION KELLY BUSHING (m)
EGL .  1235.20                          : ELEVATION GROUND LEVEL (m)
TDD .  2550.00                          : TOTAL DEPTH DRILLED (mMD)
TVD .  2340.15                          : TOTAL VERTICAL DEPTH (mTVDSS)
~Curve Information -----------------------------------------
DEPT   .M     : Measured Depth (mMD)
GR     .GAPI  : Gamma Ray (Total)
GR_NSH .V/V   : GR Normalized Shale
RT     .OHMM  : Deep Resistivity (Array Induction AI45)
RHOB   .G/CC  : Bulk Density
NPHI   .V/V   : Neutron Porosity (limestone eq)
DT     .US/F  : Sonic Transit Time (compressional)
CALI   .IN    : Caliper
DEN    .G/CC  : Bulk Density (alias)
AC     .US/F  : Sonic Transit Time (alias)
PHI_E  .V/V   : Effective Porosity (DN average)
VSHALE .V/V   : Shale Volume (GR linear)
SW     .V/V   : Water Saturation (Archie, Rw=0.025)
VHC    .V/V   : Hydrocarbon Volume (PhiE x (1-SW))
NET    .BIN   : Net Reservoir Flag (VSHALE<0.40)
PAY    .BIN   : Pay Flag (NET=1 AND SW<0.60)
CROSS  .V/V   : Neutron-Density Crossover (RHOB-NPHI)
~Params ----------------------------------------------------
FORM .  BOKOR-1                        : Formation / Well ID
RFT  .  1350.0  1400.0  1550.0         : RFT sample depths (mMD)
MD_D .  1200.0                         : Measured depth datum (mMD)
TVDSS.  1235.2                         : TVD at datum (mTVDSS)
DATUM.  MSL  Mean Sea Level             : Depth datum reference
# Formation Tops (EXPLORATORY_VISUALIZATION — not RFT-confirmed)
FM_TOP .  1315.0  : Top FMM Formation (Shale)
SS1_TOP.  1480.0  : Top Shallow Sand 1
SS1_BOT.  1560.0  : Bottom Shallow Sand 1
SS2_TOP.  1620.0  : Top Deep Sand 2  <-- main gas reservoir
SS2_BOT.  1780.0  : Bottom Deep Sand 2
SS3_TOP.  1890.0  : Top Deep Sand 3
SS3_BOT.  2050.0  : Bottom Deep Sand 3
BASE  .  2100.0  : Base of reservoir section
# Petrophysics cutoffs
RW     .  0.025  : Formation water resistivity (ohm.m)
PHIT  .  0.30   : Total porosity cutoff
VSH_cut .  0.40 : Shale volume cutoff for net pay
SW_cut  .  0.60 : Sw cutoff for pay
CLAIM  .  EXPLORATORY_VISUALIZATION    : Default claim state
~Other -----------------------------------------------------
BOKOR-1 was drilled by PAPC in March 2024 as a wildcat exploration
well to test Miocene turbidite sands in the BOKOR structural closure.
Result: Gas shows in SS2 and SS3. RFT confirmation pending.
Depths are measured from GL (1235.2m above MSL). All in mMD.
~ASCII -----------------------------------------------------
# ...
  1456.03200    105.38  1.0000      1.05   2.4515  0.4925   121.88    8.46   2.4515   121.88  0.1662  1.0000  0.5580  0.0000   0.0   0.0  1.9590
  1456.18440    105.36  1.0000      1.05   2.4515  0.4925   121.87    8.46   2.4515   121.87  0.1662  1.0000  0.5580  0.0000   0.0   0.0  1.9590
  1456.33680    105.35  1.0000      1.05   2.4515  0.4925   121.87    8.46   2.4515   121.87  0.1662  1.0000  0.5581  0.0000   0.0   0.0  1.9590
  1456.48920    105.34  1.0000      1.05   2.4514  0.4925   121.87    8.46   2.4514   121.87  0.1662  1.0000  0.5581  0.0000   0.0   0.0  1.9590
  1456.64160    105.32  1.0000      1.05   2.4514  0.4924   121.86    8.46   2.4514   121.86  0.1662  1.0000  0.5582  0.0000   0.0   0.0  1.9590
  1456.79400    105.31  1.0000      1.05   2.4514  0.4924   121.86    8.46   2.4514   121.86  0.1661  1.0000  0.5582  0.0000   0.0   0.0  1.9590
  1456.94640    105.29  1.0000      1.05   2.4514  0.4924   121.86    8.46   2.4514   121.86  0.1661  1.0000  0.5582  0.0000   0.0   0.0  1.9590
  1457.09880    105.28  1.0000      1.05   2.4513  0.4924   121.86    8.46   2.4513   121.86  0.1661  1.0000  0.5583  0.0000   0.0   0.0  1.9590
  1457.25120    105.26  1.0000      1.05   2.4513  0.4924   121.85    8.46   2.4513   121.85  0.1661  1.0000  0.5583  0.0000   0.0   0.0  1.9590
  1457.40360    105.25  1.0000      1.05   2.4513  0.4923   121.85    8.46   2.4513   121.85  0.1661  1.0000  0.5584  0.0000   0.0   0.0  1.9590
  1457.55600    105.23  1.0000      1.05   2.4513  0.4923   121.85    8.46   2.4513   121.85  0.1661  1.0000  0.5584  0.0000   0.0   0.0  1.9590
  1457.70840    105.22  1.0000      1.05   2.4513  0.4923   121.84    8.46   2.4513   121.84  0.1661  1.0000  0.5584  0.0000   0.0   0.0  1.9590
  1457.86080    105.21  1.0000      1.05   2.4512  0.4923   121.84    8.46   2.4512   121.84  0.1661  1.0000  0.5585  0.0000   0.0   0.0  1.9590
  1458.01320    105.19  1.0000      1.05   2.4512  0.4923   121.84    8.46   2.4512   121.84  0.1661  1.0000  0.5585  0.0000   0.0   0.0  1.9590
  1458.16560    105.18  1.0000      1.05   2.4512  0.4922   121.84    8.46   2.4512   121.84  0.1661  1.0000  0.5586  0.0000   0.0   0.0  1.9589
  1458.31800    105.16  1.0000      1.05   2.4512  0.4922   121.83    8.47   2.4512   121.83  0.1661  1.0000  0.5586  0.0000   0.0   0.0  1.9589
  1458.47040    105.15  1.0000      1.04   2.4511  0.4922   121.83    8.47   2.4511   121.83  0.1661  1.0000  0.5586  0.0000   0.0   0.0  1.9589
  1458.62280    105.13  1.0000      1.04   2.4511  0.4922   121.83    8.47   2.4511   121.83  0.1661  1.0000  0.5587  0.0000   0.0   0.0  1.9589
  1458.77520    105.12  1.0000      1.04   2.4511  0.4922   121.82    8.47   2.4511   121.82  0.1661  1.0000  0.5587  0.0000   0.0   0.0  1.9589
  1458.92760    105.11  1.0000      1.04   2.4511  0.4921   121.82    8.47   2.4511   121.82  0.1661  1.0000  0.5588  0.0000   0.0   0.0  1.9589
  1459.08000    105.09  1.0000      1.04   2.4510  0.4921   121.82    8.47   2.4510   121.82  0.1661  1.0000  0.5588  0.0000   0.0   0.0  1.9589
  1459.23240    105.08  1.0000      1.04   2.4510  0.4921   121.82    8.47   2.4510   121.82  0.1661  1.0000  0.5588  0.0000   0.0   0.0  1.9589
  1459.38480    105.06  1.0000      1.04   2.4510  0.4921   121.81    8.47   2.4510   121.81  0.1661  1.0000  0.5589  0.0000   0.0   0.0  1.9589
  1459.53720    105.05  1.0000      1.04   2.4510  0.4921   121.81    8.47   2.4510   121.81  0.1661  1.0000  0.5589  0.0000   0.0   0.0  1.9589
  1459.68960    105.03  1.0000      1.04   2.4510  0.4920   121.81    8.47   2.4510   121.81  0.1661  1.0000  0.5590  0.0000   0.0   0.0  1.9589
  1459.84200    105.02  1.0000      1.04   2.4509  0.4920   121.80    8.47   2.4509   121.80  0.1661  1.0000  0.5590  0.0000   0.0   0.0  1.9589
  1459.99440    105.01  1.0000      1.04   2.4509  0.4920   121.80    8.47   2.4509   121.80  0.1661  1.0000  0.5590  0.0000   0.0   0.0  1.9589
  1460.14680    104.99  1.0000      1.04   2.4509  0.4920   121.80    8.47   2.4509   121.80  0.1661  1.0000  0.5591  0.0000   0.0   0.0  1.9589
  1460.29920    104.98  1.0000      1.04   2.4509  0.4920   121.80    8.47   2.4509   121.80  0.1661  1.0000  0.5591  0.0000   0.0   0.0  1.9589
  1460.45160    104.96  1.0000      1.04   2.4508  0.4920   121.79    8.47   2.4508   121.79  0.1661  1.0000  0.5592  0.0000   0.0   0.0  1.9589
  1460.60400    104.95  1.0000      1.04   2.4508  0.4919   121.79    8.48   2.4508   121.79  0.1661  1.0000  0.5592  0.0000   0.0   0.0  1.9589
  1460.75640    104.94  1.0000      1.04   2.4508  0.4919   121.79    8.48   2.4508   121.79  0.1661  1.0000  0.5592  0.0000   0.0   0.0  1.9589
  1460.90880    104.92  1.0000      1.04   2.4508  0.4919   121.79    8.48   2.4508   121.79  0.1661  1.0000  0.5593  0.0000   0.0   0.0  1.9589
  1461.06120    104.91  1.0000      1.04   2.4508  0.4919   121.78    8.48   2.4508   121.78  0.1661  1.0000  0.5593  0.0000   0.0   0.0  1.9589
  1461.21360    104.89  1.0000      1.04   2.4507  0.4919   121.78    8.48   2.4507   121.78  0.1661  1.0000  0.5594  0.0000   0.0   0.0  1.9589
  1461.36600    104.88  1.0000      1.04   2.4507  0.4918   121.78    8.48   2.4507   121.78  0.1661  1.0000  0.5594  0.0000   0.0   0.0  1.9589
  1461.51840    104.87  1.0000      1.04   2.4507  0.4918   121.77    8.48   2.4507   121.77  0.1661  1.0000  0.5594  0.0000   0.0   0.0  1.9589
  1461.67080    104.85  1.0000      1.04   2.4507  0.4918   121.77    8.48   2.4507   121.77  0.1661  1.0000  0.5595  0.0000   0.0   0.0  1.9588
  1461.82320    104.84  1.0000      1.04   2.4506  0.4918   121.77    8.48   2.4506   121.77  0.1661  1.0000  0.5595  0.0000   0.0   0.0  1.9588
  1461.97560    104.82  1.0000      1.04   2.4506  0.4918   121.77    8.48   2.4506   121.77  0.1661  1.0000  0.5596  0.0000   0.0   0.0  1.9588
  1462.12800    104.81  1.0000      1.04   2.4506  0.4918   121.76    8.48   2.4506   121.76  0.1661  1.0000  0.5596  0.0000   0.0   0.0  1.9588
  1462.28040    104.80  1.0000      1.04   2.4506  0.4917   121.76    8.48   2.4506   121.76  0.1661  1.0000  0.5596  0.0000   0.0   0.0  1.9588
  1462.43280    104.78  1.0000      1.04   2.4505  0.4917   121.76    8.48   2.4505   121.76  0.1661  1.0000  0.5597  0.0000   0.0   0.0  1.9588
  1462.58520    104.77  1.0000      1.04   2.4505  0.4917   121.76    8.48   2.4505   121.76  0.1661  1.0000  0.5597  0.0000   0.0   0.0  1.9588
  1462.73760    104.75  1.0000      1.04   2.4505  0.4917   121.75    8.48   2.4505   121.75  0.1661  1.0000  0.5597  0.0000   0.0   0.0  1.9588
  1462.89000    104.74  1.0000      1.04   2.4505  0.4917   121.75    8.49   2.4505   121.75  0.1661  1.0000  0.5598  0.0000   0.0   0.0  1.9588
  1463.04240    104.73  1.0000      1.04   2.4505  0.4917   121.75    8.49   2.4505   121.75  0.1661  1.0000  0.5598  0.0000   0.0   0.0  1.9588
  1463.19480    104.71  1.0000      1.04   2.4504  0.4916   121.75    8.49   2.4504   121.75  0.1661  1.0000  0.5599  0.0000   0.0   0.0  1.9588
  1463.34720    104.70  1.0000      1.04   2.4504  0.4916   121.74    8.49   2.4504   121.74  0.1660  1.0000  0.5599  0.0000   0.0   0.0  1.9588
  1463.49960    104.69  1.0000      1.04   2.4504  0.4916   121.74    8.49   2.4504   121.74  0.1660  1.0000  0.5599  0.0000   0.0   0.0  1.9588
  1463.65200    104.67  1.0000      1.04   2.4504  0.4916   121.74    8.49   2.4504   121.74  0.1660  1.0000  0.5600  0.0000   0.0   0.0  1.9588
  1463.80440    104.66  1.0000      1.04   2.4503  0.4916   121.74    8.49   2.4503   121.74  0.1660  1.0000  0.5600  0.0000   0.0   0.0  1.9588
  1463.95680    104.64  1.0000      1.04   2.4503  0.4916   121.73    8.49   2.4503   121.73  0.1660  1.0000  0.5601  0.0000   0.0   0.0  1.9588
  1464.10920    104.63  1.0000      1.04   2.4503  0.4915   121.73    8.49   2.4503   121.73  0.1660  1.0000  0.5601  0.0000   0.0   0.0  1.9588
  1464.26160    104.62  1.0000      1.04   2.4503  0.4915   121.73    8.49   2.4503   121.73  0.1660  1.0000  0.5601  0.0000   0.0   0.0  1.9587
  1464.41400    104.60  1.0000      1.04   2.4502  0.4915   121.73    8.49   2.4502   121.73  0.1660  1.0000  0.5602  0.0000   0.0   0.0  1.9587
