~Version --------------------------------------------------
VERS.   2.0 : CWLS log ASCII Standard -VERSION 2.0
WRAP.    NO : One line per depth step
DLM . SPACE : Column Data Section Delimiter
~Well ------------------------------------------------------
STRT.M                   1200.00000 : START DEPTH (mMD)
STOP.                    2500.00000 : STOP DEPTH (mMD)
STEP.                       0.15240 : STEP (m)
NULL.                      -999.25 : NULL VALUE
COMP.  Petroleum Asia Pacific (PAPC)     : COMPANY
WELL.  BOKOR-1                          : WELL
FLD .  BOKOR                            : FIELD
LOC .  Offshore Sarawak, Malaysia Block : LOCATION
PROV.  Sarawak                          : PROVINCE
CNTY.  Sarawak                          : COUNTY
STAT.  Malaysia                        : STATE
CTRY.  Malaysia                        : COUNTRY
SRVC.  Geoquest Malaysia Sdn Bhd       : SERVICE COMPANY
DATE.  2024-03-15                      : LOG DATE
UWI .  BOKOR-1 ST00                     : UNIQUE WELL ID
API .  97MSAW00001B000                  : API NUMBER
EKB .  1234.56                          : ELEVATION KELLY BUSHING (m)
EGL .  1235.20                          : ELEVATION GROUND LEVEL (m)
TDD .  2550.00                          : TOTAL DEPTH DRILLED (mMD)
TVD .  2340.15                          : TOTAL VERTICAL DEPTH (mTVDSS)
~Curve Information -----------------------------------------
DEPT   .M     : Measured Depth (mMD)
GR     .GAPI  : Gamma Ray (Total)
GR_NSH .V/V   : GR Normalized Shale
RT     .OHMM  : Deep Resistivity (Array Induction AI45)
RHOB   .G/CC  : Bulk Density
NPHI   .V/V   : Neutron Porosity (limestone eq)
DT     .US/F  : Sonic Transit Time (compressional)
CALI   .IN    : Caliper
DEN    .G/CC  : Bulk Density (alias)
AC     .US/F  : Sonic Transit Time (alias)
PHI_E  .V/V   : Effective Porosity (DN average)
VSHALE .V/V   : Shale Volume (GR linear)
SW     .V/V   : Water Saturation (Archie, Rw=0.025)
VHC    .V/V   : Hydrocarbon Volume (PhiE x (1-SW))
NET    .BIN   : Net Reservoir Flag (VSHALE<0.40)
PAY    .BIN   : Pay Flag (NET=1 AND SW<0.60)
CROSS  .V/V   : Neutron-Density Crossover (RHOB-NPHI)
~Params ----------------------------------------------------
FORM .  BOKOR-1                        : Formation / Well ID
RFT  .  1350.0  1400.0  1550.0         : RFT sample depths (mMD)
MD_D .  1200.0                         : Measured depth datum (mMD)
TVDSS.  1235.2                         : TVD at datum (mTVDSS)
DATUM.  MSL  Mean Sea Level             : Depth datum reference
# Formation Tops (EXPLORATORY_VISUALIZATION — not RFT-confirmed)
FM_TOP .  1315.0  : Top FMM Formation (Shale)
SS1_TOP.  1480.0  : Top Shallow Sand 1
SS1_BOT.  1560.0  : Bottom Shallow Sand 1
SS2_TOP.  1620.0  : Top Deep Sand 2  <-- main gas reservoir
SS2_BOT.  1780.0  : Bottom Deep Sand 2
SS3_TOP.  1890.0  : Top Deep Sand 3
SS3_BOT.  2050.0  : Bottom Deep Sand 3
BASE  .  2100.0  : Base of reservoir section
# Petrophysics cutoffs
RW     .  0.025  : Formation water resistivity (ohm.m)
PHIT  .  0.30   : Total porosity cutoff
VSH_cut .  0.40 : Shale volume cutoff for net pay
SW_cut  .  0.60 : Sw cutoff for pay
CLAIM  .  EXPLORATORY_VISUALIZATION    : Default claim state
~Other -----------------------------------------------------
BOKOR-1 was drilled by PAPC in March 2024 as a wildcat exploration
well to test Miocene turbidite sands in the BOKOR structural closure.
Result: Gas shows in SS2 and SS3. RFT confirmation pending.
Depths are measured from GL (1235.2m above MSL). All in mMD.
~ASCII -----------------------------------------------------
# ...
  1797.40800     85.32  1.0000      1.18   2.4597  0.4902   121.52    8.43   2.4597   121.52  0.1610  1.0000  0.5428  0.0000   0.0   0.0  1.9695
  1797.56040     85.31  1.0000      1.18   2.4597  0.4902   121.52    8.43   2.4597   121.52  0.1610  1.0000  0.5428  0.0000   0.0   0.0  1.9695
  1797.71280     85.31  1.0000      1.18   2.4597  0.4902   121.52    8.42   2.4597   121.52  0.1610  1.0000  0.5427  0.0000   0.0   0.0  1.9695
  1797.86520     85.30  1.0000      1.18   2.4597  0.4901   121.52    8.42   2.4597   121.52  0.1610  1.0000  0.5427  0.0000   0.0   0.0  1.9695
  1798.01760     85.30  1.0000      1.18   2.4596  0.4901   121.52    8.42   2.4596   121.52  0.1610  1.0000  0.5426  0.0000   0.0   0.0  1.9695
  1798.17000     85.30  1.0000      1.18   2.4596  0.4901   121.52    8.42   2.4596   121.52  0.1610  1.0000  0.5426  0.0000   0.0   0.0  1.9695
  1798.32240     85.29  1.0000      1.18   2.4596  0.4901   121.52    8.42   2.4596   121.52  0.1610  1.0000  0.5425  0.0000   0.0   0.0  1.9695
  1798.47480     85.29  1.0000      1.18   2.4596  0.4901   121.52    8.42   2.4596   121.52  0.1610  1.0000  0.5425  0.0000   0.0   0.0  1.9695
  1798.62720     85.28  1.0000      1.18   2.4596  0.4901   121.52    8.42   2.4596   121.52  0.1610  1.0000  0.5424  0.0000   0.0   0.0  1.9695
  1798.77960     85.28  1.0000      1.18   2.4596  0.4901   121.52    8.42   2.4596   121.52  0.1610  1.0000  0.5424  0.0000   0.0   0.0  1.9695
  1798.93200     85.28  1.0000      1.18   2.4596  0.4901   121.52    8.42   2.4596   121.52  0.1610  1.0000  0.5424  0.0000   0.0   0.0  1.9695
  1799.08440     85.27  1.0000      1.18   2.4596  0.4901   121.52    8.42   2.4596   121.52  0.1610  1.0000  0.5423  0.0000   0.0   0.0  1.9695
  1799.23680     85.27  1.0000      1.18   2.4596  0.4901   121.52    8.42   2.4596   121.52  0.1610  1.0000  0.5423  0.0000   0.0   0.0  1.9695
  1799.38920     85.27  1.0000      1.18   2.4596  0.4901   121.51    8.42   2.4596   121.51  0.1610  1.0000  0.5422  0.0000   0.0   0.0  1.9695
  1799.54160     85.26  1.0000      1.18   2.4596  0.4901   121.51    8.42   2.4596   121.51  0.1610  1.0000  0.5422  0.0000   0.0   0.0  1.9695
  1799.69400     85.26  1.0000      1.18   2.4596  0.4901   121.51    8.42   2.4596   121.51  0.1610  1.0000  0.5421  0.0000   0.0   0.0  1.9695
  1799.84640     85.26  1.0000      1.18   2.4596  0.4901   121.51    8.42   2.4596   121.51  0.1610  1.0000  0.5421  0.0000   0.0   0.0  1.9695
  1799.99880     85.25  1.0000      1.18   2.4596  0.4901   121.51    8.42   2.4596   121.51  0.1610  1.0000  0.5420  0.0000   0.0   0.0  1.9695
  1800.15120     85.25  1.0000      1.18   2.4596  0.4901   121.51    8.42   2.4596   121.51  0.1610  1.0000  0.5420  0.0000   0.0   0.0  1.9695
  1800.30360     85.25  1.0000      1.18   2.4596  0.4901   121.51    8.42   2.4596   121.51  0.1610  1.0000  0.5419  0.0000   0.0   0.0  1.9695
  1800.45600     85.24  1.0000      1.18   2.4595  0.4901   121.51    8.41   2.4595   121.51  0.1610  1.0000  0.5419  0.0000   0.0   0.0  1.9695
  1800.60840     85.24  1.0000      1.18   2.4595  0.4901   121.51    8.41   2.4595   121.51  0.1610  1.0000  0.5419  0.0000   0.0   0.0  1.9695
  1800.76080     85.24  1.0000      1.18   2.4595  0.4901   121.51    8.41   2.4595   121.51  0.1610  1.0000  0.5418  0.0000   0.0   0.0  1.9695
  1800.91320     85.23  1.0000      1.18   2.4595  0.4901   121.51    8.41   2.4595   121.51  0.1610  1.0000  0.5418  0.0000   0.0   0.0  1.9695
  1801.06560     85.23  1.0000      1.18   2.4595  0.4901   121.51    8.41   2.4595   121.51  0.1610  1.0000  0.5417  0.0000   0.0   0.0  1.9695
  1801.21800     85.23  1.0000      1.18   2.4595  0.4901   121.51    8.41   2.4595   121.51  0.1610  1.0000  0.5417  0.0000   0.0   0.0  1.9695
  1801.37040     85.23  1.0000      1.18   2.4595  0.4901   121.51    8.41   2.4595   121.51  0.1610  1.0000  0.5416  0.0000   0.0   0.0  1.9695
  1801.52280     85.22  1.0000      1.18   2.4595  0.4900   121.51    8.41   2.4595   121.51  0.1610  1.0000  0.5416  0.0000   0.0   0.0  1.9694
  1801.67520     85.22  1.0000      1.18   2.4595  0.4900   121.51    8.41   2.4595   121.51  0.1610  1.0000  0.5415  0.0000   0.0   0.0  1.9694
  1801.82760     85.22  1.0000      1.18   2.4595  0.4900   121.51    8.41   2.4595   121.51  0.1610  1.0000  0.5415  0.0000   0.0   0.0  1.9694
  1801.98000     85.21  1.0000      1.18   2.4595  0.4900   121.51    8.41   2.4595   121.51  0.1610  1.0000  0.5414  0.0000   0.0   0.0  1.9694
  1802.13240     85.21  1.0000      1.19   2.4595  0.4900   121.51    8.41   2.4595   121.51  0.1610  1.0000  0.5414  0.0000   0.0   0.0  1.9694
  1802.28480     85.21  1.0000      1.19   2.4595  0.4900   121.51    8.41   2.4595   121.51  0.1610  1.0000  0.5413  0.0000   0.0   0.0  1.9694
  1802.43720     85.21  1.0000      1.19   2.4595  0.4900   121.50    8.41   2.4595   121.50  0.1610  1.0000  0.5413  0.0000   0.0   0.0  1.9694
  1802.58960     85.20  1.0000      1.19   2.4594  0.4900   121.50    8.41   2.4594   121.50  0.1610  1.0000  0.5413  0.0000   0.0   0.0  1.9694
  1802.74200     85.20  1.0000      1.19   2.4594  0.4900   121.50    8.41   2.4594   121.50  0.1610  1.0000  0.5412  0.0000   0.0   0.0  1.9694
  1802.89440     85.20  1.0000      1.19   2.4594  0.4900   121.50    8.41   2.4594   121.50  0.1610  1.0000  0.5412  0.0000   0.0   0.0  1.9694
  1803.04680     85.19  1.0000      1.19   2.4594  0.4900   121.50    8.41   2.4594   121.50  0.1610  1.0000  0.5411  0.0000   0.0   0.0  1.9694
  1803.19920     85.19  1.0000      1.19   2.4594  0.4900   121.50    8.40   2.4594   121.50  0.1610  1.0000  0.5411  0.0000   0.0   0.0  1.9694
  1803.35160     85.19  1.0000      1.19   2.4594  0.4900   121.50    8.40   2.4594   121.50  0.1609  1.0000  0.5410  0.0000   0.0   0.0  1.9694
  1803.50400     85.19  1.0000      1.19   2.4594  0.4900   121.50    8.40   2.4594   121.50  0.1609  1.0000  0.5410  0.0000   0.0   0.0  1.9694
  1803.65640     85.19  1.0000      1.19   2.4594  0.4900   121.50    8.40   2.4594   121.50  0.1609  1.0000  0.5409  0.0000   0.0   0.0  1.9694
  1803.80880     85.18  1.0000      1.19   2.4594  0.4900   121.50    8.40   2.4594   121.50  0.1609  1.0000  0.5409  0.0000   0.0   0.0  1.9694
  1803.96120     85.18  1.0000      1.19   2.4594  0.4900   121.50    8.40   2.4594   121.50  0.1609  1.0000  0.5408  0.0000   0.0   0.0  1.9694
  1804.11360     85.18  1.0000      1.19   2.4594  0.4900   121.50    8.40   2.4594   121.50  0.1609  1.0000  0.5408  0.0000   0.0   0.0  1.9694
  1804.26600     85.18  1.0000      1.19   2.4594  0.4900   121.50    8.40   2.4594   121.50  0.1609  1.0000  0.5408  0.0000   0.0   0.0  1.9693
  1804.41840     85.17  1.0000      1.19   2.4593  0.4900   121.50    8.40   2.4593   121.50  0.1609  1.0000  0.5407  0.0000   0.0   0.0  1.9693
  1804.57080     85.17  1.0000      1.19   2.4593  0.4900   121.50    8.40   2.4593   121.50  0.1609  1.0000  0.5407  0.0000   0.0   0.0  1.9693
  1804.72320     85.17  1.0000      1.19   2.4593  0.4900   121.50    8.40   2.4593   121.50  0.1609  1.0000  0.5406  0.0000   0.0   0.0  1.9693
  1804.87560     85.17  1.0000      1.19   2.4593  0.4900   121.50    8.40   2.4593   121.50  0.1609  1.0000  0.5406  0.0000   0.0   0.0  1.9693
  1805.02800     85.16  1.0000      1.19   2.4593  0.4900   121.50    8.40   2.4593   121.50  0.1609  1.0000  0.5405  0.0000   0.0   0.0  1.9693
  1805.18040     85.16  1.0000      1.19   2.4593  0.4900   121.50    8.40   2.4593   121.50  0.1609  1.0000  0.5405  0.0000   0.0   0.0  1.9693
  1805.33280     85.16  1.0000      1.19   2.4593  0.4900   121.50    8.40   2.4593   121.50  0.1609  1.0000  0.5404  0.0000   0.0   0.0  1.9693
  1805.48520     85.16  1.0000      1.19   2.4593  0.4900   121.50    8.40   2.4593   121.50  0.1609  1.0000  0.5404  0.0000   0.0   0.0  1.9693
  1805.63760     85.16  1.0000      1.19   2.4593  0.4900   121.50    8.40   2.4593   121.50  0.1609  1.0000  0.5403  0.0000   0.0   0.0  1.9693
  1805.79000     85.16  1.0000      1.19   2.4593  0.4900   121.50    8.40   2.4593   121.50  0.1609  1.0000  0.5403  0.0000   0.0   0.0  1.9693
