~Version --------------------------------------------------
VERS.   2.0 : CWLS log ASCII Standard -VERSION 2.0
WRAP.    NO : One line per depth step
DLM . SPACE : Column Data Section Delimiter
~Well ------------------------------------------------------
STRT.M                   1250.00000 : START DEPTH (mMD)
STOP.                    2600.00000 : STOP DEPTH (mMD)
STEP.                       0.15240 : STEP (m)
NULL.                      -999.25 : NULL VALUE
COMP.  Petroleum Asia Pacific (PAPC)     : COMPANY
WELL.  BOKOR-2                          : WELL
FLD .  BOKOR                            : FIELD
LOC .  Offshore Sarawak, Malaysia Block : LOCATION
PROV.  Sarawak                          : PROVINCE
CNTY.  Sarawak                          : COUNTY
STAT.  Malaysia                        : STATE
CTRY.  Malaysia                        : COUNTRY
SRVC.  Geoquest Malaysia Sdn Bhd       : SERVICE COMPANY
DATE.  2024-04-22                      : LOG DATE
UWI .  BOKOR-2 ST00                     : UNIQUE WELL ID
API .  97MSAW00002B000                  : API NUMBER
EKB .  45.80                           : ELEVATION KELLY BUSHING (m)
EGL .  46.20                           : ELEVATION GROUND LEVEL (m)
TDD .  2640.00                          : TOTAL DEPTH DRILLED (mMD)
TVD .  2431.00                          : TOTAL VERTICAL DEPTH (mTVDSS)
~Curve Information -----------------------------------------
DEPT   .M     : Measured Depth (mMD)
GR     .GAPI  : Gamma Ray (Total)
GR_NSH .V/V   : GR Normalized Shale
RT     .OHMM  : Deep Resistivity (Array Induction AI45)
RHOB   .G/CC  : Bulk Density
NPHI   .V/V   : Neutron Porosity (limestone eq)
DT     .US/F  : Sonic Transit Time (compressional)
CALI   .IN    : Caliper
DEN    .G/CC  : Bulk Density (alias)
AC     .US/F  : Sonic Transit Time (alias)
PHI_E  .V/V   : Effective Porosity (DN average)
VSHALE .V/V   : Shale Volume (GR linear)
SW     .V/V   : Water Saturation (Archie, Rw=0.025)
VHC    .V/V   : Hydrocarbon Volume (PhiE x (1-SW))
NET    .BIN   : Net Reservoir Flag (VSHALE<0.40)
PAY    .BIN   : Pay Flag (NET=1 AND SW<0.60)
CROSS  .V/V   : Neutron-Density Crossover (RHOB-NPHI)
~Params ----------------------------------------------------
FORM .  BOKOR-2                        : Formation / Well ID
RFT  .  1380.0  1420.0  1600.0  1720.0 : RFT sample depths (mMD)
MD_D .  1250.0                         : Measured depth datum (mMD)
TVDSS.  46.20                          : TVD at datum (mTVDSS)
DATUM.  MSL  Mean Sea Level             : Depth datum reference
# Formation Tops (EXPLORATORY_VISUALIZATION — not RFT-confirmed)
# BOKOR-2 is 1.2km NE of BOKOR-1 — slight structural updip
FM_TOP .  1360.0  : Top FMM Formation (Shale) — 45m deeper than BOKOR-1
SS1_TOP.  1520.0  : Top Shallow Sand 1 — downdip vs BOKOR-1
SS1_BOT.  1600.0  : Bottom Shallow Sand 1
SS2_TOP.  1650.0  : Top Deep Sand 2  <-- main gas reservoir (30m deeper than BOKOR-1)
SS2_BOT.  1810.0  : Bottom Deep Sand 2
SS3_TOP.  1920.0  : Top Deep Sand 3
SS3_BOT.  2080.0  : Bottom Deep Sand 3
BASE  .  2130.0  : Base of reservoir section
# Petrophysics cutoffs
RW     .  0.025  : Formation water resistivity (ohm.m)
PHIT  .  0.30   : Total porosity cutoff
VSH_cut .  0.40 : Shale volume cutoff for net pay
SW_cut  .  0.60 : Sw cutoff for pay
CLAIM  .  EXPLORATORY_VISUALIZATION    : Default claim state
~Other -----------------------------------------------------
BOKOR-2 is the second well in the BOKOR field appraisal program.
Drilled April 2024 by PAPC, 1.2km NE of BOKOR-1 on the same structural
closure. Objectives: (1) confirm lateral continuity of SS2 and SS3 fans,
(2) RFT sampling in SS2 gas column. Result: Gas confirmed in SS2 and SS3.
Shows higher porosity in SS2 vs BOKOR-1 due to cleaner sand facies.
Depths are measured from GL (46.2m above MSL). All in mMD.
~ASCII -----------------------------------------------------
# ...
  2231.45600    110.11  1.0000      2.18   2.4588  0.5060   121.90    8.38   2.4588   121.90  0.1763  1.0000  0.3646  0.0000   0.0   0.0  1.9528
  2231.60840    110.11  1.0000      2.18   2.4588  0.5061   121.91    8.38   2.4588   121.91  0.1763  1.0000  0.3645  0.0000   0.0   0.0  1.9528
  2231.76080    110.10  1.0000      2.18   2.4588  0.5061   121.91    8.38   2.4588   121.91  0.1763  1.0000  0.3645  0.0000   0.0   0.0  1.9527
  2231.91320    110.10  1.0000      2.18   2.4588  0.5061   121.91    8.38   2.4588   121.91  0.1763  1.0000  0.3645  0.0000   0.0   0.0  1.9527
  2232.06560    110.10  1.0000      2.18   2.4588  0.5061   121.92    8.37   2.4588   121.92  0.1763  1.0000  0.3645  0.0000   0.0   0.0  1.9527
  2232.21800    110.09  1.0000      2.18   2.4588  0.5061   121.92    8.37   2.4588   121.92  0.1762  1.0000  0.3645  0.0000   0.0   0.0  1.9526
  2232.37040    110.09  1.0000      2.18   2.4588  0.5062   121.93    8.37   2.4588   121.93  0.1762  1.0000  0.3644  0.0000   0.0   0.0  1.9526
  2232.52280    110.09  1.0000      2.18   2.4588  0.5062   121.93    8.37   2.4588   121.93  0.1762  1.0000  0.3644  0.0000   0.0   0.0  1.9526
  2232.67520    110.08  1.0000      2.18   2.4588  0.5062   121.93    8.37   2.4588   121.93  0.1762  1.0000  0.3644  0.0000   0.0   0.0  1.9525
  2232.82760    110.08  1.0000      2.18   2.4587  0.5062   121.94    8.37   2.4587   121.94  0.1762  1.0000  0.3644  0.0000   0.0   0.0  1.9525
  2232.98000    110.08  1.0000      2.18   2.4587  0.5063   121.94    8.37   2.4587   121.94  0.1762  1.0000  0.3644  0.0000   0.0   0.0  1.9525
  2233.13240    110.07  1.0000      2.18   2.4587  0.5063   121.94    8.37   2.4587   121.94  0.1762  1.0000  0.3643  0.0000   0.0   0.0  1.9524
  2233.28480    110.07  1.0000      2.18   2.4587  0.5063   121.95    8.37   2.4587   121.95  0.1762  1.0000  0.3643  0.0000   0.0   0.0  1.9524
  2233.43720    110.07  1.0000      2.18   2.4587  0.5063   121.95    8.37   2.4587   121.95  0.1762  1.0000  0.3643  0.0000   0.0   0.0  1.9524
  2233.58960    110.06  1.0000      2.18   2.4587  0.5064   121.95    8.37   2.4587   121.95  0.1762  1.0000  0.3643  0.0000   0.0   0.0  1.9523
  2233.74200    110.06  1.0000      2.18   2.4587  0.5064   121.96    8.37   2.4587   121.96  0.1762  1.0000  0.3643  0.0000   0.0   0.0  1.9523
  2233.89440    110.06  1.0000      2.18   2.4587  0.5064   121.96    8.37   2.4587   121.96  0.1762  1.0000  0.3642  0.0000   0.0   0.0  1.9523
  2234.04680    110.05  1.0000      2.18   2.4587  0.5064   121.96    8.37   2.4587   121.96  0.1762  1.0000  0.3642  0.0000   0.0   0.0  1.9522
  2234.19920    110.05  1.0000      2.19   2.4586  0.5065   121.97    8.37   2.4586   121.97  0.1762  1.0000  0.3642  0.0000   0.0   0.0  1.9522
  2234.35160    110.05  1.0000      2.19   2.4586  0.5065   121.97    8.37   2.4586   121.97  0.1762  1.0000  0.3642  0.0000   0.0   0.0  1.9522
  2234.50400    110.04  1.0000      2.19   2.4586  0.5065   121.98    8.37   2.4586   121.98  0.1762  1.0000  0.3642  0.0000   0.0   0.0  1.9521
  2234.65640    110.04  1.0000      2.19   2.4586  0.5065   121.98    8.37   2.4586   121.98  0.1762  1.0000  0.3641  0.0000   0.0   0.0  1.9521
  2234.80880    110.04  1.0000      2.19   2.4586  0.5065   121.98    8.37   2.4586   121.98  0.1762  1.0000  0.3641  0.0000   0.0   0.0  1.9521
  2234.96120    110.03  1.0000      2.19   2.4586  0.5066   121.99    8.37   2.4586   121.99  0.1762  1.0000  0.3641  0.0000   0.0   0.0  1.9520
  2235.11360    110.03  1.0000      2.19   2.4586  0.5066   121.99    8.37   2.4586   121.99  0.1762  1.0000  0.3641  0.0000   0.0   0.0  1.9520
  2235.26600    110.03  1.0000      2.19   2.4586  0.5066   121.99    8.37   2.4586   121.99  0.1762  1.0000  0.3641  0.0000   0.0   0.0  1.9519
  2235.41840    110.02  1.0000      2.19   2.4586  0.5066   122.00    8.37   2.4586   122.00  0.1762  1.0000  0.3640  0.0000   0.0   0.0  1.9519
  2235.57080    110.02  1.0000      2.19   2.4585  0.5067   122.00    8.37   2.4585   122.00  0.1762  1.0000  0.3640  0.0000   0.0   0.0  1.9519
  2235.72320    110.02  1.0000      2.19   2.4585  0.5067   122.00    8.37   2.4585   122.00  0.1762  1.0000  0.3640  0.0000   0.0   0.0  1.9518
  2235.87560    110.01  1.0000      2.19   2.4585  0.5067   122.01    8.37   2.4585   122.01  0.1762  1.0000  0.3640  0.0000   0.0   0.0  1.9518
  2236.02800    110.01  1.0000      2.19   2.4585  0.5067   122.01    8.37   2.4585   122.01  0.1762  1.0000  0.3640  0.0000   0.0   0.0  1.9518
  2236.18040    110.01  1.0000      2.19   2.4585  0.5068   122.01    8.37   2.4585   122.01  0.1762  1.0000  0.3639  0.0000   0.0   0.0  1.9517
  2236.33280    110.00  1.0000      2.19   2.4585  0.5068   122.02    8.37   2.4585   122.02  0.1762  1.0000  0.3639  0.0000   0.0   0.0  1.9517
  2236.48520    110.00  1.0000      2.19   2.4585  0.5068   122.02    8.36   2.4585   122.02  0.1762  1.0000  0.3639  0.0000   0.0   0.0  1.9517
  2236.63760    110.00  1.0000      2.19   2.4585  0.5068   122.02    8.36   2.4585   122.02  0.1762  1.0000  0.3639  0.0000   0.0   0.0  1.9516
  2236.79000    109.99  1.0000      2.19   2.4584  0.5068   122.03    8.36   2.4584   122.03  0.1762  1.0000  0.3639  0.0000   0.0   0.0  1.9516
  2236.94240    109.99  1.0000      2.19   2.4584  0.5069   122.03    8.36   2.4584   122.03  0.1762  1.0000  0.3638  0.0000   0.0   0.0  1.9516
  2237.09480    109.99  1.0000      2.19   2.4584  0.5069   122.03    8.36   2.4584   122.03  0.1762  1.0000  0.3638  0.0000   0.0   0.0  1.9515
  2237.24720    109.98  1.0000      2.19   2.4584  0.5069   122.04    8.36   2.4584   122.04  0.1762  1.0000  0.3638  0.0000   0.0   0.0  1.9515
  2237.39960    109.98  1.0000      2.19   2.4584  0.5069   122.04    8.36   2.4584   122.04  0.1762  1.0000  0.3638  0.0000   0.0   0.0  1.9515
  2237.55200    109.98  1.0000      2.19   2.4584  0.5070   122.04    8.36   2.4584   122.04  0.1762  1.0000  0.3638  0.0000   0.0   0.0  1.9514
  2237.70440    109.97  1.0000      2.19   2.4584  0.5070   122.05    8.36   2.4584   122.05  0.1762  1.0000  0.3637  0.0000   0.0   0.0  1.9514
  2237.85680    109.97  1.0000      2.19   2.4584  0.5070   122.05    8.36   2.4584   122.05  0.1762  1.0000  0.3637  0.0000   0.0   0.0  1.9514
  2238.00920    109.97  1.0000      2.19   2.4583  0.5070   122.05    8.36   2.4583   122.05  0.1762  1.0000  0.3637  0.0000   0.0   0.0  1.9513
  2238.16160    109.96  1.0000      2.19   2.4583  0.5070   122.06    8.36   2.4583   122.06  0.1762  1.0000  0.3637  0.0000   0.0   0.0  1.9513
  2238.31400    109.96  1.0000      2.19   2.4583  0.5071   122.06    8.36   2.4583   122.06  0.1762  1.0000  0.3637  0.0000   0.0   0.0  1.9513
  2238.46640    109.95  1.0000      2.19   2.4583  0.5071   122.06    8.36   2.4583   122.06  0.1762  1.0000  0.3636  0.0000   0.0   0.0  1.9512
  2238.61880    109.95  1.0000      2.19   2.4583  0.5071   122.07    8.36   2.4583   122.07  0.1762  1.0000  0.3636  0.0000   0.0   0.0  1.9512
  2238.77120    109.95  1.0000      2.19   2.4583  0.5071   122.07    8.36   2.4583   122.07  0.1762  1.0000  0.3636  0.0000   0.0   0.0  1.9512
  2238.92360    109.94  1.0000      2.19   2.4583  0.5071   122.07    8.36   2.4583   122.07  0.1762  1.0000  0.3636  0.0000   0.0   0.0  1.9511
  2239.07600    109.94  1.0000      2.19   2.4583  0.5072   122.08    8.36   2.4583   122.08  0.1762  1.0000  0.3636  0.0000   0.0   0.0  1.9511
  2239.22840    109.94  1.0000      2.19   2.4582  0.5072   122.08    8.36   2.4582   122.08  0.1762  1.0000  0.3635  0.0000   0.0   0.0  1.9511
  2239.38080    109.93  1.0000      2.19   2.4582  0.5072   122.08    8.36   2.4582   122.08  0.1761  1.0000  0.3635  0.0000   0.0   0.0  1.9510
  2239.53320    109.93  1.0000      2.20   2.4582  0.5072   122.08    8.36   2.4582   122.08  0.1761  1.0000  0.3635  0.0000   0.0   0.0  1.9510
  2239.68560    109.93  1.0000      2.20   2.4582  0.5073   122.09    8.36   2.4582   122.09  0.1761  1.0000  0.3635  0.0000   0.0   0.0  1.9510
  2239.83800    109.92  1.0000      2.20   2.4582  0.5073   122.09    8.36   2.4582   122.09  0.1761  1.0000  0.3635  0.0000   0.0   0.0  1.9509
