~Version --------------------------------------------------
VERS.   2.0 : CWLS log ASCII Standard -VERSION 2.0
WRAP.    NO : One line per depth step
DLM . SPACE : Column Data Section Delimiter
~Well ------------------------------------------------------
STRT.M                   1200.00000 : START DEPTH (mMD)
STOP.                    2500.00000 : STOP DEPTH (mMD)
STEP.                       0.15240 : STEP (m)
NULL.                      -999.25 : NULL VALUE
COMP.  Petroleum Asia Pacific (PAPC)     : COMPANY
WELL.  BOKOR-1                          : WELL
FLD .  BOKOR                            : FIELD
LOC .  Offshore Sarawak, Malaysia Block : LOCATION
PROV.  Sarawak                          : PROVINCE
CNTY.  Sarawak                          : COUNTY
STAT.  Malaysia                        : STATE
CTRY.  Malaysia                        : COUNTRY
SRVC.  Geoquest Malaysia Sdn Bhd       : SERVICE COMPANY
DATE.  2024-03-15                      : LOG DATE
UWI .  BOKOR-1 ST00                     : UNIQUE WELL ID
API .  97MSAW00001B000                  : API NUMBER
EKB .  1234.56                          : ELEVATION KELLY BUSHING (m)
EGL .  1235.20                          : ELEVATION GROUND LEVEL (m)
TDD .  2550.00                          : TOTAL DEPTH DRILLED (mMD)
TVD .  2340.15                          : TOTAL VERTICAL DEPTH (mTVDSS)
~Curve Information -----------------------------------------
DEPT   .M     : Measured Depth (mMD)
GR     .GAPI  : Gamma Ray (Total)
GR_NSH .V/V   : GR Normalized Shale
RT     .OHMM  : Deep Resistivity (Array Induction AI45)
RHOB   .G/CC  : Bulk Density
NPHI   .V/V   : Neutron Porosity (limestone eq)
DT     .US/F  : Sonic Transit Time (compressional)
CALI   .IN    : Caliper
DEN    .G/CC  : Bulk Density (alias)
AC     .US/F  : Sonic Transit Time (alias)
PHI_E  .V/V   : Effective Porosity (DN average)
VSHALE .V/V   : Shale Volume (GR linear)
SW     .V/V   : Water Saturation (Archie, Rw=0.025)
VHC    .V/V   : Hydrocarbon Volume (PhiE x (1-SW))
NET    .BIN   : Net Reservoir Flag (VSHALE<0.40)
PAY    .BIN   : Pay Flag (NET=1 AND SW<0.60)
CROSS  .V/V   : Neutron-Density Crossover (RHOB-NPHI)
~Params ----------------------------------------------------
FORM .  BOKOR-1                        : Formation / Well ID
RFT  .  1350.0  1400.0  1550.0         : RFT sample depths (mMD)
MD_D .  1200.0                         : Measured depth datum (mMD)
TVDSS.  1235.2                         : TVD at datum (mTVDSS)
DATUM.  MSL  Mean Sea Level             : Depth datum reference
# Formation Tops (EXPLORATORY_VISUALIZATION — not RFT-confirmed)
FM_TOP .  1315.0  : Top FMM Formation (Shale)
SS1_TOP.  1480.0  : Top Shallow Sand 1
SS1_BOT.  1560.0  : Bottom Shallow Sand 1
SS2_TOP.  1620.0  : Top Deep Sand 2  <-- main gas reservoir
SS2_BOT.  1780.0  : Bottom Deep Sand 2
SS3_TOP.  1890.0  : Top Deep Sand 3
SS3_BOT.  2050.0  : Bottom Deep Sand 3
BASE  .  2100.0  : Base of reservoir section
# Petrophysics cutoffs
RW     .  0.025  : Formation water resistivity (ohm.m)
PHIT  .  0.30   : Total porosity cutoff
VSH_cut .  0.40 : Shale volume cutoff for net pay
SW_cut  .  0.60 : Sw cutoff for pay
CLAIM  .  EXPLORATORY_VISUALIZATION    : Default claim state
~Other -----------------------------------------------------
BOKOR-1 was drilled by PAPC in March 2024 as a wildcat exploration
well to test Miocene turbidite sands in the BOKOR structural closure.
Result: Gas shows in SS2 and SS3. RFT confirmation pending.
Depths are measured from GL (1235.2m above MSL). All in mMD.
~ASCII -----------------------------------------------------
# ...
  1370.68800    113.46  1.0000      1.14   2.4599  0.5076   124.14    8.46   2.4599   124.14  0.1674  1.0000  0.5307  0.0000   0.0   0.0  1.9523
  1370.84040    113.45  1.0000      1.14   2.4599  0.5076   124.13    8.46   2.4599   124.13  0.1674  1.0000  0.5307  0.0000   0.0   0.0  1.9523
  1370.99280    113.44  1.0000      1.14   2.4599  0.5075   124.13    8.46   2.4599   124.13  0.1674  1.0000  0.5308  0.0000   0.0   0.0  1.9524
  1371.14520    113.43  1.0000      1.14   2.4599  0.5075   124.13    8.46   2.4599   124.13  0.1674  1.0000  0.5308  0.0000   0.0   0.0  1.9524
  1371.29760    113.42  1.0000      1.14   2.4599  0.5075   124.13    8.46   2.4599   124.13  0.1674  1.0000  0.5309  0.0000   0.0   0.0  1.9524
  1371.45000    113.41  1.0000      1.14   2.4599  0.5075   124.12    8.46   2.4599   124.12  0.1674  1.0000  0.5310  0.0000   0.0   0.0  1.9524
  1371.60240    113.40  1.0000      1.14   2.4599  0.5075   124.12    8.45   2.4599   124.12  0.1674  1.0000  0.5310  0.0000   0.0   0.0  1.9524
  1371.75480    113.39  1.0000      1.14   2.4599  0.5074   124.12    8.45   2.4599   124.12  0.1674  1.0000  0.5311  0.0000   0.0   0.0  1.9524
  1371.90720    113.38  1.0000      1.14   2.4599  0.5074   124.11    8.45   2.4599   124.11  0.1674  1.0000  0.5311  0.0000   0.0   0.0  1.9525
  1372.05960    113.37  1.0000      1.14   2.4599  0.5074   124.11    8.45   2.4599   124.11  0.1674  1.0000  0.5312  0.0000   0.0   0.0  1.9525
  1372.21200    113.36  1.0000      1.14   2.4599  0.5074   124.11    8.45   2.4599   124.11  0.1674  1.0000  0.5312  0.0000   0.0   0.0  1.9525
  1372.36440    113.35  1.0000      1.14   2.4599  0.5074   124.10    8.45   2.4599   124.10  0.1674  1.0000  0.5313  0.0000   0.0   0.0  1.9525
  1372.51680    113.34  1.0000      1.14   2.4599  0.5073   124.10    8.45   2.4599   124.10  0.1674  1.0000  0.5313  0.0000   0.0   0.0  1.9525
  1372.66920    113.33  1.0000      1.14   2.4599  0.5073   124.10    8.45   2.4599   124.10  0.1674  1.0000  0.5314  0.0000   0.0   0.0  1.9525
  1372.82160    113.32  1.0000      1.14   2.4599  0.5073   124.09    8.45   2.4599   124.09  0.1674  1.0000  0.5315  0.0000   0.0   0.0  1.9526
  1372.97400    113.31  1.0000      1.14   2.4598  0.5073   124.09    8.45   2.4598   124.09  0.1674  1.0000  0.5315  0.0000   0.0   0.0  1.9526
  1373.12640    113.30  1.0000      1.14   2.4598  0.5073   124.09    8.45   2.4598   124.09  0.1674  1.0000  0.5316  0.0000   0.0   0.0  1.9526
  1373.27880    113.29  1.0000      1.14   2.4598  0.5072   124.09    8.45   2.4598   124.09  0.1674  1.0000  0.5316  0.0000   0.0   0.0  1.9526
  1373.43120    113.28  1.0000      1.14   2.4598  0.5072   124.08    8.45   2.4598   124.08  0.1674  1.0000  0.5317  0.0000   0.0   0.0  1.9526
  1373.58360    113.27  1.0000      1.14   2.4598  0.5072   124.08    8.45   2.4598   124.08  0.1674  1.0000  0.5317  0.0000   0.0   0.0  1.9526
  1373.73600    113.26  1.0000      1.14   2.4598  0.5072   124.08    8.45   2.4598   124.08  0.1674  1.0000  0.5318  0.0000   0.0   0.0  1.9527
  1373.88840    113.25  1.0000      1.14   2.4598  0.5071   124.07    8.44   2.4598   124.07  0.1674  1.0000  0.5318  0.0000   0.0   0.0  1.9527
  1374.04080    113.24  1.0000      1.14   2.4598  0.5071   124.07    8.44   2.4598   124.07  0.1674  1.0000  0.5319  0.0000   0.0   0.0  1.9527
  1374.19320    113.23  1.0000      1.14   2.4598  0.5071   124.07    8.44   2.4598   124.07  0.1674  1.0000  0.5319  0.0000   0.0   0.0  1.9527
  1374.34560    113.21  1.0000      1.13   2.4598  0.5071   124.06    8.44   2.4598   124.06  0.1674  1.0000  0.5320  0.0000   0.0   0.0  1.9527
  1374.49800    113.20  1.0000      1.13   2.4598  0.5071   124.06    8.44   2.4598   124.06  0.1674  1.0000  0.5321  0.0000   0.0   0.0  1.9527
  1374.65040    113.19  1.0000      1.13   2.4598  0.5070   124.06    8.44   2.4598   124.06  0.1674  1.0000  0.5321  0.0000   0.0   0.0  1.9528
  1374.80280    113.18  1.0000      1.13   2.4598  0.5070   124.05    8.44   2.4598   124.05  0.1674  1.0000  0.5322  0.0000   0.0   0.0  1.9528
  1374.95520    113.17  1.0000      1.13   2.4598  0.5070   124.05    8.44   2.4598   124.05  0.1674  1.0000  0.5322  0.0000   0.0   0.0  1.9528
  1375.10760    113.16  1.0000      1.13   2.4598  0.5070   124.05    8.44   2.4598   124.05  0.1674  1.0000  0.5323  0.0000   0.0   0.0  1.9528
  1375.26000    113.15  1.0000      1.13   2.4598  0.5070   124.04    8.44   2.4598   124.04  0.1674  1.0000  0.5323  0.0000   0.0   0.0  1.9528
  1375.41240    113.14  1.0000      1.13   2.4598  0.5069   124.04    8.44   2.4598   124.04  0.1674  1.0000  0.5324  0.0000   0.0   0.0  1.9528
  1375.56480    113.13  1.0000      1.13   2.4598  0.5069   124.04    8.44   2.4598   124.04  0.1674  1.0000  0.5324  0.0000   0.0   0.0  1.9529
  1375.71720    113.12  1.0000      1.13   2.4598  0.5069   124.03    8.44   2.4598   124.03  0.1674  1.0000  0.5325  0.0000   0.0   0.0  1.9529
  1375.86960    113.11  1.0000      1.13   2.4598  0.5069   124.03    8.44   2.4598   124.03  0.1674  1.0000  0.5326  0.0000   0.0   0.0  1.9529
  1376.02200    113.10  1.0000      1.13   2.4598  0.5068   124.03    8.44   2.4598   124.03  0.1674  1.0000  0.5326  0.0000   0.0   0.0  1.9529
  1376.17440    113.09  1.0000      1.13   2.4598  0.5068   124.02    8.44   2.4598   124.02  0.1674  1.0000  0.5327  0.0000   0.0   0.0  1.9529
  1376.32680    113.07  1.0000      1.13   2.4597  0.5068   124.02    8.43   2.4597   124.02  0.1674  1.0000  0.5327  0.0000   0.0   0.0  1.9529
  1376.47920    113.06  1.0000      1.13   2.4597  0.5068   124.02    8.43   2.4597   124.02  0.1674  1.0000  0.5328  0.0000   0.0   0.0  1.9530
  1376.63160    113.05  1.0000      1.13   2.4597  0.5068   124.01    8.43   2.4597   124.01  0.1674  1.0000  0.5328  0.0000   0.0   0.0  1.9530
  1376.78400    113.04  1.0000      1.13   2.4597  0.5067   124.01    8.43   2.4597   124.01  0.1673  1.0000  0.5329  0.0000   0.0   0.0  1.9530
  1376.93640    113.03  1.0000      1.13   2.4597  0.5067   124.01    8.43   2.4597   124.01  0.1673  1.0000  0.5329  0.0000   0.0   0.0  1.9530
  1377.08880    113.02  1.0000      1.13   2.4597  0.5067   124.00    8.43   2.4597   124.00  0.1673  1.0000  0.5330  0.0000   0.0   0.0  1.9530
  1377.24120    113.01  1.0000      1.13   2.4597  0.5067   124.00    8.43   2.4597   124.00  0.1673  1.0000  0.5330  0.0000   0.0   0.0  1.9531
  1377.39360    113.00  1.0000      1.13   2.4597  0.5066   124.00    8.43   2.4597   124.00  0.1673  1.0000  0.5331  0.0000   0.0   0.0  1.9531
  1377.54600    112.99  1.0000      1.13   2.4597  0.5066   123.99    8.43   2.4597   123.99  0.1673  1.0000  0.5332  0.0000   0.0   0.0  1.9531
  1377.69840    112.97  1.0000      1.13   2.4597  0.5066   123.99    8.43   2.4597   123.99  0.1673  1.0000  0.5332  0.0000   0.0   0.0  1.9531
  1377.85080    112.96  1.0000      1.13   2.4597  0.5066   123.99    8.43   2.4597   123.99  0.1673  1.0000  0.5333  0.0000   0.0   0.0  1.9531
  1378.00320    112.95  1.0000      1.13   2.4597  0.5066   123.98    8.43   2.4597   123.98  0.1673  1.0000  0.5333  0.0000   0.0   0.0  1.9531
  1378.15560    112.94  1.0000      1.13   2.4597  0.5065   123.98    8.43   2.4597   123.98  0.1673  1.0000  0.5334  0.0000   0.0   0.0  1.9532
  1378.30800    112.93  1.0000      1.13   2.4597  0.5065   123.98    8.43   2.4597   123.98  0.1673  1.0000  0.5334  0.0000   0.0   0.0  1.9532
  1378.46040    112.92  1.0000      1.13   2.4597  0.5065   123.97    8.43   2.4597   123.97  0.1673  1.0000  0.5335  0.0000   0.0   0.0  1.9532
  1378.61280    112.91  1.0000      1.13   2.4597  0.5065   123.97    8.43   2.4597   123.97  0.1673  1.0000  0.5335  0.0000   0.0   0.0  1.9532
  1378.76520    112.89  1.0000      1.13   2.4597  0.5064   123.97    8.43   2.4597   123.97  0.1673  1.0000  0.5336  0.0000   0.0   0.0  1.9532
  1378.91760    112.88  1.0000      1.13   2.4597  0.5064   123.96    8.42   2.4597   123.96  0.1673  1.0000  0.5336  0.0000   0.0   0.0  1.9532
  1379.07000    112.87  1.0000      1.13   2.4596  0.5064   123.96    8.42   2.4596   123.96  0.1673  1.0000  0.5337  0.0000   0.0   0.0  1.9533
