~Version --------------------------------------------------
VERS.   2.0 : CWLS log ASCII Standard -VERSION 2.0
WRAP.    NO : One line per depth step
DLM . SPACE : Column Data Section Delimiter
~Well ------------------------------------------------------
STRT.M                   1250.00000 : START DEPTH (mMD)
STOP.                    2600.00000 : STOP DEPTH (mMD)
STEP.                       0.15240 : STEP (m)
NULL.                      -999.25 : NULL VALUE
COMP.  Petroleum Asia Pacific (PAPC)     : COMPANY
WELL.  BOKOR-2                          : WELL
FLD .  BOKOR                            : FIELD
LOC .  Offshore Sarawak, Malaysia Block : LOCATION
PROV.  Sarawak                          : PROVINCE
CNTY.  Sarawak                          : COUNTY
STAT.  Malaysia                        : STATE
CTRY.  Malaysia                        : COUNTRY
SRVC.  Geoquest Malaysia Sdn Bhd       : SERVICE COMPANY
DATE.  2024-04-22                      : LOG DATE
UWI .  BOKOR-2 ST00                     : UNIQUE WELL ID
API .  97MSAW00002B000                  : API NUMBER
EKB .  45.80                           : ELEVATION KELLY BUSHING (m)
EGL .  46.20                           : ELEVATION GROUND LEVEL (m)
TDD .  2640.00                          : TOTAL DEPTH DRILLED (mMD)
TVD .  2431.00                          : TOTAL VERTICAL DEPTH (mTVDSS)
~Curve Information -----------------------------------------
DEPT   .M     : Measured Depth (mMD)
GR     .GAPI  : Gamma Ray (Total)
GR_NSH .V/V   : GR Normalized Shale
RT     .OHMM  : Deep Resistivity (Array Induction AI45)
RHOB   .G/CC  : Bulk Density
NPHI   .V/V   : Neutron Porosity (limestone eq)
DT     .US/F  : Sonic Transit Time (compressional)
CALI   .IN    : Caliper
DEN    .G/CC  : Bulk Density (alias)
AC     .US/F  : Sonic Transit Time (alias)
PHI_E  .V/V   : Effective Porosity (DN average)
VSHALE .V/V   : Shale Volume (GR linear)
SW     .V/V   : Water Saturation (Archie, Rw=0.025)
VHC    .V/V   : Hydrocarbon Volume (PhiE x (1-SW))
NET    .BIN   : Net Reservoir Flag (VSHALE<0.40)
PAY    .BIN   : Pay Flag (NET=1 AND SW<0.60)
CROSS  .V/V   : Neutron-Density Crossover (RHOB-NPHI)
~Params ----------------------------------------------------
FORM .  BOKOR-2                        : Formation / Well ID
RFT  .  1380.0  1420.0  1600.0  1720.0 : RFT sample depths (mMD)
MD_D .  1250.0                         : Measured depth datum (mMD)
TVDSS.  46.20                          : TVD at datum (mTVDSS)
DATUM.  MSL  Mean Sea Level             : Depth datum reference
# Formation Tops (EXPLORATORY_VISUALIZATION — not RFT-confirmed)
# BOKOR-2 is 1.2km NE of BOKOR-1 — slight structural updip
FM_TOP .  1360.0  : Top FMM Formation (Shale) — 45m deeper than BOKOR-1
SS1_TOP.  1520.0  : Top Shallow Sand 1 — downdip vs BOKOR-1
SS1_BOT.  1600.0  : Bottom Shallow Sand 1
SS2_TOP.  1650.0  : Top Deep Sand 2  <-- main gas reservoir (30m deeper than BOKOR-1)
SS2_BOT.  1810.0  : Bottom Deep Sand 2
SS3_TOP.  1920.0  : Top Deep Sand 3
SS3_BOT.  2080.0  : Bottom Deep Sand 3
BASE  .  2130.0  : Base of reservoir section
# Petrophysics cutoffs
RW     .  0.025  : Formation water resistivity (ohm.m)
PHIT  .  0.30   : Total porosity cutoff
VSH_cut .  0.40 : Shale volume cutoff for net pay
SW_cut  .  0.60 : Sw cutoff for pay
CLAIM  .  EXPLORATORY_VISUALIZATION    : Default claim state
~Other -----------------------------------------------------
BOKOR-2 is the second well in the BOKOR field appraisal program.
Drilled April 2024 by PAPC, 1.2km NE of BOKOR-1 on the same structural
closure. Objectives: (1) confirm lateral continuity of SS2 and SS3 fans,
(2) RFT sampling in SS2 gas column. Result: Gas confirmed in SS2 and SS3.
Shows higher porosity in SS2 vs BOKOR-1 due to cleaner sand facies.
Depths are measured from GL (46.2m above MSL). All in mMD.
~ASCII -----------------------------------------------------
# ...
  1693.78880     24.80  0.0000     84.98   2.3189  0.2013    93.45    8.58   2.3189    93.45  0.3238  0.0000  0.0530  0.3066   1.0   1.0  2.1176
  1693.94120     24.79  0.0000     85.07   2.3189  0.2013    93.44    8.58   2.3189    93.44  0.3238  0.0000  0.0529  0.3066   1.0   1.0  2.1176
  1694.09360     24.78  0.0000     85.16   2.3189  0.2013    93.44    8.58   2.3189    93.44  0.3238  0.0000  0.0529  0.3066   1.0   1.0  2.1177
  1694.24600     24.77  0.0000     85.25   2.3190  0.2012    93.43    8.58   2.3190    93.43  0.3238  0.0000  0.0529  0.3067   1.0   1.0  2.1177
  1694.39840     24.75  0.0000     85.34   2.3190  0.2012    93.43    8.58   2.3190    93.43  0.3238  0.0000  0.0529  0.3067   1.0   1.0  2.1178
  1694.55080     24.74  0.0000     85.43   2.3190  0.2012    93.43    8.58   2.3190    93.43  0.3238  0.0000  0.0528  0.3067   1.0   1.0  2.1178
  1694.70320     24.73  0.0000     85.52   2.3190  0.2012    93.42    8.58   2.3190    93.42  0.3238  0.0000  0.0528  0.3067   1.0   1.0  2.1179
  1694.85560     24.72  0.0000     85.61   2.3190  0.2011    93.42    8.58   2.3190    93.42  0.3238  0.0000  0.0528  0.3067   1.0   1.0  2.1179
  1695.00800     24.71  0.0000     85.70   2.3191  0.2011    93.42    8.58   2.3191    93.42  0.3238  0.0000  0.0528  0.3067   1.0   1.0  2.1180
  1695.16040     24.69  0.0000     85.79   2.3191  0.2011    93.41    8.58   2.3191    93.41  0.3238  0.0000  0.0527  0.3067   1.0   1.0  2.1180
  1695.31280     24.68  0.0000     85.88   2.3191  0.2011    93.41    8.58   2.3191    93.41  0.3238  0.0000  0.0527  0.3067   1.0   1.0  2.1181
  1695.46520     24.67  0.0000     85.97   2.3191  0.2010    93.41    8.58   2.3191    93.41  0.3238  0.0000  0.0527  0.3067   1.0   1.0  2.1181
  1695.61760     24.66  0.0000     86.06   2.3192  0.2010    93.40    8.59   2.3192    93.40  0.3238  0.0000  0.0526  0.3067   1.0   1.0  2.1181
  1695.77000     24.64  0.0000     86.15   2.3192  0.2010    93.40    8.59   2.3192    93.40  0.3238  0.0000  0.0526  0.3067   1.0   1.0  2.1182
  1695.92240     24.63  0.0000     86.24   2.3192  0.2010    93.39    8.59   2.3192    93.39  0.3238  0.0000  0.0526  0.3067   1.0   1.0  2.1182
  1696.07480     24.62  0.0000     86.32   2.3192  0.2009    93.39    8.59   2.3192    93.39  0.3238  0.0000  0.0526  0.3067   1.0   1.0  2.1183
  1696.22720     24.61  0.0000     86.41   2.3192  0.2009    93.39    8.59   2.3192    93.39  0.3238  0.0000  0.0525  0.3067   1.0   1.0  2.1183
  1696.37960     24.59  0.0000     86.50   2.3193  0.2009    93.38    8.59   2.3193    93.38  0.3238  0.0000  0.0525  0.3068   1.0   1.0  2.1184
  1696.53200     24.58  0.0000     86.59   2.3193  0.2009    93.38    8.59   2.3193    93.38  0.3237  0.0000  0.0525  0.3068   1.0   1.0  2.1184
  1696.68440     24.57  0.0000     86.67   2.3193  0.2008    93.38    8.59   2.3193    93.38  0.3237  0.0000  0.0525  0.3068   1.0   1.0  2.1185
  1696.83680     24.56  0.0000     86.76   2.3193  0.2008    93.37    8.59   2.3193    93.37  0.3237  0.0000  0.0524  0.3068   1.0   1.0  2.1185
  1696.98920     24.54  0.0000     86.85   2.3194  0.2008    93.37    8.59   2.3194    93.37  0.3237  0.0000  0.0524  0.3068   1.0   1.0  2.1186
  1697.14160     24.53  0.0000     86.93   2.3194  0.2008    93.37    8.59   2.3194    93.37  0.3237  0.0000  0.0524  0.3068   1.0   1.0  2.1186
  1697.29400     24.52  0.0000     87.02   2.3194  0.2007    93.36    8.59   2.3194    93.36  0.3237  0.0000  0.0524  0.3068   1.0   1.0  2.1187
  1697.44640     24.50  0.0000     87.10   2.3194  0.2007    93.36    8.59   2.3194    93.36  0.3237  0.0000  0.0523  0.3068   1.0   1.0  2.1187
  1697.59880     24.49  0.0000     87.19   2.3194  0.2007    93.35    8.59   2.3194    93.35  0.3237  0.0000  0.0523  0.3068   1.0   1.0  2.1187
  1697.75120     24.48  0.0000     87.28   2.3195  0.2007    93.35    8.59   2.3195    93.35  0.3237  0.0000  0.0523  0.3068   1.0   1.0  2.1188
  1697.90360     24.47  0.0000     87.36   2.3195  0.2006    93.35    8.59   2.3195    93.35  0.3237  0.0000  0.0523  0.3068   1.0   1.0  2.1188
  1698.05600     24.45  0.0000     87.45   2.3195  0.2006    93.34    8.59   2.3195    93.34  0.3237  0.0000  0.0522  0.3068   1.0   1.0  2.1189
  1698.20840     24.44  0.0000     87.53   2.3195  0.2006    93.34    8.59   2.3195    93.34  0.3237  0.0000  0.0522  0.3068   1.0   1.0  2.1189
  1698.36080     24.43  0.0000     87.61   2.3195  0.2006    93.33    8.59   2.3195    93.33  0.3237  0.0000  0.0522  0.3068   1.0   1.0  2.1190
  1698.51320     24.41  0.0000     87.70   2.3196  0.2005    93.33    8.60   2.3196    93.33  0.3237  0.0000  0.0522  0.3068   1.0   1.0  2.1190
  1698.66560     24.40  0.0000     87.78   2.3196  0.2005    93.33    8.60   2.3196    93.33  0.3237  0.0000  0.0521  0.3068   1.0   1.0  2.1191
  1698.81800     24.39  0.0000     87.87   2.3196  0.2005    93.32    8.60   2.3196    93.32  0.3237  0.0000  0.0521  0.3068   1.0   1.0  2.1191
  1698.97040     24.37  0.0000     87.95   2.3196  0.2005    93.32    8.60   2.3196    93.32  0.3237  0.0000  0.0521  0.3069   1.0   1.0  2.1192
  1699.12280     24.36  0.0000     88.03   2.3197  0.2004    93.32    8.60   2.3197    93.32  0.3237  0.0000  0.0521  0.3069   1.0   1.0  2.1192
  1699.27520     24.35  0.0000     88.12   2.3197  0.2004    93.31    8.60   2.3197    93.31  0.3237  0.0000  0.0520  0.3069   1.0   1.0  2.1193
  1699.42760     24.33  0.0000     88.20   2.3197  0.2004    93.31    8.60   2.3197    93.31  0.3237  0.0000  0.0520  0.3069   1.0   1.0  2.1193
  1699.58000     24.32  0.0000     88.28   2.3197  0.2004    93.30    8.60   2.3197    93.30  0.3237  0.0000  0.0520  0.3069   1.0   1.0  2.1194
  1699.73240     24.31  0.0000     88.36   2.3197  0.2003    93.30    8.60   2.3197    93.30  0.3237  0.0000  0.0520  0.3069   1.0   1.0  2.1194
  1699.88480     24.29  0.0000     88.45   2.3198  0.2003    93.30    8.60   2.3198    93.30  0.3237  0.0000  0.0519  0.3069   1.0   1.0  2.1194
  1700.03720     24.28  0.0000     88.53   2.3198  0.2003    93.29    8.60   2.3198    93.29  0.3237  0.0000  0.0519  0.3069   1.0   1.0  2.1195
  1700.18960     24.27  0.0000     88.61   2.3198  0.2003    93.29    8.60   2.3198    93.29  0.3237  0.0000  0.0519  0.3069   1.0   1.0  2.1195
  1700.34200     24.25  0.0000     88.69   2.3198  0.2002    93.28    8.60   2.3198    93.28  0.3237  0.0000  0.0519  0.3069   1.0   1.0  2.1196
  1700.49440     24.24  0.0000     88.77   2.3198  0.2002    93.28    8.60   2.3198    93.28  0.3237  0.0000  0.0518  0.3069   1.0   1.0  2.1196
  1700.64680     24.23  0.0000     88.85   2.3199  0.2002    93.28    8.60   2.3199    93.28  0.3237  0.0000  0.0518  0.3069   1.0   1.0  2.1197
  1700.79920     24.21  0.0000     88.93   2.3199  0.2002    93.27    8.60   2.3199    93.27  0.3237  0.0000  0.0518  0.3069   1.0   1.0  2.1197
  1700.95160     24.20  0.0000     89.01   2.3199  0.2001    93.27    8.60   2.3199    93.27  0.3237  0.0000  0.0518  0.3069   1.0   1.0  2.1198
  1701.10400     24.18  0.0000     89.09   2.3199  0.2001    93.27    8.60   2.3199    93.27  0.3237  0.0000  0.0518  0.3069   1.0   1.0  2.1198
  1701.25640     24.17  0.0000     89.17   2.3199  0.2001    93.26    8.60   2.3199    93.26  0.3237  0.0000  0.0517  0.3069   1.0   1.0  2.1199
  1701.40880     24.16  0.0000     89.25   2.3200  0.2000    93.26    8.61   2.3200    93.26  0.3237  0.0000  0.0517  0.3069   1.0   1.0  2.1199
  1701.56120     24.14  0.0000     89.33   2.3200  0.2000    93.25    8.61   2.3200    93.25  0.3237  0.0000  0.0517  0.3069   1.0   1.0  2.1200
  1701.71360     24.13  0.0000     89.41   2.3200  0.2000    93.25    8.61   2.3200    93.25  0.3237  0.0000  0.0517  0.3070   1.0   1.0  2.1200
  1701.86600     24.12  0.0000     89.49   2.3200  0.2000    93.25    8.61   2.3200    93.25  0.3237  0.0000  0.0516  0.3070   1.0   1.0  2.1201
  1702.01840     24.10  0.0000     89.57   2.3201  0.1999    93.24    8.61   2.3201    93.24  0.3237  0.0000  0.0516  0.3070   1.0   1.0  2.1201
  1702.17080     24.09  0.0000     89.65   2.3201  0.1999    93.24    8.61   2.3201    93.24  0.3237  0.0000  0.0516  0.3070   1.0   1.0  2.1202
