~Version --------------------------------------------------
VERS.   2.0 : CWLS log ASCII Standard -VERSION 2.0
WRAP.    NO : One line per depth step
DLM . SPACE : Column Data Section Delimiter
~Well ------------------------------------------------------
STRT.M                   1250.00000 : START DEPTH (mMD)
STOP.                    2600.00000 : STOP DEPTH (mMD)
STEP.                       0.15240 : STEP (m)
NULL.                      -999.25 : NULL VALUE
COMP.  Petroleum Asia Pacific (PAPC)     : COMPANY
WELL.  BOKOR-2                          : WELL
FLD .  BOKOR                            : FIELD
LOC .  Offshore Sarawak, Malaysia Block : LOCATION
PROV.  Sarawak                          : PROVINCE
CNTY.  Sarawak                          : COUNTY
STAT.  Malaysia                        : STATE
CTRY.  Malaysia                        : COUNTRY
SRVC.  Geoquest Malaysia Sdn Bhd       : SERVICE COMPANY
DATE.  2024-04-22                      : LOG DATE
UWI .  BOKOR-2 ST00                     : UNIQUE WELL ID
API .  97MSAW00002B000                  : API NUMBER
EKB .  45.80                           : ELEVATION KELLY BUSHING (m)
EGL .  46.20                           : ELEVATION GROUND LEVEL (m)
TDD .  2640.00                          : TOTAL DEPTH DRILLED (mMD)
TVD .  2431.00                          : TOTAL VERTICAL DEPTH (mTVDSS)
~Curve Information -----------------------------------------
DEPT   .M     : Measured Depth (mMD)
GR     .GAPI  : Gamma Ray (Total)
GR_NSH .V/V   : GR Normalized Shale
RT     .OHMM  : Deep Resistivity (Array Induction AI45)
RHOB   .G/CC  : Bulk Density
NPHI   .V/V   : Neutron Porosity (limestone eq)
DT     .US/F  : Sonic Transit Time (compressional)
CALI   .IN    : Caliper
DEN    .G/CC  : Bulk Density (alias)
AC     .US/F  : Sonic Transit Time (alias)
PHI_E  .V/V   : Effective Porosity (DN average)
VSHALE .V/V   : Shale Volume (GR linear)
SW     .V/V   : Water Saturation (Archie, Rw=0.025)
VHC    .V/V   : Hydrocarbon Volume (PhiE x (1-SW))
NET    .BIN   : Net Reservoir Flag (VSHALE<0.40)
PAY    .BIN   : Pay Flag (NET=1 AND SW<0.60)
CROSS  .V/V   : Neutron-Density Crossover (RHOB-NPHI)
~Params ----------------------------------------------------
FORM .  BOKOR-2                        : Formation / Well ID
RFT  .  1380.0  1420.0  1600.0  1720.0 : RFT sample depths (mMD)
MD_D .  1250.0                         : Measured depth datum (mMD)
TVDSS.  46.20                          : TVD at datum (mTVDSS)
DATUM.  MSL  Mean Sea Level             : Depth datum reference
# Formation Tops (EXPLORATORY_VISUALIZATION — not RFT-confirmed)
# BOKOR-2 is 1.2km NE of BOKOR-1 — slight structural updip
FM_TOP .  1360.0  : Top FMM Formation (Shale) — 45m deeper than BOKOR-1
SS1_TOP.  1520.0  : Top Shallow Sand 1 — downdip vs BOKOR-1
SS1_BOT.  1600.0  : Bottom Shallow Sand 1
SS2_TOP.  1650.0  : Top Deep Sand 2  <-- main gas reservoir (30m deeper than BOKOR-1)
SS2_BOT.  1810.0  : Bottom Deep Sand 2
SS3_TOP.  1920.0  : Top Deep Sand 3
SS3_BOT.  2080.0  : Bottom Deep Sand 3
BASE  .  2130.0  : Base of reservoir section
# Petrophysics cutoffs
RW     .  0.025  : Formation water resistivity (ohm.m)
PHIT  .  0.30   : Total porosity cutoff
VSH_cut .  0.40 : Shale volume cutoff for net pay
SW_cut  .  0.60 : Sw cutoff for pay
CLAIM  .  EXPLORATORY_VISUALIZATION    : Default claim state
~Other -----------------------------------------------------
BOKOR-2 is the second well in the BOKOR field appraisal program.
Drilled April 2024 by PAPC, 1.2km NE of BOKOR-1 on the same structural
closure. Objectives: (1) confirm lateral continuity of SS2 and SS3 fans,
(2) RFT sampling in SS2 gas column. Result: Gas confirmed in SS2 and SS3.
Shows higher porosity in SS2 vs BOKOR-1 due to cleaner sand facies.
Depths are measured from GL (46.2m above MSL). All in mMD.
~ASCII -----------------------------------------------------
# ...
  1787.66720     17.33  0.0000     92.02   2.3261  0.1857    91.10    8.47   2.3261    91.10  0.3225  0.0000  0.0511  0.3060   1.0   1.0  2.1404
  1787.81960     17.33  0.0000     91.95   2.3261  0.1857    91.10    8.47   2.3261    91.10  0.3225  0.0000  0.0511  0.3060   1.0   1.0  2.1404
  1787.97200     17.33  0.0000     91.88   2.3261  0.1857    91.10    8.47   2.3261    91.10  0.3225  0.0000  0.0512  0.3060   1.0   1.0  2.1404
  1788.12440     17.32  0.0000     91.80   2.3261  0.1857    91.10    8.46   2.3261    91.10  0.3225  0.0000  0.0512  0.3060   1.0   1.0  2.1404
  1788.27680     17.32  0.0000     91.73   2.3261  0.1857    91.10    8.46   2.3261    91.10  0.3225  0.0000  0.0512  0.3060   1.0   1.0  2.1404
  1788.42920     17.32  0.0000     91.66   2.3260  0.1856    91.10    8.46   2.3260    91.10  0.3225  0.0000  0.0512  0.3059   1.0   1.0  2.1404
  1788.58160     17.32  0.0000     91.59   2.3260  0.1856    91.09    8.46   2.3260    91.09  0.3225  0.0000  0.0512  0.3059   1.0   1.0  2.1404
  1788.73400     17.32  0.0000     91.52   2.3260  0.1856    91.09    8.46   2.3260    91.09  0.3225  0.0000  0.0513  0.3059   1.0   1.0  2.1404
  1788.88640     17.31  0.0000     91.45   2.3260  0.1856    91.09    8.46   2.3260    91.09  0.3225  0.0000  0.0513  0.3059   1.0   1.0  2.1404
  1789.03880     17.31  0.0000     91.37   2.3260  0.1856    91.09    8.46   2.3260    91.09  0.3225  0.0000  0.0513  0.3059   1.0   1.0  2.1404
  1789.19120     17.31  0.0000     91.30   2.3260  0.1856    91.09    8.46   2.3260    91.09  0.3225  0.0000  0.0513  0.3059   1.0   1.0  2.1404
  1789.34360     17.31  0.0000     91.23   2.3260  0.1856    91.09    8.46   2.3260    91.09  0.3224  0.0000  0.0513  0.3059   1.0   1.0  2.1405
  1789.49600     17.31  0.0000     91.15   2.3260  0.1856    91.09    8.46   2.3260    91.09  0.3224  0.0000  0.0514  0.3059   1.0   1.0  2.1405
  1789.64840     17.30  0.0000     91.08   2.3260  0.1856    91.08    8.46   2.3260    91.08  0.3224  0.0000  0.0514  0.3059   1.0   1.0  2.1405
  1789.80080     17.30  0.0000     91.01   2.3260  0.1855    91.08    8.46   2.3260    91.08  0.3224  0.0000  0.0514  0.3059   1.0   1.0  2.1405
  1789.95320     17.30  0.0000     90.93   2.3260  0.1855    91.08    8.46   2.3260    91.08  0.3224  0.0000  0.0514  0.3059   1.0   1.0  2.1405
  1790.10560     17.30  0.0000     90.86   2.3260  0.1855    91.08    8.46   2.3260    91.08  0.3224  0.0000  0.0514  0.3059   1.0   1.0  2.1405
  1790.25800     17.30  0.0000     90.78   2.3260  0.1855    91.08    8.46   2.3260    91.08  0.3224  0.0000  0.0515  0.3058   1.0   1.0  2.1405
  1790.41040     17.30  0.0000     90.71   2.3260  0.1855    91.08    8.45   2.3260    91.08  0.3224  0.0000  0.0515  0.3058   1.0   1.0  2.1405
  1790.56280     17.29  0.0000     90.63   2.3260  0.1855    91.07    8.45   2.3260    91.07  0.3224  0.0000  0.0515  0.3058   1.0   1.0  2.1405
  1790.71520     17.29  0.0000     90.56   2.3260  0.1855    91.07    8.45   2.3260    91.07  0.3224  0.0000  0.0515  0.3058   1.0   1.0  2.1405
  1790.86760     17.29  0.0000     90.48   2.3260  0.1855    91.07    8.45   2.3260    91.07  0.3224  0.0000  0.0516  0.3058   1.0   1.0  2.1405
  1791.02000     17.29  0.0000     90.41   2.3260  0.1855    91.07    8.45   2.3260    91.07  0.3224  0.0000  0.0516  0.3058   1.0   1.0  2.1405
  1791.17240     17.29  0.0000     90.33   2.3260  0.1855    91.07    8.45   2.3260    91.07  0.3224  0.0000  0.0516  0.3058   1.0   1.0  2.1405
  1791.32480     17.29  0.0000     90.25   2.3260  0.1855    91.07    8.45   2.3260    91.07  0.3224  0.0000  0.0516  0.3058   1.0   1.0  2.1405
  1791.47720     17.29  0.0000     90.18   2.3260  0.1854    91.07    8.45   2.3260    91.07  0.3224  0.0000  0.0516  0.3058   1.0   1.0  2.1405
  1791.62960     17.28  0.0000     90.10   2.3260  0.1854    91.07    8.45   2.3260    91.07  0.3224  0.0000  0.0517  0.3058   1.0   1.0  2.1405
  1791.78200     17.28  0.0000     90.02   2.3260  0.1854    91.06    8.45   2.3260    91.06  0.3224  0.0000  0.0517  0.3058   1.0   1.0  2.1405
  1791.93440     17.28  0.0000     89.95   2.3260  0.1854    91.06    8.45   2.3260    91.06  0.3224  0.0000  0.0517  0.3057   1.0   1.0  2.1406
  1792.08680     17.28  0.0000     89.87   2.3260  0.1854    91.06    8.45   2.3260    91.06  0.3224  0.0000  0.0517  0.3057   1.0   1.0  2.1406
  1792.23920     17.28  0.0000     89.79   2.3260  0.1854    91.06    8.45   2.3260    91.06  0.3224  0.0000  0.0518  0.3057   1.0   1.0  2.1406
  1792.39160     17.28  0.0000     89.71   2.3260  0.1854    91.06    8.45   2.3260    91.06  0.3224  0.0000  0.0518  0.3057   1.0   1.0  2.1406
  1792.54400     17.28  0.0000     89.63   2.3260  0.1854    91.06    8.45   2.3260    91.06  0.3224  0.0000  0.0518  0.3057   1.0   1.0  2.1406
  1792.69640     17.28  0.0000     89.56   2.3259  0.1854    91.06    8.45   2.3259    91.06  0.3224  0.0000  0.0518  0.3057   1.0   1.0  2.1406
  1792.84880     17.28  0.0000     89.48   2.3259  0.1854    91.05    8.44   2.3259    91.05  0.3224  0.0000  0.0518  0.3057   1.0   1.0  2.1406
  1793.00120     17.28  0.0000     89.40   2.3259  0.1854    91.05    8.44   2.3259    91.05  0.3224  0.0000  0.0519  0.3057   1.0   1.0  2.1406
  1793.15360     17.27  0.0000     89.32   2.3259  0.1853    91.05    8.44   2.3259    91.05  0.3224  0.0000  0.0519  0.3057   1.0   1.0  2.1406
  1793.30600     17.27  0.0000     89.24   2.3259  0.1853    91.05    8.44   2.3259    91.05  0.3224  0.0000  0.0519  0.3057   1.0   1.0  2.1406
  1793.45840     17.27  0.0000     89.16   2.3259  0.1853    91.05    8.44   2.3259    91.05  0.3224  0.0000  0.0519  0.3056   1.0   1.0  2.1406
  1793.61080     17.27  0.0000     89.08   2.3259  0.1853    91.05    8.44   2.3259    91.05  0.3224  0.0000  0.0520  0.3056   1.0   1.0  2.1406
  1793.76320     17.27  0.0000     89.00   2.3259  0.1853    91.05    8.44   2.3259    91.05  0.3224  0.0000  0.0520  0.3056   1.0   1.0  2.1406
  1793.91560     17.27  0.0000     88.92   2.3259  0.1853    91.05    8.44   2.3259    91.05  0.3224  0.0000  0.0520  0.3056   1.0   1.0  2.1406
  1794.06800     17.27  0.0000     88.84   2.3259  0.1853    91.05    8.44   2.3259    91.05  0.3224  0.0000  0.0520  0.3056   1.0   1.0  2.1406
  1794.22040     17.27  0.0000     88.76   2.3259  0.1853    91.04    8.44   2.3259    91.04  0.3224  0.0000  0.0521  0.3056   1.0   1.0  2.1406
  1794.37280     17.27  0.0000     88.68   2.3259  0.1853    91.04    8.44   2.3259    91.04  0.3224  0.0000  0.0521  0.3056   1.0   1.0  2.1406
  1794.52520     17.27  0.0000     88.60   2.3259  0.1853    91.04    8.44   2.3259    91.04  0.3224  0.0000  0.0521  0.3056   1.0   1.0  2.1406
  1794.67760     17.27  0.0000     88.51   2.3259  0.1853    91.04    8.44   2.3259    91.04  0.3224  0.0000  0.0521  0.3056   1.0   1.0  2.1406
  1794.83000     17.27  0.0000     88.43   2.3259  0.1853    91.04    8.44   2.3259    91.04  0.3224  0.0000  0.0522  0.3056   1.0   1.0  2.1406
  1794.98240     17.27  0.0000     88.35   2.3259  0.1853    91.04    8.44   2.3259    91.04  0.3224  0.0000  0.0522  0.3055   1.0   1.0  2.1406
  1795.13480     17.27  0.0000     88.27   2.3259  0.1853    91.04    8.44   2.3259    91.04  0.3224  0.0000  0.0522  0.3055   1.0   1.0  2.1406
  1795.28720     17.27  0.0000     88.19   2.3259  0.1852    91.04    8.43   2.3259    91.04  0.3224  0.0000  0.0522  0.3055   1.0   1.0  2.1406
  1795.43960     17.27  0.0000     88.10   2.3259  0.1852    91.04    8.43   2.3259    91.04  0.3224  0.0000  0.0523  0.3055   1.0   1.0  2.1406
  1795.59200     17.27  0.0000     88.02   2.3259  0.1852    91.04    8.43   2.3259    91.04  0.3224  0.0000  0.0523  0.3055   1.0   1.0  2.1406
  1795.74440     17.27  0.0000     87.94   2.3258  0.1852    91.03    8.43   2.3258    91.03  0.3224  0.0000  0.0523  0.3055   1.0   1.0  2.1406
  1795.89680     17.27  0.0000     87.85   2.3258  0.1852    91.03    8.43   2.3258    91.03  0.3224  0.0000  0.0523  0.3055   1.0   1.0  2.1406
  1796.04920     17.27  0.0000     87.77   2.3258  0.1852    91.03    8.43   2.3258    91.03  0.3224  0.0000  0.0524  0.3055   1.0   1.0  2.1406
