~Version --------------------------------------------------
VERS.   2.0 : CWLS log ASCII Standard -VERSION 2.0
WRAP.    NO : One line per depth step
DLM . SPACE : Column Data Section Delimiter
~Well ------------------------------------------------------
STRT.M                   1250.00000 : START DEPTH (mMD)
STOP.                    2600.00000 : STOP DEPTH (mMD)
STEP.                       0.15240 : STEP (m)
NULL.                      -999.25 : NULL VALUE
COMP.  Petroleum Asia Pacific (PAPC)     : COMPANY
WELL.  BOKOR-2                          : WELL
FLD .  BOKOR                            : FIELD
LOC .  Offshore Sarawak, Malaysia Block : LOCATION
PROV.  Sarawak                          : PROVINCE
CNTY.  Sarawak                          : COUNTY
STAT.  Malaysia                        : STATE
CTRY.  Malaysia                        : COUNTRY
SRVC.  Geoquest Malaysia Sdn Bhd       : SERVICE COMPANY
DATE.  2024-04-22                      : LOG DATE
UWI .  BOKOR-2 ST00                     : UNIQUE WELL ID
API .  97MSAW00002B000                  : API NUMBER
EKB .  45.80                           : ELEVATION KELLY BUSHING (m)
EGL .  46.20                           : ELEVATION GROUND LEVEL (m)
TDD .  2640.00                          : TOTAL DEPTH DRILLED (mMD)
TVD .  2431.00                          : TOTAL VERTICAL DEPTH (mTVDSS)
~Curve Information -----------------------------------------
DEPT   .M     : Measured Depth (mMD)
GR     .GAPI  : Gamma Ray (Total)
GR_NSH .V/V   : GR Normalized Shale
RT     .OHMM  : Deep Resistivity (Array Induction AI45)
RHOB   .G/CC  : Bulk Density
NPHI   .V/V   : Neutron Porosity (limestone eq)
DT     .US/F  : Sonic Transit Time (compressional)
CALI   .IN    : Caliper
DEN    .G/CC  : Bulk Density (alias)
AC     .US/F  : Sonic Transit Time (alias)
PHI_E  .V/V   : Effective Porosity (DN average)
VSHALE .V/V   : Shale Volume (GR linear)
SW     .V/V   : Water Saturation (Archie, Rw=0.025)
VHC    .V/V   : Hydrocarbon Volume (PhiE x (1-SW))
NET    .BIN   : Net Reservoir Flag (VSHALE<0.40)
PAY    .BIN   : Pay Flag (NET=1 AND SW<0.60)
CROSS  .V/V   : Neutron-Density Crossover (RHOB-NPHI)
~Params ----------------------------------------------------
FORM .  BOKOR-2                        : Formation / Well ID
RFT  .  1380.0  1420.0  1600.0  1720.0 : RFT sample depths (mMD)
MD_D .  1250.0                         : Measured depth datum (mMD)
TVDSS.  46.20                          : TVD at datum (mTVDSS)
DATUM.  MSL  Mean Sea Level             : Depth datum reference
# Formation Tops (EXPLORATORY_VISUALIZATION — not RFT-confirmed)
# BOKOR-2 is 1.2km NE of BOKOR-1 — slight structural updip
FM_TOP .  1360.0  : Top FMM Formation (Shale) — 45m deeper than BOKOR-1
SS1_TOP.  1520.0  : Top Shallow Sand 1 — downdip vs BOKOR-1
SS1_BOT.  1600.0  : Bottom Shallow Sand 1
SS2_TOP.  1650.0  : Top Deep Sand 2  <-- main gas reservoir (30m deeper than BOKOR-1)
SS2_BOT.  1810.0  : Bottom Deep Sand 2
SS3_TOP.  1920.0  : Top Deep Sand 3
SS3_BOT.  2080.0  : Bottom Deep Sand 3
BASE  .  2130.0  : Base of reservoir section
# Petrophysics cutoffs
RW     .  0.025  : Formation water resistivity (ohm.m)
PHIT  .  0.30   : Total porosity cutoff
VSH_cut .  0.40 : Shale volume cutoff for net pay
SW_cut  .  0.60 : Sw cutoff for pay
CLAIM  .  EXPLORATORY_VISUALIZATION    : Default claim state
~Other -----------------------------------------------------
BOKOR-2 is the second well in the BOKOR field appraisal program.
Drilled April 2024 by PAPC, 1.2km NE of BOKOR-1 on the same structural
closure. Objectives: (1) confirm lateral continuity of SS2 and SS3 fans,
(2) RFT sampling in SS2 gas column. Result: Gas confirmed in SS2 and SS3.
Shows higher porosity in SS2 vs BOKOR-1 due to cleaner sand facies.
Depths are measured from GL (46.2m above MSL). All in mMD.
~ASCII -----------------------------------------------------
# ...
  2589.90080    101.18  1.0000      2.60   2.4591  0.5100   122.50    8.61   2.4591   122.50  0.1712  1.0000  0.3437  0.0000   0.0   0.0  1.9491
  2590.05320    101.17  1.0000      2.60   2.4591  0.5100   122.50    8.61   2.4591   122.50  0.1712  1.0000  0.3437  0.0000   0.0   0.0  1.9491
  2590.20560    101.16  1.0000      2.60   2.4591  0.5100   122.50    8.61   2.4591   122.50  0.1712  1.0000  0.3437  0.0000   0.0   0.0  1.9491
  2590.35800    101.14  1.0000      2.60   2.4592  0.5100   122.50    8.61   2.4592   122.50  0.1712  1.0000  0.3438  0.0000   0.0   0.0  1.9492
  2590.51040    101.13  1.0000      2.60   2.4592  0.5100   122.50    8.61   2.4592   122.50  0.1712  1.0000  0.3438  0.0000   0.0   0.0  1.9492
  2590.66280    101.11  1.0000      2.60   2.4592  0.5100   122.50    8.61   2.4592   122.50  0.1712  1.0000  0.3438  0.0000   0.0   0.0  1.9492
  2590.81520    101.10  1.0000      2.60   2.4592  0.5100   122.50    8.61   2.4592   122.50  0.1712  1.0000  0.3438  0.0000   0.0   0.0  1.9492
  2590.96760    101.08  1.0000      2.60   2.4592  0.5100   122.50    8.61   2.4592   122.50  0.1712  1.0000  0.3438  0.0000   0.0   0.0  1.9492
  2591.12000    101.07  1.0000      2.60   2.4592  0.5100   122.50    8.61   2.4592   122.50  0.1712  1.0000  0.3438  0.0000   0.0   0.0  1.9492
  2591.27240    101.06  1.0000      2.60   2.4592  0.5100   122.50    8.61   2.4592   122.50  0.1712  1.0000  0.3438  0.0000   0.0   0.0  1.9492
  2591.42480    101.04  1.0000      2.60   2.4592  0.5100   122.50    8.61   2.4592   122.50  0.1712  1.0000  0.3438  0.0000   0.0   0.0  1.9492
  2591.57720    101.03  1.0000      2.60   2.4592  0.5100   122.50    8.61   2.4592   122.50  0.1712  1.0000  0.3438  0.0000   0.0   0.0  1.9492
  2591.72960    101.01  1.0000      2.60   2.4592  0.5100   122.50    8.61   2.4592   122.50  0.1712  1.0000  0.3438  0.0000   0.0   0.0  1.9492
  2591.88200    101.00  1.0000      2.60   2.4592  0.5100   122.50    8.61   2.4592   122.50  0.1712  1.0000  0.3438  0.0000   0.0   0.0  1.9492
  2592.03440    100.99  1.0000      2.60   2.4593  0.5100   122.50    8.61   2.4593   122.50  0.1712  1.0000  0.3438  0.0000   0.0   0.0  1.9493
  2592.18680    100.97  1.0000      2.60   2.4593  0.5100   122.50    8.60   2.4593   122.50  0.1712  1.0000  0.3438  0.0000   0.0   0.0  1.9493
  2592.33920    100.96  1.0000      2.60   2.4593  0.5100   122.50    8.60   2.4593   122.50  0.1712  1.0000  0.3438  0.0000   0.0   0.0  1.9493
  2592.49160    100.94  1.0000      2.60   2.4593  0.5100   122.50    8.60   2.4593   122.50  0.1712  1.0000  0.3438  0.0000   0.0   0.0  1.9493
  2592.64400    100.93  1.0000      2.60   2.4593  0.5100   122.50    8.60   2.4593   122.50  0.1712  1.0000  0.3438  0.0000   0.0   0.0  1.9493
  2592.79640    100.92  1.0000      2.60   2.4593  0.5100   122.50    8.60   2.4593   122.50  0.1712  1.0000  0.3438  0.0000   0.0   0.0  1.9493
  2592.94880    100.90  1.0000      2.60   2.4593  0.5100   122.50    8.60   2.4593   122.50  0.1712  1.0000  0.3438  0.0000   0.0   0.0  1.9493
  2593.10120    100.89  1.0000      2.60   2.4593  0.5100   122.50    8.60   2.4593   122.50  0.1712  1.0000  0.3438  0.0000   0.0   0.0  1.9493
  2593.25360    100.87  1.0000      2.60   2.4593  0.5100   122.50    8.60   2.4593   122.50  0.1712  1.0000  0.3438  0.0000   0.0   0.0  1.9493
  2593.40600    100.86  1.0000      2.60   2.4593  0.5100   122.50    8.60   2.4593   122.50  0.1712  1.0000  0.3438  0.0000   0.0   0.0  1.9493
  2593.55840    100.85  1.0000      2.60   2.4593  0.5100   122.50    8.60   2.4593   122.50  0.1712  1.0000  0.3438  0.0000   0.0   0.0  1.9493
  2593.71080    100.83  1.0000      2.60   2.4593  0.5100   122.50    8.60   2.4593   122.50  0.1712  1.0000  0.3438  0.0000   0.0   0.0  1.9494
  2593.86320    100.82  1.0000      2.60   2.4594  0.5100   122.50    8.60   2.4594   122.50  0.1712  1.0000  0.3438  0.0000   0.0   0.0  1.9494
  2594.01560    100.81  1.0000      2.60   2.4594  0.5100   122.50    8.60   2.4594   122.50  0.1712  1.0000  0.3438  0.0000   0.0   0.0  1.9494
  2594.16800    100.79  1.0000      2.60   2.4594  0.5100   122.50    8.60   2.4594   122.50  0.1712  1.0000  0.3438  0.0000   0.0   0.0  1.9494
  2594.32040    100.78  1.0000      2.60   2.4594  0.5100   122.50    8.60   2.4594   122.50  0.1712  1.0000  0.3438  0.0000   0.0   0.0  1.9494
  2594.47280    100.77  1.0000      2.60   2.4594  0.5100   122.50    8.60   2.4594   122.50  0.1712  1.0000  0.3438  0.0000   0.0   0.0  1.9494
  2594.62520    100.75  1.0000      2.60   2.4594  0.5100   122.50    8.60   2.4594   122.50  0.1712  1.0000  0.3438  0.0000   0.0   0.0  1.9494
  2594.77760    100.74  1.0000      2.60   2.4594  0.5100   122.50    8.60   2.4594   122.50  0.1712  1.0000  0.3438  0.0000   0.0   0.0  1.9494
  2594.93000    100.72  1.0000      2.60   2.4594  0.5100   122.50    8.60   2.4594   122.50  0.1712  1.0000  0.3438  0.0000   0.0   0.0  1.9494
  2595.08240    100.71  1.0000      2.60   2.4594  0.5100   122.50    8.60   2.4594   122.50  0.1712  1.0000  0.3438  0.0000   0.0   0.0  1.9494
  2595.23480    100.70  1.0000      2.60   2.4594  0.5100   122.50    8.59   2.4594   122.50  0.1712  1.0000  0.3438  0.0000   0.0   0.0  1.9494
  2595.38720    100.68  1.0000      2.60   2.4594  0.5100   122.50    8.59   2.4594   122.50  0.1712  1.0000  0.3438  0.0000   0.0   0.0  1.9495
  2595.53960    100.67  1.0000      2.60   2.4594  0.5100   122.50    8.59   2.4594   122.50  0.1712  1.0000  0.3438  0.0000   0.0   0.0  1.9495
  2595.69200    100.66  1.0000      2.60   2.4594  0.5100   122.50    8.59   2.4594   122.50  0.1712  1.0000  0.3438  0.0000   0.0   0.0  1.9495
  2595.84440    100.64  1.0000      2.60   2.4595  0.5100   122.50    8.59   2.4595   122.50  0.1712  1.0000  0.3438  0.0000   0.0   0.0  1.9495
  2595.99680    100.63  1.0000      2.60   2.4595  0.5100   122.49    8.59   2.4595   122.49  0.1712  1.0000  0.3439  0.0000   0.0   0.0  1.9495
  2596.14920    100.62  1.0000      2.60   2.4595  0.5100   122.49    8.59   2.4595   122.49  0.1712  1.0000  0.3439  0.0000   0.0   0.0  1.9495
  2596.30160    100.60  1.0000      2.60   2.4595  0.5100   122.49    8.59   2.4595   122.49  0.1712  1.0000  0.3439  0.0000   0.0   0.0  1.9495
  2596.45400    100.59  1.0000      2.60   2.4595  0.5100   122.49    8.59   2.4595   122.49  0.1711  1.0000  0.3439  0.0000   0.0   0.0  1.9495
  2596.60640    100.58  1.0000      2.60   2.4595  0.5100   122.49    8.59   2.4595   122.49  0.1711  1.0000  0.3439  0.0000   0.0   0.0  1.9495
  2596.75880    100.56  1.0000      2.60   2.4595  0.5100   122.49    8.59   2.4595   122.49  0.1711  1.0000  0.3439  0.0000   0.0   0.0  1.9495
  2596.91120    100.55  1.0000      2.60   2.4595  0.5099   122.49    8.59   2.4595   122.49  0.1711  1.0000  0.3439  0.0000   0.0   0.0  1.9496
  2597.06360    100.54  1.0000      2.60   2.4595  0.5099   122.49    8.59   2.4595   122.49  0.1711  1.0000  0.3439  0.0000   0.0   0.0  1.9496
  2597.21600    100.52  1.0000      2.60   2.4595  0.5099   122.49    8.59   2.4595   122.49  0.1711  1.0000  0.3439  0.0000   0.0   0.0  1.9496
  2597.36840    100.51  1.0000      2.60   2.4595  0.5099   122.49    8.59   2.4595   122.49  0.1711  1.0000  0.3439  0.0000   0.0   0.0  1.9496
  2597.52080    100.50  1.0000      2.60   2.4595  0.5099   122.49    8.59   2.4595   122.49  0.1711  1.0000  0.3439  0.0000   0.0   0.0  1.9496
  2597.67320    100.49  1.0000      2.60   2.4595  0.5099   122.49    8.59   2.4595   122.49  0.1711  1.0000  0.3439  0.0000   0.0   0.0  1.9496
  2597.82560    100.47  1.0000      2.60   2.4595  0.5099   122.49    8.59   2.4595   122.49  0.1711  1.0000  0.3439  0.0000   0.0   0.0  1.9496
  2597.97800    100.46  1.0000      2.60   2.4596  0.5099   122.49    8.58   2.4596   122.49  0.1711  1.0000  0.3439  0.0000   0.0   0.0  1.9496
  2598.13040    100.45  1.0000      2.60   2.4596  0.5099   122.49    8.58   2.4596   122.49  0.1711  1.0000  0.3439  0.0000   0.0   0.0  1.9496
  2598.28280    100.43  1.0000      2.60   2.4596  0.5099   122.49    8.58   2.4596   122.49  0.1711  1.0000  0.3439  0.0000   0.0   0.0  1.9496
