~Version --------------------------------------------------
VERS.   2.0 : CWLS log ASCII Standard -VERSION 2.0
WRAP.    NO : One line per depth step
DLM . SPACE : Column Data Section Delimiter
~Well ------------------------------------------------------
STRT.M                   1250.00000 : START DEPTH (mMD)
STOP.                    2600.00000 : STOP DEPTH (mMD)
STEP.                       0.15240 : STEP (m)
NULL.                      -999.25 : NULL VALUE
COMP.  Petroleum Asia Pacific (PAPC)     : COMPANY
WELL.  BOKOR-2                          : WELL
FLD .  BOKOR                            : FIELD
LOC .  Offshore Sarawak, Malaysia Block : LOCATION
PROV.  Sarawak                          : PROVINCE
CNTY.  Sarawak                          : COUNTY
STAT.  Malaysia                        : STATE
CTRY.  Malaysia                        : COUNTRY
SRVC.  Geoquest Malaysia Sdn Bhd       : SERVICE COMPANY
DATE.  2024-04-22                      : LOG DATE
UWI .  BOKOR-2 ST00                     : UNIQUE WELL ID
API .  97MSAW00002B000                  : API NUMBER
EKB .  45.80                           : ELEVATION KELLY BUSHING (m)
EGL .  46.20                           : ELEVATION GROUND LEVEL (m)
TDD .  2640.00                          : TOTAL DEPTH DRILLED (mMD)
TVD .  2431.00                          : TOTAL VERTICAL DEPTH (mTVDSS)
~Curve Information -----------------------------------------
DEPT   .M     : Measured Depth (mMD)
GR     .GAPI  : Gamma Ray (Total)
GR_NSH .V/V   : GR Normalized Shale
RT     .OHMM  : Deep Resistivity (Array Induction AI45)
RHOB   .G/CC  : Bulk Density
NPHI   .V/V   : Neutron Porosity (limestone eq)
DT     .US/F  : Sonic Transit Time (compressional)
CALI   .IN    : Caliper
DEN    .G/CC  : Bulk Density (alias)
AC     .US/F  : Sonic Transit Time (alias)
PHI_E  .V/V   : Effective Porosity (DN average)
VSHALE .V/V   : Shale Volume (GR linear)
SW     .V/V   : Water Saturation (Archie, Rw=0.025)
VHC    .V/V   : Hydrocarbon Volume (PhiE x (1-SW))
NET    .BIN   : Net Reservoir Flag (VSHALE<0.40)
PAY    .BIN   : Pay Flag (NET=1 AND SW<0.60)
CROSS  .V/V   : Neutron-Density Crossover (RHOB-NPHI)
~Params ----------------------------------------------------
FORM .  BOKOR-2                        : Formation / Well ID
RFT  .  1380.0  1420.0  1600.0  1720.0 : RFT sample depths (mMD)
MD_D .  1250.0                         : Measured depth datum (mMD)
TVDSS.  46.20                          : TVD at datum (mTVDSS)
DATUM.  MSL  Mean Sea Level             : Depth datum reference
# Formation Tops (EXPLORATORY_VISUALIZATION — not RFT-confirmed)
# BOKOR-2 is 1.2km NE of BOKOR-1 — slight structural updip
FM_TOP .  1360.0  : Top FMM Formation (Shale) — 45m deeper than BOKOR-1
SS1_TOP.  1520.0  : Top Shallow Sand 1 — downdip vs BOKOR-1
SS1_BOT.  1600.0  : Bottom Shallow Sand 1
SS2_TOP.  1650.0  : Top Deep Sand 2  <-- main gas reservoir (30m deeper than BOKOR-1)
SS2_BOT.  1810.0  : Bottom Deep Sand 2
SS3_TOP.  1920.0  : Top Deep Sand 3
SS3_BOT.  2080.0  : Bottom Deep Sand 3
BASE  .  2130.0  : Base of reservoir section
# Petrophysics cutoffs
RW     .  0.025  : Formation water resistivity (ohm.m)
PHIT  .  0.30   : Total porosity cutoff
VSH_cut .  0.40 : Shale volume cutoff for net pay
SW_cut  .  0.60 : Sw cutoff for pay
CLAIM  .  EXPLORATORY_VISUALIZATION    : Default claim state
~Other -----------------------------------------------------
BOKOR-2 is the second well in the BOKOR field appraisal program.
Drilled April 2024 by PAPC, 1.2km NE of BOKOR-1 on the same structural
closure. Objectives: (1) confirm lateral continuity of SS2 and SS3 fans,
(2) RFT sampling in SS2 gas column. Result: Gas confirmed in SS2 and SS3.
Shows higher porosity in SS2 vs BOKOR-1 due to cleaner sand facies.
Depths are measured from GL (46.2m above MSL). All in mMD.
~ASCII -----------------------------------------------------
# ...
  1335.34400    112.57  1.0000      1.37   2.4592  0.5100   122.50    8.61   2.4592   122.50  0.1888  1.0000  0.4297  0.0000   0.0   0.0  1.9492
  1335.49640    112.55  1.0000      1.37   2.4593  0.5100   122.50    8.61   2.4593   122.50  0.1888  1.0000  0.4297  0.0000   0.0   0.0  1.9493
  1335.64880    112.54  1.0000      1.37   2.4593  0.5100   122.50    8.60   2.4593   122.50  0.1888  1.0000  0.4298  0.0000   0.0   0.0  1.9493
  1335.80120    112.53  1.0000      1.37   2.4593  0.5100   122.50    8.60   2.4593   122.50  0.1888  1.0000  0.4298  0.0000   0.0   0.0  1.9493
  1335.95360    112.52  1.0000      1.37   2.4593  0.5100   122.50    8.60   2.4593   122.50  0.1888  1.0000  0.4298  0.0000   0.0   0.0  1.9493
  1336.10600    112.51  1.0000      1.37   2.4593  0.5100   122.50    8.60   2.4593   122.50  0.1888  1.0000  0.4299  0.0000   0.0   0.0  1.9493
  1336.25840    112.50  1.0000      1.37   2.4593  0.5100   122.50    8.60   2.4593   122.50  0.1888  1.0000  0.4299  0.0000   0.0   0.0  1.9493
  1336.41080    112.49  1.0000      1.37   2.4593  0.5100   122.50    8.60   2.4593   122.50  0.1888  1.0000  0.4299  0.0000   0.0   0.0  1.9493
  1336.56320    112.48  1.0000      1.37   2.4593  0.5100   122.50    8.60   2.4593   122.50  0.1888  1.0000  0.4300  0.0000   0.0   0.0  1.9493
  1336.71560    112.47  1.0000      1.37   2.4593  0.5100   122.50    8.60   2.4593   122.50  0.1888  1.0000  0.4300  0.0000   0.0   0.0  1.9493
  1336.86800    112.46  1.0000      1.37   2.4593  0.5100   122.50    8.60   2.4593   122.50  0.1888  1.0000  0.4301  0.0000   0.0   0.0  1.9493
  1337.02040    112.45  1.0000      1.37   2.4593  0.5100   122.50    8.60   2.4593   122.50  0.1888  1.0000  0.4301  0.0000   0.0   0.0  1.9493
  1337.17280    112.43  1.0000      1.37   2.4593  0.5100   122.50    8.60   2.4593   122.50  0.1888  1.0000  0.4301  0.0000   0.0   0.0  1.9494
  1337.32520    112.42  1.0000      1.36   2.4594  0.5100   122.50    8.60   2.4594   122.50  0.1888  1.0000  0.4302  0.0000   0.0   0.0  1.9494
  1337.47760    112.41  1.0000      1.36   2.4594  0.5100   122.50    8.60   2.4594   122.50  0.1888  1.0000  0.4302  0.0000   0.0   0.0  1.9494
  1337.63000    112.40  1.0000      1.36   2.4594  0.5100   122.50    8.60   2.4594   122.50  0.1888  1.0000  0.4302  0.0000   0.0   0.0  1.9494
  1337.78240    112.39  1.0000      1.36   2.4594  0.5100   122.50    8.60   2.4594   122.50  0.1888  1.0000  0.4303  0.0000   0.0   0.0  1.9494
  1337.93480    112.38  1.0000      1.36   2.4594  0.5100   122.50    8.60   2.4594   122.50  0.1888  1.0000  0.4303  0.0000   0.0   0.0  1.9494
  1338.08720    112.37  1.0000      1.36   2.4594  0.5100   122.50    8.60   2.4594   122.50  0.1888  1.0000  0.4304  0.0000   0.0   0.0  1.9494
  1338.23960    112.36  1.0000      1.36   2.4594  0.5100   122.50    8.60   2.4594   122.50  0.1888  1.0000  0.4304  0.0000   0.0   0.0  1.9494
  1338.39200    112.35  1.0000      1.36   2.4594  0.5100   122.50    8.60   2.4594   122.50  0.1888  1.0000  0.4304  0.0000   0.0   0.0  1.9494
  1338.54440    112.34  1.0000      1.36   2.4594  0.5100   122.50    8.59   2.4594   122.50  0.1888  1.0000  0.4305  0.0000   0.0   0.0  1.9494
  1338.69680    112.32  1.0000      1.36   2.4594  0.5100   122.50    8.59   2.4594   122.50  0.1888  1.0000  0.4305  0.0000   0.0   0.0  1.9495
  1338.84920    112.31  1.0000      1.36   2.4594  0.5100   122.50    8.59   2.4594   122.50  0.1888  1.0000  0.4305  0.0000   0.0   0.0  1.9495
  1339.00160    112.30  1.0000      1.36   2.4594  0.5100   122.50    8.59   2.4594   122.50  0.1888  1.0000  0.4306  0.0000   0.0   0.0  1.9495
  1339.15400    112.29  1.0000      1.36   2.4595  0.5100   122.50    8.59   2.4595   122.50  0.1888  1.0000  0.4306  0.0000   0.0   0.0  1.9495
  1339.30640    112.28  1.0000      1.36   2.4595  0.5100   122.49    8.59   2.4595   122.49  0.1887  1.0000  0.4307  0.0000   0.0   0.0  1.9495
  1339.45880    112.27  1.0000      1.36   2.4595  0.5100   122.49    8.59   2.4595   122.49  0.1887  1.0000  0.4307  0.0000   0.0   0.0  1.9495
  1339.61120    112.26  1.0000      1.36   2.4595  0.5100   122.49    8.59   2.4595   122.49  0.1887  1.0000  0.4307  0.0000   0.0   0.0  1.9495
  1339.76360    112.25  1.0000      1.36   2.4595  0.5100   122.49    8.59   2.4595   122.49  0.1887  1.0000  0.4308  0.0000   0.0   0.0  1.9495
  1339.91600    112.24  1.0000      1.36   2.4595  0.5100   122.49    8.59   2.4595   122.49  0.1887  1.0000  0.4308  0.0000   0.0   0.0  1.9495
  1340.06840    112.22  1.0000      1.36   2.4595  0.5100   122.49    8.59   2.4595   122.49  0.1887  1.0000  0.4308  0.0000   0.0   0.0  1.9495
  1340.22080    112.21  1.0000      1.36   2.4595  0.5099   122.49    8.59   2.4595   122.49  0.1887  1.0000  0.4309  0.0000   0.0   0.0  1.9496
  1340.37320    112.20  1.0000      1.36   2.4595  0.5099   122.49    8.59   2.4595   122.49  0.1887  1.0000  0.4309  0.0000   0.0   0.0  1.9496
  1340.52560    112.19  1.0000      1.36   2.4595  0.5099   122.49    8.59   2.4595   122.49  0.1887  1.0000  0.4309  0.0000   0.0   0.0  1.9496
  1340.67800    112.18  1.0000      1.36   2.4595  0.5099   122.49    8.59   2.4595   122.49  0.1887  1.0000  0.4310  0.0000   0.0   0.0  1.9496
  1340.83040    112.17  1.0000      1.36   2.4595  0.5099   122.49    8.59   2.4595   122.49  0.1887  1.0000  0.4310  0.0000   0.0   0.0  1.9496
  1340.98280    112.16  1.0000      1.36   2.4595  0.5099   122.49    8.59   2.4595   122.49  0.1887  1.0000  0.4311  0.0000   0.0   0.0  1.9496
  1341.13520    112.15  1.0000      1.36   2.4595  0.5099   122.49    8.59   2.4595   122.49  0.1887  1.0000  0.4311  0.0000   0.0   0.0  1.9496
  1341.28760    112.13  1.0000      1.36   2.4596  0.5099   122.49    8.58   2.4596   122.49  0.1887  1.0000  0.4311  0.0000   0.0   0.0  1.9496
  1341.44000    112.12  1.0000      1.36   2.4596  0.5099   122.49    8.58   2.4596   122.49  0.1887  1.0000  0.4312  0.0000   0.0   0.0  1.9496
  1341.59240    112.11  1.0000      1.36   2.4596  0.5099   122.49    8.58   2.4596   122.49  0.1887  1.0000  0.4312  0.0000   0.0   0.0  1.9496
  1341.74480    112.10  1.0000      1.36   2.4596  0.5099   122.49    8.58   2.4596   122.49  0.1887  1.0000  0.4312  0.0000   0.0   0.0  1.9497
  1341.89720    112.09  1.0000      1.36   2.4596  0.5099   122.49    8.58   2.4596   122.49  0.1887  1.0000  0.4313  0.0000   0.0   0.0  1.9497
  1342.04960    112.08  1.0000      1.36   2.4596  0.5099   122.49    8.58   2.4596   122.49  0.1887  1.0000  0.4313  0.0000   0.0   0.0  1.9497
  1342.20200    112.07  1.0000      1.36   2.4596  0.5099   122.49    8.58   2.4596   122.49  0.1887  1.0000  0.4314  0.0000   0.0   0.0  1.9497
  1342.35440    112.05  1.0000      1.36   2.4596  0.5099   122.48    8.58   2.4596   122.48  0.1887  1.0000  0.4314  0.0000   0.0   0.0  1.9497
  1342.50680    112.04  1.0000      1.36   2.4596  0.5099   122.48    8.58   2.4596   122.48  0.1887  1.0000  0.4314  0.0000   0.0   0.0  1.9497
  1342.65920    112.03  1.0000      1.36   2.4596  0.5099   122.48    8.58   2.4596   122.48  0.1887  1.0000  0.4315  0.0000   0.0   0.0  1.9497
  1342.81160    112.02  1.0000      1.36   2.4596  0.5099   122.48    8.58   2.4596   122.48  0.1887  1.0000  0.4315  0.0000   0.0   0.0  1.9497
  1342.96400    112.01  1.0000      1.36   2.4596  0.5099   122.48    8.58   2.4596   122.48  0.1887  1.0000  0.4315  0.0000   0.0   0.0  1.9497
  1343.11640    112.00  1.0000      1.36   2.4596  0.5099   122.48    8.58   2.4596   122.48  0.1887  1.0000  0.4316  0.0000   0.0   0.0  1.9498
  1343.26880    111.99  1.0000      1.36   2.4596  0.5099   122.48    8.58   2.4596   122.48  0.1887  1.0000  0.4316  0.0000   0.0   0.0  1.9498
  1343.42120    111.97  1.0000      1.36   2.4596  0.5099   122.48    8.58   2.4596   122.48  0.1887  1.0000  0.4317  0.0000   0.0   0.0  1.9498
  1343.57360    111.96  1.0000      1.36   2.4596  0.5099   122.48    8.58   2.4596   122.48  0.1887  1.0000  0.4317  0.0000   0.0   0.0  1.9498
  1343.72600    111.95  1.0000      1.36   2.4597  0.5099   122.48    8.58   2.4597   122.48  0.1887  1.0000  0.4317  0.0000   0.0   0.0  1.9498
