~Version --------------------------------------------------
VERS.   2.0 : CWLS log ASCII Standard -VERSION 2.0
WRAP.    NO : One line per depth step
DLM . SPACE : Column Data Section Delimiter
~Well ------------------------------------------------------
STRT.M                   1200.00000 : START DEPTH (mMD)
STOP.                    2500.00000 : STOP DEPTH (mMD)
STEP.                       0.15240 : STEP (m)
NULL.                      -999.25 : NULL VALUE
COMP.  Petroleum Asia Pacific (PAPC)     : COMPANY
WELL.  BOKOR-1                          : WELL
FLD .  BOKOR                            : FIELD
LOC .  Offshore Sarawak, Malaysia Block : LOCATION
PROV.  Sarawak                          : PROVINCE
CNTY.  Sarawak                          : COUNTY
STAT.  Malaysia                        : STATE
CTRY.  Malaysia                        : COUNTRY
SRVC.  Geoquest Malaysia Sdn Bhd       : SERVICE COMPANY
DATE.  2024-03-15                      : LOG DATE
UWI .  BOKOR-1 ST00                     : UNIQUE WELL ID
API .  97MSAW00001B000                  : API NUMBER
EKB .  1234.56                          : ELEVATION KELLY BUSHING (m)
EGL .  1235.20                          : ELEVATION GROUND LEVEL (m)
TDD .  2550.00                          : TOTAL DEPTH DRILLED (mMD)
TVD .  2340.15                          : TOTAL VERTICAL DEPTH (mTVDSS)
~Curve Information -----------------------------------------
DEPT   .M     : Measured Depth (mMD)
GR     .GAPI  : Gamma Ray (Total)
GR_NSH .V/V   : GR Normalized Shale
RT     .OHMM  : Deep Resistivity (Array Induction AI45)
RHOB   .G/CC  : Bulk Density
NPHI   .V/V   : Neutron Porosity (limestone eq)
DT     .US/F  : Sonic Transit Time (compressional)
CALI   .IN    : Caliper
DEN    .G/CC  : Bulk Density (alias)
AC     .US/F  : Sonic Transit Time (alias)
PHI_E  .V/V   : Effective Porosity (DN average)
VSHALE .V/V   : Shale Volume (GR linear)
SW     .V/V   : Water Saturation (Archie, Rw=0.025)
VHC    .V/V   : Hydrocarbon Volume (PhiE x (1-SW))
NET    .BIN   : Net Reservoir Flag (VSHALE<0.40)
PAY    .BIN   : Pay Flag (NET=1 AND SW<0.60)
CROSS  .V/V   : Neutron-Density Crossover (RHOB-NPHI)
~Params ----------------------------------------------------
FORM .  BOKOR-1                        : Formation / Well ID
RFT  .  1350.0  1400.0  1550.0         : RFT sample depths (mMD)
MD_D .  1200.0                         : Measured depth datum (mMD)
TVDSS.  1235.2                         : TVD at datum (mTVDSS)
DATUM.  MSL  Mean Sea Level             : Depth datum reference
# Formation Tops (EXPLORATORY_VISUALIZATION — not RFT-confirmed)
FM_TOP .  1315.0  : Top FMM Formation (Shale)
SS1_TOP.  1480.0  : Top Shallow Sand 1
SS1_BOT.  1560.0  : Bottom Shallow Sand 1
SS2_TOP.  1620.0  : Top Deep Sand 2  <-- main gas reservoir
SS2_BOT.  1780.0  : Bottom Deep Sand 2
SS3_TOP.  1890.0  : Top Deep Sand 3
SS3_BOT.  2050.0  : Bottom Deep Sand 3
BASE  .  2100.0  : Base of reservoir section
# Petrophysics cutoffs
RW     .  0.025  : Formation water resistivity (ohm.m)
PHIT  .  0.30   : Total porosity cutoff
VSH_cut .  0.40 : Shale volume cutoff for net pay
SW_cut  .  0.60 : Sw cutoff for pay
CLAIM  .  EXPLORATORY_VISUALIZATION    : Default claim state
~Other -----------------------------------------------------
BOKOR-1 was drilled by PAPC in March 2024 as a wildcat exploration
well to test Miocene turbidite sands in the BOKOR structural closure.
Result: Gas shows in SS2 and SS3. RFT confirmation pending.
Depths are measured from GL (1235.2m above MSL). All in mMD.
~ASCII -----------------------------------------------------
# ...
  1626.72000     24.39  0.0000     44.14   2.3141  0.2090    95.35    8.35   2.3141    95.35  0.3136  0.0000  0.0759  0.2898   1.0   1.0  2.1051
  1626.87240     24.39  0.0000     44.26   2.3141  0.2090    95.35    8.35   2.3141    95.35  0.3136  0.0000  0.0758  0.2898   1.0   1.0  2.1051
  1627.02480     24.39  0.0000     44.37   2.3142  0.2090    95.35    8.35   2.3142    95.35  0.3136  0.0000  0.0757  0.2899   1.0   1.0  2.1051
  1627.17720     24.38  0.0000     44.49   2.3142  0.2090    95.36    8.35   2.3142    95.36  0.3136  0.0000  0.0756  0.2899   1.0   1.0  2.1051
  1627.32960     24.38  0.0000     44.60   2.3142  0.2090    95.36    8.35   2.3142    95.36  0.3136  0.0000  0.0755  0.2899   1.0   1.0  2.1052
  1627.48200     24.38  0.0000     44.71   2.3142  0.2091    95.36    8.35   2.3142    95.36  0.3136  0.0000  0.0754  0.2899   1.0   1.0  2.1052
  1627.63440     24.38  0.0000     44.83   2.3142  0.2091    95.36    8.35   2.3142    95.36  0.3136  0.0000  0.0753  0.2900   1.0   1.0  2.1052
  1627.78680     24.38  0.0000     44.94   2.3143  0.2091    95.36    8.35   2.3143    95.36  0.3136  0.0000  0.0752  0.2900   1.0   1.0  2.1052
  1627.93920     24.37  0.0000     45.05   2.3143  0.2091    95.36    8.35   2.3143    95.36  0.3136  0.0000  0.0751  0.2900   1.0   1.0  2.1052
  1628.09160     24.37  0.0000     45.17   2.3143  0.2091    95.37    8.35   2.3143    95.37  0.3136  0.0000  0.0750  0.2901   1.0   1.0  2.1052
  1628.24400     24.37  0.0000     45.28   2.3143  0.2091    95.37    8.35   2.3143    95.37  0.3136  0.0000  0.0749  0.2901   1.0   1.0  2.1052
  1628.39640     24.37  0.0000     45.40   2.3143  0.2091    95.37    8.35   2.3143    95.37  0.3136  0.0000  0.0748  0.2901   1.0   1.0  2.1052
  1628.54880     24.37  0.0000     45.51   2.3143  0.2091    95.37    8.35   2.3143    95.37  0.3136  0.0000  0.0747  0.2901   1.0   1.0  2.1052
  1628.70120     24.36  0.0000     45.62   2.3144  0.2092    95.37    8.35   2.3144    95.37  0.3136  0.0000  0.0747  0.2902   1.0   1.0  2.1052
  1628.85360     24.36  0.0000     45.73   2.3144  0.2092    95.38    8.35   2.3144    95.38  0.3136  0.0000  0.0746  0.2902   1.0   1.0  2.1052
  1629.00600     24.36  0.0000     45.85   2.3144  0.2092    95.38    8.35   2.3144    95.38  0.3136  0.0000  0.0745  0.2902   1.0   1.0  2.1052
  1629.15840     24.36  0.0000     45.96   2.3144  0.2092    95.38    8.35   2.3144    95.38  0.3136  0.0000  0.0744  0.2902   1.0   1.0  2.1052
  1629.31080     24.36  0.0000     46.07   2.3144  0.2092    95.38    8.35   2.3144    95.38  0.3136  0.0000  0.0743  0.2903   1.0   1.0  2.1052
  1629.46320     24.35  0.0000     46.18   2.3144  0.2092    95.38    8.35   2.3144    95.38  0.3136  0.0000  0.0742  0.2903   1.0   1.0  2.1052
  1629.61560     24.35  0.0000     46.30   2.3145  0.2092    95.38    8.35   2.3145    95.38  0.3136  0.0000  0.0741  0.2903   1.0   1.0  2.1052
  1629.76800     24.35  0.0000     46.41   2.3145  0.2092    95.39    8.35   2.3145    95.39  0.3136  0.0000  0.0740  0.2903   1.0   1.0  2.1052
  1629.92040     24.35  0.0000     46.52   2.3145  0.2093    95.39    8.35   2.3145    95.39  0.3136  0.0000  0.0739  0.2904   1.0   1.0  2.1052
  1630.07280     24.35  0.0000     46.63   2.3145  0.2093    95.39    8.35   2.3145    95.39  0.3135  0.0000  0.0738  0.2904   1.0   1.0  2.1052
  1630.22520     24.35  0.0000     46.74   2.3145  0.2093    95.39    8.35   2.3145    95.39  0.3135  0.0000  0.0738  0.2904   1.0   1.0  2.1053
  1630.37760     24.34  0.0000     46.85   2.3145  0.2093    95.39    8.35   2.3145    95.39  0.3135  0.0000  0.0737  0.2904   1.0   1.0  2.1053
  1630.53000     24.34  0.0000     46.96   2.3146  0.2093    95.40    8.35   2.3146    95.40  0.3135  0.0000  0.0736  0.2905   1.0   1.0  2.1053
  1630.68240     24.34  0.0000     47.08   2.3146  0.2093    95.40    8.35   2.3146    95.40  0.3135  0.0000  0.0735  0.2905   1.0   1.0  2.1053
  1630.83480     24.34  0.0000     47.19   2.3146  0.2093    95.40    8.35   2.3146    95.40  0.3135  0.0000  0.0734  0.2905   1.0   1.0  2.1053
  1630.98720     24.34  0.0000     47.30   2.3146  0.2093    95.40    8.35   2.3146    95.40  0.3135  0.0000  0.0733  0.2905   1.0   1.0  2.1053
  1631.13960     24.34  0.0000     47.41   2.3146  0.2093    95.40    8.35   2.3146    95.40  0.3135  0.0000  0.0732  0.2906   1.0   1.0  2.1053
  1631.29200     24.34  0.0000     47.52   2.3147  0.2094    95.40    8.35   2.3147    95.40  0.3135  0.0000  0.0732  0.2906   1.0   1.0  2.1053
  1631.44440     24.33  0.0000     47.63   2.3147  0.2094    95.40    8.35   2.3147    95.40  0.3135  0.0000  0.0731  0.2906   1.0   1.0  2.1053
  1631.59680     24.33  0.0000     47.74   2.3147  0.2094    95.41    8.35   2.3147    95.41  0.3135  0.0000  0.0730  0.2906   1.0   1.0  2.1053
  1631.74920     24.33  0.0000     47.85   2.3147  0.2094    95.41    8.35   2.3147    95.41  0.3135  0.0000  0.0729  0.2907   1.0   1.0  2.1053
  1631.90160     24.33  0.0000     47.96   2.3147  0.2094    95.41    8.36   2.3147    95.41  0.3135  0.0000  0.0728  0.2907   1.0   1.0  2.1053
  1632.05400     24.33  0.0000     48.07   2.3147  0.2094    95.41    8.36   2.3147    95.41  0.3135  0.0000  0.0727  0.2907   1.0   1.0  2.1053
  1632.20640     24.33  0.0000     48.18   2.3148  0.2094    95.41    8.36   2.3148    95.41  0.3135  0.0000  0.0727  0.2907   1.0   1.0  2.1053
  1632.35880     24.33  0.0000     48.29   2.3148  0.2094    95.41    8.36   2.3148    95.41  0.3135  0.0000  0.0726  0.2908   1.0   1.0  2.1054
  1632.51120     24.33  0.0000     48.40   2.3148  0.2094    95.42    8.36   2.3148    95.42  0.3135  0.0000  0.0725  0.2908   1.0   1.0  2.1054
  1632.66360     24.33  0.0000     48.51   2.3148  0.2094    95.42    8.36   2.3148    95.42  0.3135  0.0000  0.0724  0.2908   1.0   1.0  2.1054
  1632.81600     24.32  0.0000     48.62   2.3148  0.2095    95.42    8.36   2.3148    95.42  0.3135  0.0000  0.0723  0.2908   1.0   1.0  2.1054
  1632.96840     24.32  0.0000     48.72   2.3149  0.2095    95.42    8.36   2.3149    95.42  0.3135  0.0000  0.0723  0.2909   1.0   1.0  2.1054
  1633.12080     24.32  0.0000     48.83   2.3149  0.2095    95.42    8.36   2.3149    95.42  0.3135  0.0000  0.0722  0.2909   1.0   1.0  2.1054
  1633.27320     24.32  0.0000     48.94   2.3149  0.2095    95.42    8.36   2.3149    95.42  0.3135  0.0000  0.0721  0.2909   1.0   1.0  2.1054
  1633.42560     24.32  0.0000     49.05   2.3149  0.2095    95.42    8.36   2.3149    95.42  0.3135  0.0000  0.0720  0.2909   1.0   1.0  2.1054
  1633.57800     24.32  0.0000     49.16   2.3149  0.2095    95.43    8.36   2.3149    95.43  0.3135  0.0000  0.0719  0.2909   1.0   1.0  2.1054
  1633.73040     24.32  0.0000     49.27   2.3149  0.2095    95.43    8.36   2.3149    95.43  0.3135  0.0000  0.0719  0.2910   1.0   1.0  2.1054
  1633.88280     24.32  0.0000     49.37   2.3150  0.2095    95.43    8.36   2.3150    95.43  0.3135  0.0000  0.0718  0.2910   1.0   1.0  2.1054
  1634.03520     24.32  0.0000     49.48   2.3150  0.2095    95.43    8.36   2.3150    95.43  0.3135  0.0000  0.0717  0.2910   1.0   1.0  2.1054
  1634.18760     24.32  0.0000     49.59   2.3150  0.2095    95.43    8.36   2.3150    95.43  0.3135  0.0000  0.0716  0.2910   1.0   1.0  2.1055
  1634.34000     24.32  0.0000     49.70   2.3150  0.2096    95.43    8.36   2.3150    95.43  0.3135  0.0000  0.0715  0.2911   1.0   1.0  2.1055
  1634.49240     24.32  0.0000     49.80   2.3150  0.2096    95.43    8.36   2.3150    95.43  0.3135  0.0000  0.0715  0.2911   1.0   1.0  2.1055
  1634.64480     24.31  0.0000     49.91   2.3151  0.2096    95.44    8.36   2.3151    95.44  0.3135  0.0000  0.0714  0.2911   1.0   1.0  2.1055
  1634.79720     24.31  0.0000     50.02   2.3151  0.2096    95.44    8.36   2.3151    95.44  0.3135  0.0000  0.0713  0.2911   1.0   1.0  2.1055
  1634.94960     24.31  0.0000     50.12   2.3151  0.2096    95.44    8.36   2.3151    95.44  0.3135  0.0000  0.0712  0.2911   1.0   1.0  2.1055
  1635.10200     24.31  0.0000     50.23   2.3151  0.2096    95.44    8.36   2.3151    95.44  0.3135  0.0000  0.0712  0.2912   1.0   1.0  2.1055
