~Version --------------------------------------------------
VERS.   2.0 : CWLS log ASCII Standard -VERSION 2.0
WRAP.    NO : One line per depth step
DLM . SPACE : Column Data Section Delimiter
~Well ------------------------------------------------------
STRT.M                   1200.00000 : START DEPTH (mMD)
STOP.                    2500.00000 : STOP DEPTH (mMD)
STEP.                       0.15240 : STEP (m)
NULL.                      -999.25 : NULL VALUE
COMP.  Petroleum Asia Pacific (PAPC)     : COMPANY
WELL.  BOKOR-1                          : WELL
FLD .  BOKOR                            : FIELD
LOC .  Offshore Sarawak, Malaysia Block : LOCATION
PROV.  Sarawak                          : PROVINCE
CNTY.  Sarawak                          : COUNTY
STAT.  Malaysia                        : STATE
CTRY.  Malaysia                        : COUNTRY
SRVC.  Geoquest Malaysia Sdn Bhd       : SERVICE COMPANY
DATE.  2024-03-15                      : LOG DATE
UWI .  BOKOR-1 ST00                     : UNIQUE WELL ID
API .  97MSAW00001B000                  : API NUMBER
EKB .  1234.56                          : ELEVATION KELLY BUSHING (m)
EGL .  1235.20                          : ELEVATION GROUND LEVEL (m)
TDD .  2550.00                          : TOTAL DEPTH DRILLED (mMD)
TVD .  2340.15                          : TOTAL VERTICAL DEPTH (mTVDSS)
~Curve Information -----------------------------------------
DEPT   .M     : Measured Depth (mMD)
GR     .GAPI  : Gamma Ray (Total)
GR_NSH .V/V   : GR Normalized Shale
RT     .OHMM  : Deep Resistivity (Array Induction AI45)
RHOB   .G/CC  : Bulk Density
NPHI   .V/V   : Neutron Porosity (limestone eq)
DT     .US/F  : Sonic Transit Time (compressional)
CALI   .IN    : Caliper
DEN    .G/CC  : Bulk Density (alias)
AC     .US/F  : Sonic Transit Time (alias)
PHI_E  .V/V   : Effective Porosity (DN average)
VSHALE .V/V   : Shale Volume (GR linear)
SW     .V/V   : Water Saturation (Archie, Rw=0.025)
VHC    .V/V   : Hydrocarbon Volume (PhiE x (1-SW))
NET    .BIN   : Net Reservoir Flag (VSHALE<0.40)
PAY    .BIN   : Pay Flag (NET=1 AND SW<0.60)
CROSS  .V/V   : Neutron-Density Crossover (RHOB-NPHI)
~Params ----------------------------------------------------
FORM .  BOKOR-1                        : Formation / Well ID
RFT  .  1350.0  1400.0  1550.0         : RFT sample depths (mMD)
MD_D .  1200.0                         : Measured depth datum (mMD)
TVDSS.  1235.2                         : TVD at datum (mTVDSS)
DATUM.  MSL  Mean Sea Level             : Depth datum reference
# Formation Tops (EXPLORATORY_VISUALIZATION — not RFT-confirmed)
FM_TOP .  1315.0  : Top FMM Formation (Shale)
SS1_TOP.  1480.0  : Top Shallow Sand 1
SS1_BOT.  1560.0  : Bottom Shallow Sand 1
SS2_TOP.  1620.0  : Top Deep Sand 2  <-- main gas reservoir
SS2_BOT.  1780.0  : Bottom Deep Sand 2
SS3_TOP.  1890.0  : Top Deep Sand 3
SS3_BOT.  2050.0  : Bottom Deep Sand 3
BASE  .  2100.0  : Base of reservoir section
# Petrophysics cutoffs
RW     .  0.025  : Formation water resistivity (ohm.m)
PHIT  .  0.30   : Total porosity cutoff
VSH_cut .  0.40 : Shale volume cutoff for net pay
SW_cut  .  0.60 : Sw cutoff for pay
CLAIM  .  EXPLORATORY_VISUALIZATION    : Default claim state
~Other -----------------------------------------------------
BOKOR-1 was drilled by PAPC in March 2024 as a wildcat exploration
well to test Miocene turbidite sands in the BOKOR structural closure.
Result: Gas shows in SS2 and SS3. RFT confirmation pending.
Depths are measured from GL (1235.2m above MSL). All in mMD.
~ASCII -----------------------------------------------------
# ...
  2403.35040    109.09  1.0000      2.44   2.4400  0.4919   121.79    8.52   2.4400   121.79  0.1519  1.0000  0.3997  0.0000   0.0   0.0  1.9481
  2403.50280    109.09  1.0000      2.44   2.4400  0.4919   121.78    8.52   2.4400   121.78  0.1519  1.0000  0.3997  0.0000   0.0   0.0  1.9481
  2403.65520    109.08  1.0000      2.44   2.4400  0.4919   121.78    8.52   2.4400   121.78  0.1519  1.0000  0.3997  0.0000   0.0   0.0  1.9482
  2403.80760    109.07  1.0000      2.44   2.4400  0.4919   121.78    8.52   2.4400   121.78  0.1519  1.0000  0.3997  0.0000   0.0   0.0  1.9482
  2403.96000    109.06  1.0000      2.44   2.4400  0.4918   121.78    8.52   2.4400   121.78  0.1519  1.0000  0.3997  0.0000   0.0   0.0  1.9482
  2404.11240    109.05  1.0000      2.44   2.4400  0.4918   121.77    8.52   2.4400   121.77  0.1519  1.0000  0.3997  0.0000   0.0   0.0  1.9482
  2404.26480    109.04  1.0000      2.44   2.4400  0.4918   121.77    8.52   2.4400   121.77  0.1519  1.0000  0.3996  0.0000   0.0   0.0  1.9482
  2404.41720    109.04  1.0000      2.44   2.4400  0.4918   121.77    8.52   2.4400   121.77  0.1519  1.0000  0.3996  0.0000   0.0   0.0  1.9482
  2404.56960    109.03  1.0000      2.44   2.4400  0.4918   121.76    8.52   2.4400   121.76  0.1519  1.0000  0.3996  0.0000   0.0   0.0  1.9483
  2404.72200    109.02  1.0000      2.44   2.4400  0.4917   121.76    8.52   2.4400   121.76  0.1519  1.0000  0.3996  0.0000   0.0   0.0  1.9483
  2404.87440    109.01  1.0000      2.44   2.4400  0.4917   121.76    8.52   2.4400   121.76  0.1519  1.0000  0.3996  0.0000   0.0   0.0  1.9483
  2405.02680    109.00  1.0000      2.44   2.4400  0.4917   121.76    8.52   2.4400   121.76  0.1519  1.0000  0.3996  0.0000   0.0   0.0  1.9483
  2405.17920    108.99  1.0000      2.44   2.4400  0.4917   121.75    8.52   2.4400   121.75  0.1519  1.0000  0.3996  0.0000   0.0   0.0  1.9483
  2405.33160    108.99  1.0000      2.44   2.4400  0.4917   121.75    8.51   2.4400   121.75  0.1519  1.0000  0.3996  0.0000   0.0   0.0  1.9483
  2405.48400    108.98  1.0000      2.44   2.4400  0.4917   121.75    8.51   2.4400   121.75  0.1519  1.0000  0.3995  0.0000   0.0   0.0  1.9483
  2405.63640    108.97  1.0000      2.44   2.4400  0.4916   121.75    8.51   2.4400   121.75  0.1519  1.0000  0.3995  0.0000   0.0   0.0  1.9484
  2405.78880    108.96  1.0000      2.44   2.4400  0.4916   121.74    8.51   2.4400   121.74  0.1519  1.0000  0.3995  0.0000   0.0   0.0  1.9484
  2405.94120    108.95  1.0000      2.44   2.4400  0.4916   121.74    8.51   2.4400   121.74  0.1519  1.0000  0.3995  0.0000   0.0   0.0  1.9484
  2406.09360    108.95  1.0000      2.44   2.4400  0.4916   121.74    8.51   2.4400   121.74  0.1519  1.0000  0.3995  0.0000   0.0   0.0  1.9484
  2406.24600    108.94  1.0000      2.44   2.4400  0.4916   121.74    8.51   2.4400   121.74  0.1519  1.0000  0.3995  0.0000   0.0   0.0  1.9484
  2406.39840    108.93  1.0000      2.44   2.4400  0.4916   121.73    8.51   2.4400   121.73  0.1519  1.0000  0.3995  0.0000   0.0   0.0  1.9484
  2406.55080    108.92  1.0000      2.44   2.4400  0.4915   121.73    8.51   2.4400   121.73  0.1519  1.0000  0.3995  0.0000   0.0   0.0  1.9485
  2406.70320    108.91  1.0000      2.44   2.4400  0.4915   121.73    8.51   2.4400   121.73  0.1519  1.0000  0.3994  0.0000   0.0   0.0  1.9485
  2406.85560    108.90  1.0000      2.44   2.4400  0.4915   121.73    8.51   2.4400   121.73  0.1519  1.0000  0.3994  0.0000   0.0   0.0  1.9485
  2407.00800    108.90  1.0000      2.45   2.4400  0.4915   121.72    8.51   2.4400   121.72  0.1519  1.0000  0.3994  0.0000   0.0   0.0  1.9485
  2407.16040    108.89  1.0000      2.45   2.4400  0.4915   121.72    8.51   2.4400   121.72  0.1519  1.0000  0.3994  0.0000   0.0   0.0  1.9485
  2407.31280    108.88  1.0000      2.45   2.4400  0.4915   121.72    8.51   2.4400   121.72  0.1519  1.0000  0.3994  0.0000   0.0   0.0  1.9485
  2407.46520    108.87  1.0000      2.45   2.4400  0.4915   121.72    8.50   2.4400   121.72  0.1519  1.0000  0.3994  0.0000   0.0   0.0  1.9486
  2407.61760    108.86  1.0000      2.45   2.4400  0.4914   121.72    8.50   2.4400   121.72  0.1519  1.0000  0.3994  0.0000   0.0   0.0  1.9486
  2407.77000    108.86  1.0000      2.45   2.4400  0.4914   121.71    8.50   2.4400   121.71  0.1519  1.0000  0.3994  0.0000   0.0   0.0  1.9486
  2407.92240    108.85  1.0000      2.45   2.4400  0.4914   121.71    8.50   2.4400   121.71  0.1519  1.0000  0.3994  0.0000   0.0   0.0  1.9486
  2408.07480    108.84  1.0000      2.45   2.4400  0.4914   121.71    8.50   2.4400   121.71  0.1519  1.0000  0.3993  0.0000   0.0   0.0  1.9486
  2408.22720    108.83  1.0000      2.45   2.4400  0.4914   121.71    8.50   2.4400   121.71  0.1519  1.0000  0.3993  0.0000   0.0   0.0  1.9486
  2408.37960    108.82  1.0000      2.45   2.4400  0.4914   121.70    8.50   2.4400   121.70  0.1519  1.0000  0.3993  0.0000   0.0   0.0  1.9486
  2408.53200    108.82  1.0000      2.45   2.4400  0.4913   121.70    8.50   2.4400   121.70  0.1519  1.0000  0.3993  0.0000   0.0   0.0  1.9487
  2408.68440    108.81  1.0000      2.45   2.4400  0.4913   121.70    8.50   2.4400   121.70  0.1519  1.0000  0.3993  0.0000   0.0   0.0  1.9487
  2408.83680    108.80  1.0000      2.45   2.4400  0.4913   121.70    8.50   2.4400   121.70  0.1519  1.0000  0.3993  0.0000   0.0   0.0  1.9487
  2408.98920    108.79  1.0000      2.45   2.4400  0.4913   121.69    8.50   2.4400   121.69  0.1519  1.0000  0.3993  0.0000   0.0   0.0  1.9487
  2409.14160    108.78  1.0000      2.45   2.4400  0.4913   121.69    8.50   2.4400   121.69  0.1519  1.0000  0.3993  0.0000   0.0   0.0  1.9487
  2409.29400    108.78  1.0000      2.45   2.4400  0.4913   121.69    8.50   2.4400   121.69  0.1519  1.0000  0.3993  0.0000   0.0   0.0  1.9487
  2409.44640    108.77  1.0000      2.45   2.4400  0.4913   121.69    8.50   2.4400   121.69  0.1519  1.0000  0.3992  0.0000   0.0   0.0  1.9487
  2409.59880    108.76  1.0000      2.45   2.4400  0.4912   121.69    8.50   2.4400   121.69  0.1519  1.0000  0.3992  0.0000   0.0   0.0  1.9488
  2409.75120    108.75  1.0000      2.45   2.4400  0.4912   121.68    8.49   2.4400   121.68  0.1519  1.0000  0.3992  0.0000   0.0   0.0  1.9488
  2409.90360    108.74  1.0000      2.45   2.4400  0.4912   121.68    8.49   2.4400   121.68  0.1519  1.0000  0.3992  0.0000   0.0   0.0  1.9488
  2410.05600    108.74  1.0000      2.45   2.4400  0.4912   121.68    8.49   2.4400   121.68  0.1518  1.0000  0.3992  0.0000   0.0   0.0  1.9488
  2410.20840    108.73  1.0000      2.45   2.4400  0.4912   121.68    8.49   2.4400   121.68  0.1518  1.0000  0.3992  0.0000   0.0   0.0  1.9488
  2410.36080    108.72  1.0000      2.45   2.4400  0.4912   121.67    8.49   2.4400   121.67  0.1518  1.0000  0.3992  0.0000   0.0   0.0  1.9488
  2410.51320    108.71  1.0000      2.45   2.4400  0.4912   121.67    8.49   2.4400   121.67  0.1518  1.0000  0.3992  0.0000   0.0   0.0  1.9489
  2410.66560    108.71  1.0000      2.45   2.4400  0.4911   121.67    8.49   2.4400   121.67  0.1518  1.0000  0.3991  0.0000   0.0   0.0  1.9489
  2410.81800    108.70  1.0000      2.45   2.4400  0.4911   121.67    8.49   2.4400   121.67  0.1518  1.0000  0.3991  0.0000   0.0   0.0  1.9489
  2410.97040    108.69  1.0000      2.45   2.4400  0.4911   121.67    8.49   2.4400   121.67  0.1518  1.0000  0.3991  0.0000   0.0   0.0  1.9489
  2411.12280    108.68  1.0000      2.45   2.4400  0.4911   121.66    8.49   2.4400   121.66  0.1518  1.0000  0.3991  0.0000   0.0   0.0  1.9489
  2411.27520    108.67  1.0000      2.45   2.4400  0.4911   121.66    8.49   2.4400   121.66  0.1518  1.0000  0.3991  0.0000   0.0   0.0  1.9489
  2411.42760    108.67  1.0000      2.45   2.4400  0.4911   121.66    8.49   2.4400   121.66  0.1518  1.0000  0.3991  0.0000   0.0   0.0  1.9489
  2411.58000    108.66  1.0000      2.45   2.4400  0.4911   121.66    8.49   2.4400   121.66  0.1518  1.0000  0.3991  0.0000   0.0   0.0  1.9490
  2411.73240    108.65  1.0000      2.45   2.4400  0.4910   121.66    8.49   2.4400   121.66  0.1518  1.0000  0.3991  0.0000   0.0   0.0  1.9490
