~Version --------------------------------------------------
VERS.   2.0 : CWLS log ASCII Standard -VERSION 2.0
WRAP.    NO : One line per depth step
DLM . SPACE : Column Data Section Delimiter
~Well ------------------------------------------------------
STRT.M                   1250.00000 : START DEPTH (mMD)
STOP.                    2600.00000 : STOP DEPTH (mMD)
STEP.                       0.15240 : STEP (m)
NULL.                      -999.25 : NULL VALUE
COMP.  Petroleum Asia Pacific (PAPC)     : COMPANY
WELL.  BOKOR-2                          : WELL
FLD .  BOKOR                            : FIELD
LOC .  Offshore Sarawak, Malaysia Block : LOCATION
PROV.  Sarawak                          : PROVINCE
CNTY.  Sarawak                          : COUNTY
STAT.  Malaysia                        : STATE
CTRY.  Malaysia                        : COUNTRY
SRVC.  Geoquest Malaysia Sdn Bhd       : SERVICE COMPANY
DATE.  2024-04-22                      : LOG DATE
UWI .  BOKOR-2 ST00                     : UNIQUE WELL ID
API .  97MSAW00002B000                  : API NUMBER
EKB .  45.80                           : ELEVATION KELLY BUSHING (m)
EGL .  46.20                           : ELEVATION GROUND LEVEL (m)
TDD .  2640.00                          : TOTAL DEPTH DRILLED (mMD)
TVD .  2431.00                          : TOTAL VERTICAL DEPTH (mTVDSS)
~Curve Information -----------------------------------------
DEPT   .M     : Measured Depth (mMD)
GR     .GAPI  : Gamma Ray (Total)
GR_NSH .V/V   : GR Normalized Shale
RT     .OHMM  : Deep Resistivity (Array Induction AI45)
RHOB   .G/CC  : Bulk Density
NPHI   .V/V   : Neutron Porosity (limestone eq)
DT     .US/F  : Sonic Transit Time (compressional)
CALI   .IN    : Caliper
DEN    .G/CC  : Bulk Density (alias)
AC     .US/F  : Sonic Transit Time (alias)
PHI_E  .V/V   : Effective Porosity (DN average)
VSHALE .V/V   : Shale Volume (GR linear)
SW     .V/V   : Water Saturation (Archie, Rw=0.025)
VHC    .V/V   : Hydrocarbon Volume (PhiE x (1-SW))
NET    .BIN   : Net Reservoir Flag (VSHALE<0.40)
PAY    .BIN   : Pay Flag (NET=1 AND SW<0.60)
CROSS  .V/V   : Neutron-Density Crossover (RHOB-NPHI)
~Params ----------------------------------------------------
FORM .  BOKOR-2                        : Formation / Well ID
RFT  .  1380.0  1420.0  1600.0  1720.0 : RFT sample depths (mMD)
MD_D .  1250.0                         : Measured depth datum (mMD)
TVDSS.  46.20                          : TVD at datum (mTVDSS)
DATUM.  MSL  Mean Sea Level             : Depth datum reference
# Formation Tops (EXPLORATORY_VISUALIZATION — not RFT-confirmed)
# BOKOR-2 is 1.2km NE of BOKOR-1 — slight structural updip
FM_TOP .  1360.0  : Top FMM Formation (Shale) — 45m deeper than BOKOR-1
SS1_TOP.  1520.0  : Top Shallow Sand 1 — downdip vs BOKOR-1
SS1_BOT.  1600.0  : Bottom Shallow Sand 1
SS2_TOP.  1650.0  : Top Deep Sand 2  <-- main gas reservoir (30m deeper than BOKOR-1)
SS2_BOT.  1810.0  : Bottom Deep Sand 2
SS3_TOP.  1920.0  : Top Deep Sand 3
SS3_BOT.  2080.0  : Bottom Deep Sand 3
BASE  .  2130.0  : Base of reservoir section
# Petrophysics cutoffs
RW     .  0.025  : Formation water resistivity (ohm.m)
PHIT  .  0.30   : Total porosity cutoff
VSH_cut .  0.40 : Shale volume cutoff for net pay
SW_cut  .  0.60 : Sw cutoff for pay
CLAIM  .  EXPLORATORY_VISUALIZATION    : Default claim state
~Other -----------------------------------------------------
BOKOR-2 is the second well in the BOKOR field appraisal program.
Drilled April 2024 by PAPC, 1.2km NE of BOKOR-1 on the same structural
closure. Objectives: (1) confirm lateral continuity of SS2 and SS3 fans,
(2) RFT sampling in SS2 gas column. Result: Gas confirmed in SS2 and SS3.
Shows higher porosity in SS2 vs BOKOR-1 due to cleaner sand facies.
Depths are measured from GL (46.2m above MSL). All in mMD.
~ASCII -----------------------------------------------------
# ...
  1429.22240    106.55  1.0000      1.26   2.4553  0.4969   120.54    8.37   2.4553   120.54  0.1875  1.0000  0.4504  0.0000   0.0   0.0  1.9583
  1429.37480    106.55  1.0000      1.26   2.4552  0.4969   120.54    8.37   2.4552   120.54  0.1875  1.0000  0.4504  0.0000   0.0   0.0  1.9583
  1429.52720    106.54  1.0000      1.26   2.4552  0.4969   120.53    8.37   2.4552   120.53  0.1875  1.0000  0.4504  0.0000   0.0   0.0  1.9583
  1429.67960    106.54  1.0000      1.26   2.4552  0.4969   120.53    8.37   2.4552   120.53  0.1875  1.0000  0.4505  0.0000   0.0   0.0  1.9583
  1429.83200    106.53  1.0000      1.26   2.4552  0.4968   120.52    8.37   2.4552   120.52  0.1875  1.0000  0.4505  0.0000   0.0   0.0  1.9583
  1429.98440    106.53  1.0000      1.26   2.4552  0.4968   120.52    8.37   2.4552   120.52  0.1875  1.0000  0.4505  0.0000   0.0   0.0  1.9583
  1430.13680    106.53  1.0000      1.26   2.4551  0.4968   120.52    8.37   2.4551   120.52  0.1875  1.0000  0.4506  0.0000   0.0   0.0  1.9584
  1430.28920    106.52  1.0000      1.26   2.4551  0.4967   120.51    8.37   2.4551   120.51  0.1875  1.0000  0.4506  0.0000   0.0   0.0  1.9584
  1430.44160    106.52  1.0000      1.26   2.4551  0.4967   120.51    8.37   2.4551   120.51  0.1875  1.0000  0.4506  0.0000   0.0   0.0  1.9584
  1430.59400    106.51  1.0000      1.26   2.4551  0.4967   120.50    8.37   2.4551   120.50  0.1875  1.0000  0.4506  0.0000   0.0   0.0  1.9584
  1430.74640    106.51  1.0000      1.26   2.4551  0.4967   120.50    8.37   2.4551   120.50  0.1875  1.0000  0.4507  0.0000   0.0   0.0  1.9584
  1430.89880    106.50  1.0000      1.26   2.4550  0.4966   120.49    8.37   2.4550   120.49  0.1875  1.0000  0.4507  0.0000   0.0   0.0  1.9584
  1431.05120    106.50  1.0000      1.26   2.4550  0.4966   120.49    8.37   2.4550   120.49  0.1875  1.0000  0.4507  0.0000   0.0   0.0  1.9584
  1431.20360    106.50  1.0000      1.26   2.4550  0.4966   120.49    8.37   2.4550   120.49  0.1875  1.0000  0.4507  0.0000   0.0   0.0  1.9584
  1431.35600    106.49  1.0000      1.26   2.4550  0.4965   120.48    8.37   2.4550   120.48  0.1875  1.0000  0.4508  0.0000   0.0   0.0  1.9584
  1431.50840    106.49  1.0000      1.26   2.4550  0.4965   120.48    8.37   2.4550   120.48  0.1875  1.0000  0.4508  0.0000   0.0   0.0  1.9584
  1431.66080    106.48  1.0000      1.26   2.4549  0.4965   120.47    8.37   2.4549   120.47  0.1875  1.0000  0.4508  0.0000   0.0   0.0  1.9584
  1431.81320    106.48  1.0000      1.26   2.4549  0.4965   120.47    8.37   2.4549   120.47  0.1875  1.0000  0.4509  0.0000   0.0   0.0  1.9585
  1431.96560    106.48  1.0000      1.26   2.4549  0.4964   120.46    8.37   2.4549   120.46  0.1875  1.0000  0.4509  0.0000   0.0   0.0  1.9585
  1432.11800    106.47  1.0000      1.26   2.4549  0.4964   120.46    8.37   2.4549   120.46  0.1875  1.0000  0.4509  0.0000   0.0   0.0  1.9585
  1432.27040    106.47  1.0000      1.26   2.4549  0.4964   120.46    8.37   2.4549   120.46  0.1874  1.0000  0.4509  0.0000   0.0   0.0  1.9585
  1432.42280    106.46  1.0000      1.26   2.4548  0.4963   120.45    8.37   2.4548   120.45  0.1874  1.0000  0.4510  0.0000   0.0   0.0  1.9585
  1432.57520    106.46  1.0000      1.26   2.4548  0.4963   120.45    8.37   2.4548   120.45  0.1874  1.0000  0.4510  0.0000   0.0   0.0  1.9585
  1432.72760    106.46  1.0000      1.26   2.4548  0.4963   120.44    8.37   2.4548   120.44  0.1874  1.0000  0.4510  0.0000   0.0   0.0  1.9585
  1432.88000    106.45  1.0000      1.26   2.4548  0.4963   120.44    8.37   2.4548   120.44  0.1874  1.0000  0.4511  0.0000   0.0   0.0  1.9585
  1433.03240    106.45  1.0000      1.26   2.4548  0.4962   120.43    8.37   2.4548   120.43  0.1874  1.0000  0.4511  0.0000   0.0   0.0  1.9585
  1433.18480    106.44  1.0000      1.26   2.4547  0.4962   120.43    8.37   2.4547   120.43  0.1874  1.0000  0.4511  0.0000   0.0   0.0  1.9585
  1433.33720    106.44  1.0000      1.26   2.4547  0.4962   120.43    8.38   2.4547   120.43  0.1874  1.0000  0.4511  0.0000   0.0   0.0  1.9585
  1433.48960    106.44  1.0000      1.26   2.4547  0.4961   120.42    8.38   2.4547   120.42  0.1874  1.0000  0.4512  0.0000   0.0   0.0  1.9585
  1433.64200    106.43  1.0000      1.26   2.4547  0.4961   120.42    8.38   2.4547   120.42  0.1874  1.0000  0.4512  0.0000   0.0   0.0  1.9586
  1433.79440    106.43  1.0000      1.26   2.4547  0.4961   120.41    8.38   2.4547   120.41  0.1874  1.0000  0.4512  0.0000   0.0   0.0  1.9586
  1433.94680    106.43  1.0000      1.26   2.4546  0.4961   120.41    8.38   2.4546   120.41  0.1874  1.0000  0.4513  0.0000   0.0   0.0  1.9586
  1434.09920    106.42  1.0000      1.26   2.4546  0.4960   120.41    8.38   2.4546   120.41  0.1874  1.0000  0.4513  0.0000   0.0   0.0  1.9586
  1434.25160    106.42  1.0000      1.26   2.4546  0.4960   120.40    8.38   2.4546   120.40  0.1874  1.0000  0.4513  0.0000   0.0   0.0  1.9586
  1434.40400    106.41  1.0000      1.26   2.4546  0.4960   120.40    8.38   2.4546   120.40  0.1874  1.0000  0.4513  0.0000   0.0   0.0  1.9586
  1434.55640    106.41  1.0000      1.26   2.4546  0.4960   120.39    8.38   2.4546   120.39  0.1874  1.0000  0.4514  0.0000   0.0   0.0  1.9586
  1434.70880    106.41  1.0000      1.26   2.4545  0.4959   120.39    8.38   2.4545   120.39  0.1874  1.0000  0.4514  0.0000   0.0   0.0  1.9586
  1434.86120    106.40  1.0000      1.26   2.4545  0.4959   120.38    8.38   2.4545   120.38  0.1874  1.0000  0.4514  0.0000   0.0   0.0  1.9586
  1435.01360    106.40  1.0000      1.26   2.4545  0.4959   120.38    8.38   2.4545   120.38  0.1874  1.0000  0.4515  0.0000   0.0   0.0  1.9586
  1435.16600    106.40  1.0000      1.26   2.4545  0.4958   120.38    8.38   2.4545   120.38  0.1874  1.0000  0.4515  0.0000   0.0   0.0  1.9586
  1435.31840    106.39  1.0000      1.26   2.4545  0.4958   120.37    8.38   2.4545   120.37  0.1874  1.0000  0.4515  0.0000   0.0   0.0  1.9586
  1435.47080    106.39  1.0000      1.26   2.4544  0.4958   120.37    8.38   2.4544   120.37  0.1874  1.0000  0.4515  0.0000   0.0   0.0  1.9586
  1435.62320    106.39  1.0000      1.26   2.4544  0.4958   120.36    8.38   2.4544   120.36  0.1874  1.0000  0.4516  0.0000   0.0   0.0  1.9587
  1435.77560    106.38  1.0000      1.26   2.4544  0.4957   120.36    8.38   2.4544   120.36  0.1874  1.0000  0.4516  0.0000   0.0   0.0  1.9587
  1435.92800    106.38  1.0000      1.26   2.4544  0.4957   120.36    8.38   2.4544   120.36  0.1874  1.0000  0.4516  0.0000   0.0   0.0  1.9587
  1436.08040    106.38  1.0000      1.26   2.4543  0.4957   120.35    8.38   2.4543   120.35  0.1874  1.0000  0.4516  0.0000   0.0   0.0  1.9587
  1436.23280    106.37  1.0000      1.26   2.4543  0.4956   120.35    8.38   2.4543   120.35  0.1874  1.0000  0.4517  0.0000   0.0   0.0  1.9587
  1436.38520    106.37  1.0000      1.26   2.4543  0.4956   120.34    8.38   2.4543   120.34  0.1874  1.0000  0.4517  0.0000   0.0   0.0  1.9587
  1436.53760    106.37  1.0000      1.26   2.4543  0.4956   120.34    8.38   2.4543   120.34  0.1874  1.0000  0.4517  0.0000   0.0   0.0  1.9587
  1436.69000    106.36  1.0000      1.26   2.4543  0.4956   120.33    8.38   2.4543   120.33  0.1874  1.0000  0.4518  0.0000   0.0   0.0  1.9587
  1436.84240    106.36  1.0000      1.26   2.4542  0.4955   120.33    8.38   2.4542   120.33  0.1874  1.0000  0.4518  0.0000   0.0   0.0  1.9587
  1436.99480    106.36  1.0000      1.26   2.4542  0.4955   120.33    8.39   2.4542   120.33  0.1874  1.0000  0.4518  0.0000   0.0   0.0  1.9587
  1437.14720    106.35  1.0000      1.26   2.4542  0.4955   120.32    8.39   2.4542   120.32  0.1874  1.0000  0.4518  0.0000   0.0   0.0  1.9587
  1437.29960    106.35  1.0000      1.26   2.4542  0.4955   120.32    8.39   2.4542   120.32  0.1874  1.0000  0.4519  0.0000   0.0   0.0  1.9587
  1437.45200    106.35  1.0000      1.26   2.4542  0.4954   120.31    8.39   2.4542   120.31  0.1874  1.0000  0.4519  0.0000   0.0   0.0  1.9587
  1437.60440    106.34  1.0000      1.26   2.4541  0.4954   120.31    8.39   2.4541   120.31  0.1874  1.0000  0.4519  0.0000   0.0   0.0  1.9587
