~Version --------------------------------------------------
VERS.   2.0 : CWLS log ASCII Standard -VERSION 2.0
WRAP.    NO : One line per depth step
DLM . SPACE : Column Data Section Delimiter
~Well ------------------------------------------------------
STRT.M                   1250.00000 : START DEPTH (mMD)
STOP.                    2600.00000 : STOP DEPTH (mMD)
STEP.                       0.15240 : STEP (m)
NULL.                      -999.25 : NULL VALUE
COMP.  Petroleum Asia Pacific (PAPC)     : COMPANY
WELL.  BOKOR-2                          : WELL
FLD .  BOKOR                            : FIELD
LOC .  Offshore Sarawak, Malaysia Block : LOCATION
PROV.  Sarawak                          : PROVINCE
CNTY.  Sarawak                          : COUNTY
STAT.  Malaysia                        : STATE
CTRY.  Malaysia                        : COUNTRY
SRVC.  Geoquest Malaysia Sdn Bhd       : SERVICE COMPANY
DATE.  2024-04-22                      : LOG DATE
UWI .  BOKOR-2 ST00                     : UNIQUE WELL ID
API .  97MSAW00002B000                  : API NUMBER
EKB .  45.80                           : ELEVATION KELLY BUSHING (m)
EGL .  46.20                           : ELEVATION GROUND LEVEL (m)
TDD .  2640.00                          : TOTAL DEPTH DRILLED (mMD)
TVD .  2431.00                          : TOTAL VERTICAL DEPTH (mTVDSS)
~Curve Information -----------------------------------------
DEPT   .M     : Measured Depth (mMD)
GR     .GAPI  : Gamma Ray (Total)
GR_NSH .V/V   : GR Normalized Shale
RT     .OHMM  : Deep Resistivity (Array Induction AI45)
RHOB   .G/CC  : Bulk Density
NPHI   .V/V   : Neutron Porosity (limestone eq)
DT     .US/F  : Sonic Transit Time (compressional)
CALI   .IN    : Caliper
DEN    .G/CC  : Bulk Density (alias)
AC     .US/F  : Sonic Transit Time (alias)
PHI_E  .V/V   : Effective Porosity (DN average)
VSHALE .V/V   : Shale Volume (GR linear)
SW     .V/V   : Water Saturation (Archie, Rw=0.025)
VHC    .V/V   : Hydrocarbon Volume (PhiE x (1-SW))
NET    .BIN   : Net Reservoir Flag (VSHALE<0.40)
PAY    .BIN   : Pay Flag (NET=1 AND SW<0.60)
CROSS  .V/V   : Neutron-Density Crossover (RHOB-NPHI)
~Params ----------------------------------------------------
FORM .  BOKOR-2                        : Formation / Well ID
RFT  .  1380.0  1420.0  1600.0  1720.0 : RFT sample depths (mMD)
MD_D .  1250.0                         : Measured depth datum (mMD)
TVDSS.  46.20                          : TVD at datum (mTVDSS)
DATUM.  MSL  Mean Sea Level             : Depth datum reference
# Formation Tops (EXPLORATORY_VISUALIZATION — not RFT-confirmed)
# BOKOR-2 is 1.2km NE of BOKOR-1 — slight structural updip
FM_TOP .  1360.0  : Top FMM Formation (Shale) — 45m deeper than BOKOR-1
SS1_TOP.  1520.0  : Top Shallow Sand 1 — downdip vs BOKOR-1
SS1_BOT.  1600.0  : Bottom Shallow Sand 1
SS2_TOP.  1650.0  : Top Deep Sand 2  <-- main gas reservoir (30m deeper than BOKOR-1)
SS2_BOT.  1810.0  : Bottom Deep Sand 2
SS3_TOP.  1920.0  : Top Deep Sand 3
SS3_BOT.  2080.0  : Bottom Deep Sand 3
BASE  .  2130.0  : Base of reservoir section
# Petrophysics cutoffs
RW     .  0.025  : Formation water resistivity (ohm.m)
PHIT  .  0.30   : Total porosity cutoff
VSH_cut .  0.40 : Shale volume cutoff for net pay
SW_cut  .  0.60 : Sw cutoff for pay
CLAIM  .  EXPLORATORY_VISUALIZATION    : Default claim state
~Other -----------------------------------------------------
BOKOR-2 is the second well in the BOKOR field appraisal program.
Drilled April 2024 by PAPC, 1.2km NE of BOKOR-1 on the same structural
closure. Objectives: (1) confirm lateral continuity of SS2 and SS3 fans,
(2) RFT sampling in SS2 gas column. Result: Gas confirmed in SS2 and SS3.
Shows higher porosity in SS2 vs BOKOR-1 due to cleaner sand facies.
Depths are measured from GL (46.2m above MSL). All in mMD.
~ASCII -----------------------------------------------------
# ...
  2052.23360     20.56  0.0000     18.00   2.3100  0.1930    92.20    8.36   2.3100    92.20  0.3188  0.0000  0.1169  0.2815   1.0   1.0  2.1171
  2052.38600     20.58  0.0000     18.00   2.3100  0.1929    92.19    8.36   2.3100    92.19  0.3188  0.0000  0.1169  0.2815   1.0   1.0  2.1171
  2052.53840     20.59  0.0000     18.00   2.3101  0.1929    92.19    8.36   2.3101    92.19  0.3188  0.0000  0.1169  0.2815   1.0   1.0  2.1171
  2052.69080     20.60  0.0000     18.00   2.3101  0.1929    92.18    8.36   2.3101    92.18  0.3188  0.0000  0.1169  0.2815   1.0   1.0  2.1172
  2052.84320     20.62  0.0000     18.00   2.3101  0.1929    92.18    8.36   2.3101    92.18  0.3188  0.0000  0.1169  0.2815   1.0   1.0  2.1172
  2052.99560     20.63  0.0000     18.00   2.3101  0.1928    92.17    8.36   2.3101    92.17  0.3188  0.0000  0.1169  0.2815   1.0   1.0  2.1173
  2053.14800     20.64  0.0000     18.00   2.3101  0.1928    92.17    8.36   2.3101    92.17  0.3188  0.0000  0.1169  0.2815   1.0   1.0  2.1173
  2053.30040     20.66  0.0000     18.00   2.3102  0.1928    92.16    8.36   2.3102    92.16  0.3188  0.0000  0.1169  0.2815   1.0   1.0  2.1174
  2053.45280     20.67  0.0000     18.00   2.3102  0.1927    92.16    8.36   2.3102    92.16  0.3188  0.0000  0.1169  0.2815   1.0   1.0  2.1174
  2053.60520     20.68  0.0000     18.00   2.3102  0.1927    92.16    8.36   2.3102    92.16  0.3187  0.0000  0.1169  0.2815   1.0   1.0  2.1175
  2053.75760     20.69  0.0000     18.00   2.3102  0.1927    92.15    8.36   2.3102    92.15  0.3187  0.0000  0.1169  0.2815   1.0   1.0  2.1175
  2053.91000     20.71  0.0000     18.00   2.3102  0.1926    92.15    8.36   2.3102    92.15  0.3187  0.0000  0.1169  0.2815   1.0   1.0  2.1176
  2054.06240     20.72  0.0000     18.00   2.3102  0.1926    92.14    8.36   2.3102    92.14  0.3187  0.0000  0.1169  0.2815   1.0   1.0  2.1176
  2054.21480     20.73  0.0000     18.00   2.3103  0.1926    92.14    8.36   2.3103    92.14  0.3187  0.0000  0.1169  0.2815   1.0   1.0  2.1177
  2054.36720     20.74  0.0000     18.00   2.3103  0.1926    92.13    8.36   2.3103    92.13  0.3187  0.0000  0.1169  0.2815   1.0   1.0  2.1177
  2054.51960     20.76  0.0000     18.00   2.3103  0.1925    92.13    8.36   2.3103    92.13  0.3187  0.0000  0.1169  0.2815   1.0   1.0  2.1178
  2054.67200     20.77  0.0000     18.00   2.3103  0.1925    92.12    8.36   2.3103    92.12  0.3187  0.0000  0.1169  0.2815   1.0   1.0  2.1178
  2054.82440     20.78  0.0000     18.00   2.3103  0.1925    92.12    8.36   2.3103    92.12  0.3187  0.0000  0.1169  0.2815   1.0   1.0  2.1179
  2054.97680     20.79  0.0000     18.00   2.3104  0.1924    92.12    8.36   2.3104    92.12  0.3187  0.0000  0.1169  0.2815   1.0   1.0  2.1179
  2055.12920     20.81  0.0000     18.00   2.3104  0.1924    92.11    8.36   2.3104    92.11  0.3187  0.0000  0.1169  0.2815   1.0   1.0  2.1180
  2055.28160     20.82  0.0000     18.00   2.3104  0.1924    92.11    8.36   2.3104    92.11  0.3187  0.0000  0.1169  0.2815   1.0   1.0  2.1180
  2055.43400     20.83  0.0000     18.00   2.3104  0.1924    92.10    8.36   2.3104    92.10  0.3187  0.0000  0.1169  0.2815   1.0   1.0  2.1181
  2055.58640     20.84  0.0000     18.00   2.3104  0.1923    92.10    8.36   2.3104    92.10  0.3187  0.0000  0.1169  0.2815   1.0   1.0  2.1181
  2055.73880     20.86  0.0000     18.00   2.3105  0.1923    92.09    8.36   2.3105    92.09  0.3187  0.0000  0.1169  0.2815   1.0   1.0  2.1182
  2055.89120     20.87  0.0000     18.00   2.3105  0.1923    92.09    8.36   2.3105    92.09  0.3187  0.0000  0.1169  0.2814   1.0   1.0  2.1182
  2056.04360     20.88  0.0000     18.00   2.3105  0.1922    92.09    8.36   2.3105    92.09  0.3187  0.0000  0.1169  0.2814   1.0   1.0  2.1183
  2056.19600     20.89  0.0000     18.00   2.3105  0.1922    92.08    8.36   2.3105    92.08  0.3187  0.0000  0.1169  0.2814   1.0   1.0  2.1183
  2056.34840     20.91  0.0000     18.00   2.3105  0.1922    92.08    8.36   2.3105    92.08  0.3187  0.0000  0.1169  0.2814   1.0   1.0  2.1184
  2056.50080     20.92  0.0000     18.00   2.3106  0.1921    92.07    8.36   2.3106    92.07  0.3187  0.0000  0.1169  0.2814   1.0   1.0  2.1184
  2056.65320     20.93  0.0000     18.00   2.3106  0.1921    92.07    8.36   2.3106    92.07  0.3187  0.0000  0.1169  0.2814   1.0   1.0  2.1185
  2056.80560     20.94  0.0000     18.00   2.3106  0.1921    92.06    8.36   2.3106    92.06  0.3187  0.0000  0.1169  0.2814   1.0   1.0  2.1185
  2056.95800     20.95  0.0000     18.00   2.3106  0.1921    92.06    8.36   2.3106    92.06  0.3187  0.0000  0.1169  0.2814   1.0   1.0  2.1186
  2057.11040     20.97  0.0000     18.00   2.3106  0.1920    92.05    8.37   2.3106    92.05  0.3187  0.0000  0.1169  0.2814   1.0   1.0  2.1186
  2057.26280     20.98  0.0000     18.00   2.3106  0.1920    92.05    8.37   2.3106    92.05  0.3187  0.0000  0.1169  0.2814   1.0   1.0  2.1186
  2057.41520     20.99  0.0000     18.00   2.3107  0.1920    92.05    8.37   2.3107    92.05  0.3187  0.0000  0.1169  0.2814   1.0   1.0  2.1187
  2057.56760     21.00  0.0000     18.00   2.3107  0.1919    92.04    8.37   2.3107    92.04  0.3187  0.0000  0.1169  0.2814   1.0   1.0  2.1187
  2057.72000     21.01  0.0000     18.00   2.3107  0.1919    92.04    8.37   2.3107    92.04  0.3187  0.0000  0.1169  0.2814   1.0   1.0  2.1188
  2057.87240     21.03  0.0000     18.00   2.3107  0.1919    92.03    8.37   2.3107    92.03  0.3187  0.0000  0.1169  0.2814   1.0   1.0  2.1188
  2058.02480     21.04  0.0000     18.00   2.3107  0.1919    92.03    8.37   2.3107    92.03  0.3187  0.0000  0.1169  0.2814   1.0   1.0  2.1189
  2058.17720     21.05  0.0000     18.00   2.3108  0.1918    92.02    8.37   2.3108    92.02  0.3187  0.0000  0.1169  0.2814   1.0   1.0  2.1189
  2058.32960     21.06  0.0000     18.00   2.3108  0.1918    92.02    8.37   2.3108    92.02  0.3187  0.0000  0.1169  0.2814   1.0   1.0  2.1190
  2058.48200     21.07  0.0000     18.00   2.3108  0.1918    92.02    8.37   2.3108    92.02  0.3187  0.0000  0.1169  0.2814   1.0   1.0  2.1190
  2058.63440     21.09  0.0000     18.00   2.3108  0.1917    92.01    8.37   2.3108    92.01  0.3187  0.0000  0.1169  0.2814   1.0   1.0  2.1191
  2058.78680     21.10  0.0000     18.00   2.3108  0.1917    92.01    8.37   2.3108    92.01  0.3187  0.0000  0.1169  0.2814   1.0   1.0  2.1191
  2058.93920     21.11  0.0000     18.00   2.3109  0.1917    92.00    8.37   2.3109    92.00  0.3187  0.0000  0.1169  0.2814   1.0   1.0  2.1192
  2059.09160     21.12  0.0000     18.00   2.3109  0.1917    92.00    8.37   2.3109    92.00  0.3187  0.0000  0.1169  0.2814   1.0   1.0  2.1192
  2059.24400     21.13  0.0000     18.00   2.3109  0.1916    91.99    8.37   2.3109    91.99  0.3187  0.0000  0.1169  0.2814   1.0   1.0  2.1193
  2059.39640     21.14  0.0000     18.00   2.3109  0.1916    91.99    8.37   2.3109    91.99  0.3187  0.0000  0.1169  0.2814   1.0   1.0  2.1193
  2059.54880     21.16  0.0000     18.00   2.3109  0.1916    91.99    8.37   2.3109    91.99  0.3187  0.0000  0.1169  0.2814   1.0   1.0  2.1194
  2059.70120     21.17  0.0000     18.00   2.3110  0.1915    91.98    8.37   2.3110    91.98  0.3187  0.0000  0.1170  0.2814   1.0   1.0  2.1194
  2059.85360     21.18  0.0000     18.00   2.3110  0.1915    91.98    8.37   2.3110    91.98  0.3187  0.0000  0.1170  0.2814   1.0   1.0  2.1195
  2060.00600     21.19  0.0000     18.00   2.3110  0.1915    91.97    8.37   2.3110    91.97  0.3187  0.0000  0.1170  0.2814   1.0   1.0  2.1195
  2060.15840     21.20  0.0000     18.00   2.3110  0.1915    91.97    8.37   2.3110    91.97  0.3187  0.0000  0.1170  0.2814   1.0   1.0  2.1196
  2060.31080     21.21  0.0000     18.00   2.3110  0.1914    91.96    8.37   2.3110    91.96  0.3187  0.0000  0.1170  0.2814   1.0   1.0  2.1196
  2060.46320     21.22  0.0000     18.00   2.3111  0.1914    91.96    8.37   2.3111    91.96  0.3187  0.0000  0.1170  0.2814   1.0   1.0  2.1197
  2060.61560     21.24  0.0000     18.00   2.3111  0.1914    91.96    8.37   2.3111    91.96  0.3187  0.0000  0.1170  0.2814   1.0   1.0  2.1197
