~Version --------------------------------------------------
VERS.   2.0 : CWLS log ASCII Standard -VERSION 2.0
WRAP.    NO : One line per depth step
DLM . SPACE : Column Data Section Delimiter
~Well ------------------------------------------------------
STRT.M                   1200.00000 : START DEPTH (mMD)
STOP.                    2500.00000 : STOP DEPTH (mMD)
STEP.                       0.15240 : STEP (m)
NULL.                      -999.25 : NULL VALUE
COMP.  Petroleum Asia Pacific (PAPC)     : COMPANY
WELL.  BOKOR-1                          : WELL
FLD .  BOKOR                            : FIELD
LOC .  Offshore Sarawak, Malaysia Block : LOCATION
PROV.  Sarawak                          : PROVINCE
CNTY.  Sarawak                          : COUNTY
STAT.  Malaysia                        : STATE
CTRY.  Malaysia                        : COUNTRY
SRVC.  Geoquest Malaysia Sdn Bhd       : SERVICE COMPANY
DATE.  2024-03-15                      : LOG DATE
UWI .  BOKOR-1 ST00                     : UNIQUE WELL ID
API .  97MSAW00001B000                  : API NUMBER
EKB .  1234.56                          : ELEVATION KELLY BUSHING (m)
EGL .  1235.20                          : ELEVATION GROUND LEVEL (m)
TDD .  2550.00                          : TOTAL DEPTH DRILLED (mMD)
TVD .  2340.15                          : TOTAL VERTICAL DEPTH (mTVDSS)
~Curve Information -----------------------------------------
DEPT   .M     : Measured Depth (mMD)
GR     .GAPI  : Gamma Ray (Total)
GR_NSH .V/V   : GR Normalized Shale
RT     .OHMM  : Deep Resistivity (Array Induction AI45)
RHOB   .G/CC  : Bulk Density
NPHI   .V/V   : Neutron Porosity (limestone eq)
DT     .US/F  : Sonic Transit Time (compressional)
CALI   .IN    : Caliper
DEN    .G/CC  : Bulk Density (alias)
AC     .US/F  : Sonic Transit Time (alias)
PHI_E  .V/V   : Effective Porosity (DN average)
VSHALE .V/V   : Shale Volume (GR linear)
SW     .V/V   : Water Saturation (Archie, Rw=0.025)
VHC    .V/V   : Hydrocarbon Volume (PhiE x (1-SW))
NET    .BIN   : Net Reservoir Flag (VSHALE<0.40)
PAY    .BIN   : Pay Flag (NET=1 AND SW<0.60)
CROSS  .V/V   : Neutron-Density Crossover (RHOB-NPHI)
~Params ----------------------------------------------------
FORM .  BOKOR-1                        : Formation / Well ID
RFT  .  1350.0  1400.0  1550.0         : RFT sample depths (mMD)
MD_D .  1200.0                         : Measured depth datum (mMD)
TVDSS.  1235.2                         : TVD at datum (mTVDSS)
DATUM.  MSL  Mean Sea Level             : Depth datum reference
# Formation Tops (EXPLORATORY_VISUALIZATION — not RFT-confirmed)
FM_TOP .  1315.0  : Top FMM Formation (Shale)
SS1_TOP.  1480.0  : Top Shallow Sand 1
SS1_BOT.  1560.0  : Bottom Shallow Sand 1
SS2_TOP.  1620.0  : Top Deep Sand 2  <-- main gas reservoir
SS2_BOT.  1780.0  : Bottom Deep Sand 2
SS3_TOP.  1890.0  : Top Deep Sand 3
SS3_BOT.  2050.0  : Bottom Deep Sand 3
BASE  .  2100.0  : Base of reservoir section
# Petrophysics cutoffs
RW     .  0.025  : Formation water resistivity (ohm.m)
PHIT  .  0.30   : Total porosity cutoff
VSH_cut .  0.40 : Shale volume cutoff for net pay
SW_cut  .  0.60 : Sw cutoff for pay
CLAIM  .  EXPLORATORY_VISUALIZATION    : Default claim state
~Other -----------------------------------------------------
BOKOR-1 was drilled by PAPC in March 2024 as a wildcat exploration
well to test Miocene turbidite sands in the BOKOR structural closure.
Result: Gas shows in SS2 and SS3. RFT confirmation pending.
Depths are measured from GL (1235.2m above MSL). All in mMD.
~ASCII -----------------------------------------------------
# ...
  1541.37600     28.37  0.0000      2.32   2.3719  0.2644    87.17    8.62   2.3719    87.17  0.3149  0.0000  0.3294  0.2112   1.0   1.0  2.1074
  1541.52840     28.37  0.0000      2.32   2.3718  0.2645    87.17    8.62   2.3718    87.17  0.3149  0.0000  0.3293  0.2112   1.0   1.0  2.1074
  1541.68080     28.36  0.0000      2.33   2.3718  0.2645    87.18    8.61   2.3718    87.18  0.3149  0.0000  0.3293  0.2112   1.0   1.0  2.1073
  1541.83320     28.36  0.0000      2.33   2.3718  0.2645    87.18    8.61   2.3718    87.18  0.3149  0.0000  0.3292  0.2112   1.0   1.0  2.1073
  1541.98560     28.35  0.0000      2.33   2.3718  0.2646    87.18    8.61   2.3718    87.18  0.3149  0.0000  0.3291  0.2112   1.0   1.0  2.1073
  1542.13800     28.35  0.0000      2.33   2.3718  0.2646    87.19    8.61   2.3718    87.19  0.3149  0.0000  0.3291  0.2112   1.0   1.0  2.1072
  1542.29040     28.35  0.0000      2.33   2.3718  0.2646    87.19    8.61   2.3718    87.19  0.3149  0.0000  0.3290  0.2113   1.0   1.0  2.1072
  1542.44280     28.34  0.0000      2.33   2.3718  0.2646    87.19    8.61   2.3718    87.19  0.3149  0.0000  0.3290  0.2113   1.0   1.0  2.1072
  1542.59520     28.34  0.0000      2.33   2.3718  0.2647    87.20    8.61   2.3718    87.20  0.3149  0.0000  0.3289  0.2113   1.0   1.0  2.1071
  1542.74760     28.33  0.0000      2.33   2.3718  0.2647    87.20    8.61   2.3718    87.20  0.3149  0.0000  0.3288  0.2113   1.0   1.0  2.1071
  1542.90000     28.33  0.0000      2.33   2.3718  0.2647    87.21    8.61   2.3718    87.21  0.3149  0.0000  0.3288  0.2113   1.0   1.0  2.1070
  1543.05240     28.32  0.0000      2.33   2.3717  0.2647    87.21    8.61   2.3717    87.21  0.3149  0.0000  0.3287  0.2114   1.0   1.0  2.1070
  1543.20480     28.32  0.0000      2.33   2.3717  0.2648    87.21    8.61   2.3717    87.21  0.3149  0.0000  0.3287  0.2114   1.0   1.0  2.1070
  1543.35720     28.31  0.0000      2.34   2.3717  0.2648    87.22    8.61   2.3717    87.22  0.3148  0.0000  0.3286  0.2114   1.0   1.0  2.1069
  1543.50960     28.31  0.0000      2.34   2.3717  0.2648    87.22    8.61   2.3717    87.22  0.3148  0.0000  0.3285  0.2114   1.0   1.0  2.1069
  1543.66200     28.31  0.0000      2.34   2.3717  0.2648    87.23    8.61   2.3717    87.23  0.3148  0.0000  0.3285  0.2114   1.0   1.0  2.1069
  1543.81440     28.30  0.0000      2.34   2.3717  0.2649    87.23    8.61   2.3717    87.23  0.3148  0.0000  0.3284  0.2114   1.0   1.0  2.1068
  1543.96680     28.30  0.0000      2.34   2.3717  0.2649    87.23    8.61   2.3717    87.23  0.3148  0.0000  0.3283  0.2115   1.0   1.0  2.1068
  1544.11920     28.29  0.0000      2.34   2.3717  0.2649    87.24    8.61   2.3717    87.24  0.3148  0.0000  0.3283  0.2115   1.0   1.0  2.1068
  1544.27160     28.29  0.0000      2.34   2.3717  0.2649    87.24    8.61   2.3717    87.24  0.3148  0.0000  0.3282  0.2115   1.0   1.0  2.1067
  1544.42400     28.28  0.0000      2.34   2.3717  0.2650    87.25    8.61   2.3717    87.25  0.3148  0.0000  0.3282  0.2115   1.0   1.0  2.1067
  1544.57640     28.28  0.0000      2.34   2.3717  0.2650    87.25    8.61   2.3717    87.25  0.3148  0.0000  0.3281  0.2115   1.0   1.0  2.1067
  1544.72880     28.27  0.0000      2.34   2.3716  0.2650    87.25    8.61   2.3716    87.25  0.3148  0.0000  0.3280  0.2116   1.0   1.0  2.1066
  1544.88120     28.27  0.0000      2.34   2.3716  0.2650    87.26    8.61   2.3716    87.26  0.3148  0.0000  0.3280  0.2116   1.0   1.0  2.1066
  1545.03360     28.26  0.0000      2.35   2.3716  0.2651    87.26    8.60   2.3716    87.26  0.3148  0.0000  0.3279  0.2116   1.0   1.0  2.1066
  1545.18600     28.26  0.0000      2.35   2.3716  0.2651    87.26    8.60   2.3716    87.26  0.3148  0.0000  0.3279  0.2116   1.0   1.0  2.1065
  1545.33840     28.25  0.0000      2.35   2.3716  0.2651    87.27    8.60   2.3716    87.27  0.3148  0.0000  0.3278  0.2116   1.0   1.0  2.1065
  1545.49080     28.25  0.0000      2.35   2.3716  0.2652    87.27    8.60   2.3716    87.27  0.3148  0.0000  0.3277  0.2116   1.0   1.0  2.1064
  1545.64320     28.24  0.0000      2.35   2.3716  0.2652    87.28    8.60   2.3716    87.28  0.3148  0.0000  0.3277  0.2117   1.0   1.0  2.1064
  1545.79560     28.24  0.0000      2.35   2.3716  0.2652    87.28    8.60   2.3716    87.28  0.3148  0.0000  0.3276  0.2117   1.0   1.0  2.1064
  1545.94800     28.23  0.0000      2.35   2.3716  0.2652    87.28    8.60   2.3716    87.28  0.3148  0.0000  0.3276  0.2117   1.0   1.0  2.1063
  1546.10040     28.23  0.0000      2.35   2.3716  0.2653    87.29    8.60   2.3716    87.29  0.3148  0.0000  0.3275  0.2117   1.0   1.0  2.1063
  1546.25280     28.22  0.0000      2.35   2.3716  0.2653    87.29    8.60   2.3716    87.29  0.3148  0.0000  0.3274  0.2117   1.0   1.0  2.1063
  1546.40520     28.22  0.0000      2.35   2.3716  0.2653    87.30    8.60   2.3716    87.30  0.3148  0.0000  0.3274  0.2117   1.0   1.0  2.1062
  1546.55760     28.21  0.0000      2.35   2.3715  0.2653    87.30    8.60   2.3715    87.30  0.3148  0.0000  0.3273  0.2118   1.0   1.0  2.1062
  1546.71000     28.21  0.0000      2.36   2.3715  0.2654    87.31    8.60   2.3715    87.31  0.3148  0.0000  0.3272  0.2118   1.0   1.0  2.1062
  1546.86240     28.20  0.0000      2.36   2.3715  0.2654    87.31    8.60   2.3715    87.31  0.3148  0.0000  0.3272  0.2118   1.0   1.0  2.1061
  1547.01480     28.19  0.0000      2.36   2.3715  0.2654    87.31    8.60   2.3715    87.31  0.3148  0.0000  0.3271  0.2118   1.0   1.0  2.1061
  1547.16720     28.19  0.0000      2.36   2.3715  0.2654    87.32    8.60   2.3715    87.32  0.3148  0.0000  0.3271  0.2118   1.0   1.0  2.1061
  1547.31960     28.18  0.0000      2.36   2.3715  0.2655    87.32    8.60   2.3715    87.32  0.3148  0.0000  0.3270  0.2119   1.0   1.0  2.1060
  1547.47200     28.18  0.0000      2.36   2.3715  0.2655    87.33    8.60   2.3715    87.33  0.3148  0.0000  0.3269  0.2119   1.0   1.0  2.1060
  1547.62440     28.17  0.0000      2.36   2.3715  0.2655    87.33    8.60   2.3715    87.33  0.3148  0.0000  0.3269  0.2119   1.0   1.0  2.1060
  1547.77680     28.17  0.0000      2.36   2.3715  0.2656    87.33    8.60   2.3715    87.33  0.3148  0.0000  0.3268  0.2119   1.0   1.0  2.1059
  1547.92920     28.16  0.0000      2.36   2.3715  0.2656    87.34    8.60   2.3715    87.34  0.3148  0.0000  0.3268  0.2119   1.0   1.0  2.1059
  1548.08160     28.16  0.0000      2.36   2.3715  0.2656    87.34    8.59   2.3715    87.34  0.3148  0.0000  0.3267  0.2119   1.0   1.0  2.1058
  1548.23400     28.15  0.0000      2.36   2.3715  0.2656    87.35    8.59   2.3715    87.35  0.3148  0.0000  0.3266  0.2120   1.0   1.0  2.1058
  1548.38640     28.14  0.0000      2.37   2.3714  0.2657    87.35    8.59   2.3714    87.35  0.3148  0.0000  0.3266  0.2120   1.0   1.0  2.1058
  1548.53880     28.14  0.0000      2.37   2.3714  0.2657    87.35    8.59   2.3714    87.35  0.3148  0.0000  0.3265  0.2120   1.0   1.0  2.1057
  1548.69120     28.13  0.0000      2.37   2.3714  0.2657    87.36    8.59   2.3714    87.36  0.3148  0.0000  0.3265  0.2120   1.0   1.0  2.1057
  1548.84360     28.13  0.0000      2.37   2.3714  0.2657    87.36    8.59   2.3714    87.36  0.3148  0.0000  0.3264  0.2120   1.0   1.0  2.1057
  1548.99600     28.12  0.0000      2.37   2.3714  0.2658    87.37    8.59   2.3714    87.37  0.3148  0.0000  0.3263  0.2120   1.0   1.0  2.1056
  1549.14840     28.11  0.0000      2.37   2.3714  0.2658    87.37    8.59   2.3714    87.37  0.3148  0.0000  0.3263  0.2121   1.0   1.0  2.1056
  1549.30080     28.11  0.0000      2.37   2.3714  0.2658    87.37    8.59   2.3714    87.37  0.3148  0.0000  0.3262  0.2121   1.0   1.0  2.1056
  1549.45320     28.10  0.0000      2.37   2.3714  0.2659    87.38    8.59   2.3714    87.38  0.3148  0.0000  0.3262  0.2121   1.0   1.0  2.1055
  1549.60560     28.10  0.0000      2.37   2.3714  0.2659    87.38    8.59   2.3714    87.38  0.3148  0.0000  0.3261  0.2121   1.0   1.0  2.1055
  1549.75800     28.09  0.0000      2.37   2.3714  0.2659    87.39    8.59   2.3714    87.39  0.3148  0.0000  0.3260  0.2121   1.0   1.0  2.1055
