~Version --------------------------------------------------
VERS.   2.0 : CWLS log ASCII Standard -VERSION 2.0
WRAP.    NO : One line per depth step
DLM . SPACE : Column Data Section Delimiter
~Well ------------------------------------------------------
STRT.M                   1250.00000 : START DEPTH (mMD)
STOP.                    2600.00000 : STOP DEPTH (mMD)
STEP.                       0.15240 : STEP (m)
NULL.                      -999.25 : NULL VALUE
COMP.  Petroleum Asia Pacific (PAPC)     : COMPANY
WELL.  BOKOR-2                          : WELL
FLD .  BOKOR                            : FIELD
LOC .  Offshore Sarawak, Malaysia Block : LOCATION
PROV.  Sarawak                          : PROVINCE
CNTY.  Sarawak                          : COUNTY
STAT.  Malaysia                        : STATE
CTRY.  Malaysia                        : COUNTRY
SRVC.  Geoquest Malaysia Sdn Bhd       : SERVICE COMPANY
DATE.  2024-04-22                      : LOG DATE
UWI .  BOKOR-2 ST00                     : UNIQUE WELL ID
API .  97MSAW00002B000                  : API NUMBER
EKB .  45.80                           : ELEVATION KELLY BUSHING (m)
EGL .  46.20                           : ELEVATION GROUND LEVEL (m)
TDD .  2640.00                          : TOTAL DEPTH DRILLED (mMD)
TVD .  2431.00                          : TOTAL VERTICAL DEPTH (mTVDSS)
~Curve Information -----------------------------------------
DEPT   .M     : Measured Depth (mMD)
GR     .GAPI  : Gamma Ray (Total)
GR_NSH .V/V   : GR Normalized Shale
RT     .OHMM  : Deep Resistivity (Array Induction AI45)
RHOB   .G/CC  : Bulk Density
NPHI   .V/V   : Neutron Porosity (limestone eq)
DT     .US/F  : Sonic Transit Time (compressional)
CALI   .IN    : Caliper
DEN    .G/CC  : Bulk Density (alias)
AC     .US/F  : Sonic Transit Time (alias)
PHI_E  .V/V   : Effective Porosity (DN average)
VSHALE .V/V   : Shale Volume (GR linear)
SW     .V/V   : Water Saturation (Archie, Rw=0.025)
VHC    .V/V   : Hydrocarbon Volume (PhiE x (1-SW))
NET    .BIN   : Net Reservoir Flag (VSHALE<0.40)
PAY    .BIN   : Pay Flag (NET=1 AND SW<0.60)
CROSS  .V/V   : Neutron-Density Crossover (RHOB-NPHI)
~Params ----------------------------------------------------
FORM .  BOKOR-2                        : Formation / Well ID
RFT  .  1380.0  1420.0  1600.0  1720.0 : RFT sample depths (mMD)
MD_D .  1250.0                         : Measured depth datum (mMD)
TVDSS.  46.20                          : TVD at datum (mTVDSS)
DATUM.  MSL  Mean Sea Level             : Depth datum reference
# Formation Tops (EXPLORATORY_VISUALIZATION — not RFT-confirmed)
# BOKOR-2 is 1.2km NE of BOKOR-1 — slight structural updip
FM_TOP .  1360.0  : Top FMM Formation (Shale) — 45m deeper than BOKOR-1
SS1_TOP.  1520.0  : Top Shallow Sand 1 — downdip vs BOKOR-1
SS1_BOT.  1600.0  : Bottom Shallow Sand 1
SS2_TOP.  1650.0  : Top Deep Sand 2  <-- main gas reservoir (30m deeper than BOKOR-1)
SS2_BOT.  1810.0  : Bottom Deep Sand 2
SS3_TOP.  1920.0  : Top Deep Sand 3
SS3_BOT.  2080.0  : Bottom Deep Sand 3
BASE  .  2130.0  : Base of reservoir section
# Petrophysics cutoffs
RW     .  0.025  : Formation water resistivity (ohm.m)
PHIT  .  0.30   : Total porosity cutoff
VSH_cut .  0.40 : Shale volume cutoff for net pay
SW_cut  .  0.60 : Sw cutoff for pay
CLAIM  .  EXPLORATORY_VISUALIZATION    : Default claim state
~Other -----------------------------------------------------
BOKOR-2 is the second well in the BOKOR field appraisal program.
Drilled April 2024 by PAPC, 1.2km NE of BOKOR-1 on the same structural
closure. Objectives: (1) confirm lateral continuity of SS2 and SS3 fans,
(2) RFT sampling in SS2 gas column. Result: Gas confirmed in SS2 and SS3.
Shows higher porosity in SS2 vs BOKOR-1 due to cleaner sand facies.
Depths are measured from GL (46.2m above MSL). All in mMD.
~ASCII -----------------------------------------------------
# ...
  2410.67840    112.52  1.0000      2.47   2.4400  0.4911   119.67    8.49   2.4400   119.67  0.1738  1.0000  0.3475  0.0000   0.0   0.0  1.9489
  2410.83080    112.53  1.0000      2.47   2.4400  0.4911   119.67    8.49   2.4400   119.67  0.1737  1.0000  0.3475  0.0000   0.0   0.0  1.9489
  2410.98320    112.54  1.0000      2.47   2.4400  0.4911   119.67    8.49   2.4400   119.67  0.1737  1.0000  0.3475  0.0000   0.0   0.0  1.9489
  2411.13560    112.54  1.0000      2.47   2.4400  0.4911   119.66    8.49   2.4400   119.66  0.1737  1.0000  0.3475  0.0000   0.0   0.0  1.9489
  2411.28800    112.55  1.0000      2.47   2.4400  0.4911   119.66    8.49   2.4400   119.66  0.1737  1.0000  0.3475  0.0000   0.0   0.0  1.9489
  2411.44040    112.55  1.0000      2.47   2.4400  0.4911   119.66    8.49   2.4400   119.66  0.1737  1.0000  0.3474  0.0000   0.0   0.0  1.9489
  2411.59280    112.56  1.0000      2.47   2.4400  0.4911   119.66    8.49   2.4400   119.66  0.1737  1.0000  0.3474  0.0000   0.0   0.0  1.9490
  2411.74520    112.57  1.0000      2.47   2.4400  0.4910   119.66    8.49   2.4400   119.66  0.1737  1.0000  0.3474  0.0000   0.0   0.0  1.9490
  2411.89760    112.57  1.0000      2.47   2.4400  0.4910   119.65    8.48   2.4400   119.65  0.1737  1.0000  0.3474  0.0000   0.0   0.0  1.9490
  2412.05000    112.58  1.0000      2.47   2.4400  0.4910   119.65    8.48   2.4400   119.65  0.1737  1.0000  0.3474  0.0000   0.0   0.0  1.9490
  2412.20240    112.58  1.0000      2.47   2.4400  0.4910   119.65    8.48   2.4400   119.65  0.1737  1.0000  0.3474  0.0000   0.0   0.0  1.9490
  2412.35480    112.59  1.0000      2.47   2.4400  0.4910   119.65    8.48   2.4400   119.65  0.1737  1.0000  0.3474  0.0000   0.0   0.0  1.9490
  2412.50720    112.60  1.0000      2.47   2.4400  0.4910   119.65    8.48   2.4400   119.65  0.1737  1.0000  0.3474  0.0000   0.0   0.0  1.9490
  2412.65960    112.60  1.0000      2.47   2.4400  0.4910   119.64    8.48   2.4400   119.64  0.1737  1.0000  0.3474  0.0000   0.0   0.0  1.9491
  2412.81200    112.61  1.0000      2.47   2.4400  0.4909   119.64    8.48   2.4400   119.64  0.1737  1.0000  0.3474  0.0000   0.0   0.0  1.9491
  2412.96440    112.61  1.0000      2.47   2.4400  0.4909   119.64    8.48   2.4400   119.64  0.1737  1.0000  0.3474  0.0000   0.0   0.0  1.9491
  2413.11680    112.62  1.0000      2.47   2.4400  0.4909   119.64    8.48   2.4400   119.64  0.1737  1.0000  0.3473  0.0000   0.0   0.0  1.9491
  2413.26920    112.62  1.0000      2.47   2.4400  0.4909   119.64    8.48   2.4400   119.64  0.1737  1.0000  0.3473  0.0000   0.0   0.0  1.9491
  2413.42160    112.63  1.0000      2.47   2.4400  0.4909   119.63    8.48   2.4400   119.63  0.1737  1.0000  0.3473  0.0000   0.0   0.0  1.9491
  2413.57400    112.64  1.0000      2.47   2.4400  0.4909   119.63    8.48   2.4400   119.63  0.1737  1.0000  0.3473  0.0000   0.0   0.0  1.9491
  2413.72640    112.64  1.0000      2.47   2.4400  0.4909   119.63    8.48   2.4400   119.63  0.1737  1.0000  0.3473  0.0000   0.0   0.0  1.9492
  2413.87880    112.65  1.0000      2.47   2.4400  0.4909   119.63    8.48   2.4400   119.63  0.1737  1.0000  0.3473  0.0000   0.0   0.0  1.9492
  2414.03120    112.65  1.0000      2.47   2.4400  0.4908   119.63    8.48   2.4400   119.63  0.1737  1.0000  0.3473  0.0000   0.0   0.0  1.9492
  2414.18360    112.66  1.0000      2.47   2.4400  0.4908   119.62    8.47   2.4400   119.62  0.1737  1.0000  0.3473  0.0000   0.0   0.0  1.9492
  2414.33600    112.66  1.0000      2.47   2.4400  0.4908   119.62    8.47   2.4400   119.62  0.1737  1.0000  0.3473  0.0000   0.0   0.0  1.9492
  2414.48840    112.67  1.0000      2.47   2.4400  0.4908   119.62    8.47   2.4400   119.62  0.1737  1.0000  0.3473  0.0000   0.0   0.0  1.9492
  2414.64080    112.67  1.0000      2.47   2.4400  0.4908   119.62    8.47   2.4400   119.62  0.1737  1.0000  0.3473  0.0000   0.0   0.0  1.9492
  2414.79320    112.68  1.0000      2.47   2.4400  0.4908   119.62    8.47   2.4400   119.62  0.1737  1.0000  0.3473  0.0000   0.0   0.0  1.9493
  2414.94560    112.69  1.0000      2.47   2.4400  0.4908   119.62    8.47   2.4400   119.62  0.1737  1.0000  0.3472  0.0000   0.0   0.0  1.9493
  2415.09800    112.69  1.0000      2.47   2.4400  0.4908   119.61    8.47   2.4400   119.61  0.1737  1.0000  0.3472  0.0000   0.0   0.0  1.9493
  2415.25040    112.70  1.0000      2.47   2.4401  0.4907   119.61    8.47   2.4401   119.61  0.1737  1.0000  0.3472  0.0000   0.0   0.0  1.9493
  2415.40280    112.70  1.0000      2.47   2.4401  0.4907   119.61    8.47   2.4401   119.61  0.1737  1.0000  0.3472  0.0000   0.0   0.0  1.9493
  2415.55520    112.71  1.0000      2.47   2.4401  0.4907   119.61    8.47   2.4401   119.61  0.1737  1.0000  0.3472  0.0000   0.0   0.0  1.9493
  2415.70760    112.71  1.0000      2.48   2.4401  0.4907   119.61    8.47   2.4401   119.61  0.1737  1.0000  0.3472  0.0000   0.0   0.0  1.9493
  2415.86000    112.72  1.0000      2.48   2.4401  0.4907   119.61    8.47   2.4401   119.61  0.1737  1.0000  0.3472  0.0000   0.0   0.0  1.9494
  2416.01240    112.72  1.0000      2.48   2.4401  0.4907   119.60    8.47   2.4401   119.60  0.1737  1.0000  0.3472  0.0000   0.0   0.0  1.9494
  2416.16480    112.73  1.0000      2.48   2.4401  0.4907   119.60    8.47   2.4401   119.60  0.1737  1.0000  0.3472  0.0000   0.0   0.0  1.9494
  2416.31720    112.73  1.0000      2.48   2.4401  0.4907   119.60    8.47   2.4401   119.60  0.1737  1.0000  0.3472  0.0000   0.0   0.0  1.9494
  2416.46960    112.74  1.0000      2.48   2.4401  0.4907   119.60    8.46   2.4401   119.60  0.1737  1.0000  0.3472  0.0000   0.0   0.0  1.9494
  2416.62200    112.74  1.0000      2.48   2.4401  0.4906   119.60    8.46   2.4401   119.60  0.1737  1.0000  0.3472  0.0000   0.0   0.0  1.9494
  2416.77440    112.75  1.0000      2.48   2.4401  0.4906   119.60    8.46   2.4401   119.60  0.1737  1.0000  0.3471  0.0000   0.0   0.0  1.9494
  2416.92680    112.76  1.0000      2.48   2.4401  0.4906   119.59    8.46   2.4401   119.59  0.1737  1.0000  0.3471  0.0000   0.0   0.0  1.9495
  2417.07920    112.76  1.0000      2.48   2.4401  0.4906   119.59    8.46   2.4401   119.59  0.1737  1.0000  0.3471  0.0000   0.0   0.0  1.9495
  2417.23160    112.77  1.0000      2.48   2.4401  0.4906   119.59    8.46   2.4401   119.59  0.1737  1.0000  0.3471  0.0000   0.0   0.0  1.9495
  2417.38400    112.77  1.0000      2.48   2.4401  0.4906   119.59    8.46   2.4401   119.59  0.1737  1.0000  0.3471  0.0000   0.0   0.0  1.9495
  2417.53640    112.78  1.0000      2.48   2.4401  0.4906   119.59    8.46   2.4401   119.59  0.1737  1.0000  0.3471  0.0000   0.0   0.0  1.9495
  2417.68880    112.78  1.0000      2.48   2.4401  0.4906   119.59    8.46   2.4401   119.59  0.1737  1.0000  0.3471  0.0000   0.0   0.0  1.9495
  2417.84120    112.79  1.0000      2.48   2.4401  0.4906   119.58    8.46   2.4401   119.58  0.1737  1.0000  0.3471  0.0000   0.0   0.0  1.9495
  2417.99360    112.79  1.0000      2.48   2.4401  0.4906   119.58    8.46   2.4401   119.58  0.1736  1.0000  0.3471  0.0000   0.0   0.0  1.9495
  2418.14600    112.80  1.0000      2.48   2.4401  0.4905   119.58    8.46   2.4401   119.58  0.1736  1.0000  0.3471  0.0000   0.0   0.0  1.9496
  2418.29840    112.80  1.0000      2.48   2.4401  0.4905   119.58    8.46   2.4401   119.58  0.1736  1.0000  0.3471  0.0000   0.0   0.0  1.9496
  2418.45080    112.81  1.0000      2.48   2.4401  0.4905   119.58    8.46   2.4401   119.58  0.1736  1.0000  0.3471  0.0000   0.0   0.0  1.9496
  2418.60320    112.81  1.0000      2.48   2.4401  0.4905   119.58    8.46   2.4401   119.58  0.1736  1.0000  0.3470  0.0000   0.0   0.0  1.9496
  2418.75560    112.82  1.0000      2.48   2.4401  0.4905   119.58    8.45   2.4401   119.58  0.1736  1.0000  0.3470  0.0000   0.0   0.0  1.9496
  2418.90800    112.82  1.0000      2.48   2.4401  0.4905   119.57    8.45   2.4401   119.57  0.1736  1.0000  0.3470  0.0000   0.0   0.0  1.9496
  2419.06040    112.83  1.0000      2.48   2.4401  0.4905   119.57    8.45   2.4401   119.57  0.1736  1.0000  0.3470  0.0000   0.0   0.0  1.9496
