~Version --------------------------------------------------
VERS.   2.0 : CWLS log ASCII Standard -VERSION 2.0
WRAP.    NO : One line per depth step
DLM . SPACE : Column Data Section Delimiter
~Well ------------------------------------------------------
STRT.M                   1200.00000 : START DEPTH (mMD)
STOP.                    2500.00000 : STOP DEPTH (mMD)
STEP.                       0.15240 : STEP (m)
NULL.                      -999.25 : NULL VALUE
COMP.  Petroleum Asia Pacific (PAPC)     : COMPANY
WELL.  BOKOR-1                          : WELL
FLD .  BOKOR                            : FIELD
LOC .  Offshore Sarawak, Malaysia Block : LOCATION
PROV.  Sarawak                          : PROVINCE
CNTY.  Sarawak                          : COUNTY
STAT.  Malaysia                        : STATE
CTRY.  Malaysia                        : COUNTRY
SRVC.  Geoquest Malaysia Sdn Bhd       : SERVICE COMPANY
DATE.  2024-03-15                      : LOG DATE
UWI .  BOKOR-1 ST00                     : UNIQUE WELL ID
API .  97MSAW00001B000                  : API NUMBER
EKB .  1234.56                          : ELEVATION KELLY BUSHING (m)
EGL .  1235.20                          : ELEVATION GROUND LEVEL (m)
TDD .  2550.00                          : TOTAL DEPTH DRILLED (mMD)
TVD .  2340.15                          : TOTAL VERTICAL DEPTH (mTVDSS)
~Curve Information -----------------------------------------
DEPT   .M     : Measured Depth (mMD)
GR     .GAPI  : Gamma Ray (Total)
GR_NSH .V/V   : GR Normalized Shale
RT     .OHMM  : Deep Resistivity (Array Induction AI45)
RHOB   .G/CC  : Bulk Density
NPHI   .V/V   : Neutron Porosity (limestone eq)
DT     .US/F  : Sonic Transit Time (compressional)
CALI   .IN    : Caliper
DEN    .G/CC  : Bulk Density (alias)
AC     .US/F  : Sonic Transit Time (alias)
PHI_E  .V/V   : Effective Porosity (DN average)
VSHALE .V/V   : Shale Volume (GR linear)
SW     .V/V   : Water Saturation (Archie, Rw=0.025)
VHC    .V/V   : Hydrocarbon Volume (PhiE x (1-SW))
NET    .BIN   : Net Reservoir Flag (VSHALE<0.40)
PAY    .BIN   : Pay Flag (NET=1 AND SW<0.60)
CROSS  .V/V   : Neutron-Density Crossover (RHOB-NPHI)
~Params ----------------------------------------------------
FORM .  BOKOR-1                        : Formation / Well ID
RFT  .  1350.0  1400.0  1550.0         : RFT sample depths (mMD)
MD_D .  1200.0                         : Measured depth datum (mMD)
TVDSS.  1235.2                         : TVD at datum (mTVDSS)
DATUM.  MSL  Mean Sea Level             : Depth datum reference
# Formation Tops (EXPLORATORY_VISUALIZATION — not RFT-confirmed)
FM_TOP .  1315.0  : Top FMM Formation (Shale)
SS1_TOP.  1480.0  : Top Shallow Sand 1
SS1_BOT.  1560.0  : Bottom Shallow Sand 1
SS2_TOP.  1620.0  : Top Deep Sand 2  <-- main gas reservoir
SS2_BOT.  1780.0  : Bottom Deep Sand 2
SS3_TOP.  1890.0  : Top Deep Sand 3
SS3_BOT.  2050.0  : Bottom Deep Sand 3
BASE  .  2100.0  : Base of reservoir section
# Petrophysics cutoffs
RW     .  0.025  : Formation water resistivity (ohm.m)
PHIT  .  0.30   : Total porosity cutoff
VSH_cut .  0.40 : Shale volume cutoff for net pay
SW_cut  .  0.60 : Sw cutoff for pay
CLAIM  .  EXPLORATORY_VISUALIZATION    : Default claim state
~Other -----------------------------------------------------
BOKOR-1 was drilled by PAPC in March 2024 as a wildcat exploration
well to test Miocene turbidite sands in the BOKOR structural closure.
Result: Gas shows in SS2 and SS3. RFT confirmation pending.
Depths are measured from GL (1235.2m above MSL). All in mMD.
~ASCII -----------------------------------------------------
# ...
  1712.06400     25.25  0.0000     77.96   2.3260  0.2031    94.47    8.63   2.3260    94.47  0.3123  0.0000  0.0573  0.2944   1.0   1.0  2.1228
  1712.21640     25.25  0.0000     77.95   2.3260  0.2031    94.46    8.63   2.3260    94.46  0.3123  0.0000  0.0573  0.2944   1.0   1.0  2.1229
  1712.36880     25.25  0.0000     77.95   2.3260  0.2031    94.46    8.63   2.3260    94.46  0.3123  0.0000  0.0573  0.2944   1.0   1.0  2.1229
  1712.52120     25.25  0.0000     77.94   2.3260  0.2030    94.45    8.63   2.3260    94.45  0.3123  0.0000  0.0573  0.2944   1.0   1.0  2.1230
  1712.67360     25.24  0.0000     77.94   2.3260  0.2030    94.45    8.63   2.3260    94.45  0.3123  0.0000  0.0573  0.2944   1.0   1.0  2.1230
  1712.82600     25.24  0.0000     77.93   2.3260  0.2030    94.44    8.63   2.3260    94.44  0.3123  0.0000  0.0574  0.2944   1.0   1.0  2.1231
  1712.97840     25.24  0.0000     77.92   2.3261  0.2029    94.44    8.64   2.3261    94.44  0.3123  0.0000  0.0574  0.2944   1.0   1.0  2.1231
  1713.13080     25.24  0.0000     77.92   2.3261  0.2029    94.44    8.64   2.3261    94.44  0.3123  0.0000  0.0574  0.2944   1.0   1.0  2.1232
  1713.28320     25.23  0.0000     77.91   2.3261  0.2029    94.43    8.64   2.3261    94.43  0.3123  0.0000  0.0574  0.2944   1.0   1.0  2.1232
  1713.43560     25.23  0.0000     77.90   2.3261  0.2028    94.43    8.64   2.3261    94.43  0.3123  0.0000  0.0574  0.2944   1.0   1.0  2.1233
  1713.58800     25.23  0.0000     77.90   2.3261  0.2028    94.42    8.64   2.3261    94.42  0.3123  0.0000  0.0574  0.2944   1.0   1.0  2.1233
  1713.74040     25.23  0.0000     77.89   2.3262  0.2028    94.42    8.64   2.3262    94.42  0.3123  0.0000  0.0574  0.2944   1.0   1.0  2.1234
  1713.89280     25.22  0.0000     77.88   2.3262  0.2028    94.41    8.64   2.3262    94.41  0.3123  0.0000  0.0574  0.2944   1.0   1.0  2.1234
  1714.04520     25.22  0.0000     77.87   2.3262  0.2027    94.41    8.64   2.3262    94.41  0.3123  0.0000  0.0574  0.2944   1.0   1.0  2.1235
  1714.19760     25.22  0.0000     77.87   2.3262  0.2027    94.41    8.64   2.3262    94.41  0.3123  0.0000  0.0574  0.2944   1.0   1.0  2.1235
  1714.35000     25.21  0.0000     77.86   2.3262  0.2027    94.40    8.64   2.3262    94.40  0.3123  0.0000  0.0574  0.2944   1.0   1.0  2.1236
  1714.50240     25.21  0.0000     77.85   2.3263  0.2026    94.40    8.64   2.3263    94.40  0.3123  0.0000  0.0574  0.2944   1.0   1.0  2.1236
  1714.65480     25.21  0.0000     77.84   2.3263  0.2026    94.39    8.64   2.3263    94.39  0.3123  0.0000  0.0574  0.2944   1.0   1.0  2.1237
  1714.80720     25.20  0.0000     77.83   2.3263  0.2026    94.39    8.64   2.3263    94.39  0.3123  0.0000  0.0574  0.2944   1.0   1.0  2.1237
  1714.95960     25.20  0.0000     77.82   2.3263  0.2026    94.38    8.64   2.3263    94.38  0.3123  0.0000  0.0574  0.2944   1.0   1.0  2.1238
  1715.11200     25.20  0.0000     77.81   2.3263  0.2025    94.38    8.64   2.3263    94.38  0.3123  0.0000  0.0574  0.2943   1.0   1.0  2.1238
  1715.26440     25.20  0.0000     77.80   2.3264  0.2025    94.37    8.64   2.3264    94.37  0.3123  0.0000  0.0574  0.2943   1.0   1.0  2.1239
  1715.41680     25.19  0.0000     77.79   2.3264  0.2025    94.37    8.64   2.3264    94.37  0.3123  0.0000  0.0574  0.2943   1.0   1.0  2.1239
  1715.56920     25.19  0.0000     77.78   2.3264  0.2024    94.37    8.64   2.3264    94.37  0.3123  0.0000  0.0574  0.2943   1.0   1.0  2.1240
  1715.72160     25.19  0.0000     77.77   2.3264  0.2024    94.36    8.64   2.3264    94.36  0.3123  0.0000  0.0574  0.2943   1.0   1.0  2.1240
  1715.87400     25.18  0.0000     77.76   2.3264  0.2024    94.36    8.64   2.3264    94.36  0.3123  0.0000  0.0574  0.2943   1.0   1.0  2.1240
  1716.02640     25.18  0.0000     77.75   2.3264  0.2023    94.35    8.64   2.3264    94.35  0.3123  0.0000  0.0574  0.2943   1.0   1.0  2.1241
  1716.17880     25.17  0.0000     77.74   2.3265  0.2023    94.35    8.64   2.3265    94.35  0.3123  0.0000  0.0574  0.2943   1.0   1.0  2.1241
  1716.33120     25.17  0.0000     77.73   2.3265  0.2023    94.34    8.64   2.3265    94.34  0.3123  0.0000  0.0574  0.2943   1.0   1.0  2.1242
  1716.48360     25.17  0.0000     77.72   2.3265  0.2023    94.34    8.64   2.3265    94.34  0.3123  0.0000  0.0574  0.2943   1.0   1.0  2.1242
  1716.63600     25.16  0.0000     77.70   2.3265  0.2022    94.33    8.64   2.3265    94.33  0.3123  0.0000  0.0574  0.2943   1.0   1.0  2.1243
  1716.78840     25.16  0.0000     77.69   2.3265  0.2022    94.33    8.64   2.3265    94.33  0.3122  0.0000  0.0574  0.2943   1.0   1.0  2.1243
  1716.94080     25.16  0.0000     77.68   2.3266  0.2022    94.33    8.64   2.3266    94.33  0.3122  0.0000  0.0575  0.2943   1.0   1.0  2.1244
  1717.09320     25.15  0.0000     77.67   2.3266  0.2021    94.32    8.64   2.3266    94.32  0.3122  0.0000  0.0575  0.2943   1.0   1.0  2.1244
  1717.24560     25.15  0.0000     77.65   2.3266  0.2021    94.32    8.64   2.3266    94.32  0.3122  0.0000  0.0575  0.2943   1.0   1.0  2.1245
  1717.39800     25.15  0.0000     77.64   2.3266  0.2021    94.31    8.64   2.3266    94.31  0.3122  0.0000  0.0575  0.2943   1.0   1.0  2.1245
  1717.55040     25.14  0.0000     77.63   2.3266  0.2021    94.31    8.64   2.3266    94.31  0.3122  0.0000  0.0575  0.2943   1.0   1.0  2.1246
  1717.70280     25.14  0.0000     77.61   2.3266  0.2020    94.30    8.64   2.3266    94.30  0.3122  0.0000  0.0575  0.2943   1.0   1.0  2.1246
  1717.85520     25.13  0.0000     77.60   2.3267  0.2020    94.30    8.64   2.3267    94.30  0.3122  0.0000  0.0575  0.2943   1.0   1.0  2.1247
  1718.00760     25.13  0.0000     77.58   2.3267  0.2020    94.29    8.64   2.3267    94.29  0.3122  0.0000  0.0575  0.2943   1.0   1.0  2.1247
  1718.16000     25.13  0.0000     77.57   2.3267  0.2019    94.29    8.64   2.3267    94.29  0.3122  0.0000  0.0575  0.2943   1.0   1.0  2.1248
  1718.31240     25.12  0.0000     77.56   2.3267  0.2019    94.29    8.64   2.3267    94.29  0.3122  0.0000  0.0575  0.2943   1.0   1.0  2.1248
  1718.46480     25.12  0.0000     77.54   2.3267  0.2019    94.28    8.64   2.3267    94.28  0.3122  0.0000  0.0575  0.2943   1.0   1.0  2.1249
  1718.61720     25.11  0.0000     77.52   2.3268  0.2018    94.28    8.64   2.3268    94.28  0.3122  0.0000  0.0575  0.2943   1.0   1.0  2.1249
  1718.76960     25.11  0.0000     77.51   2.3268  0.2018    94.27    8.64   2.3268    94.27  0.3122  0.0000  0.0575  0.2943   1.0   1.0  2.1250
  1718.92200     25.11  0.0000     77.49   2.3268  0.2018    94.27    8.64   2.3268    94.27  0.3122  0.0000  0.0575  0.2943   1.0   1.0  2.1250
  1719.07440     25.10  0.0000     77.48   2.3268  0.2018    94.26    8.64   2.3268    94.26  0.3122  0.0000  0.0575  0.2943   1.0   1.0  2.1251
  1719.22680     25.10  0.0000     77.46   2.3268  0.2017    94.26    8.64   2.3268    94.26  0.3122  0.0000  0.0575  0.2942   1.0   1.0  2.1251
  1719.37920     25.09  0.0000     77.44   2.3268  0.2017    94.25    8.65   2.3268    94.25  0.3122  0.0000  0.0575  0.2942   1.0   1.0  2.1252
  1719.53160     25.09  0.0000     77.43   2.3269  0.2017    94.25    8.65   2.3269    94.25  0.3122  0.0000  0.0576  0.2942   1.0   1.0  2.1252
  1719.68400     25.08  0.0000     77.41   2.3269  0.2016    94.24    8.65   2.3269    94.24  0.3122  0.0000  0.0576  0.2942   1.0   1.0  2.1253
  1719.83640     25.08  0.0000     77.39   2.3269  0.2016    94.24    8.65   2.3269    94.24  0.3122  0.0000  0.0576  0.2942   1.0   1.0  2.1253
  1719.98880     25.07  0.0000     77.38   2.3269  0.2016    94.24    8.65   2.3269    94.24  0.3122  0.0000  0.0576  0.2942   1.0   1.0  2.1253
  1720.14120     25.07  0.0000     77.36   2.3269  0.2015    94.23    8.65   2.3269    94.23  0.3122  0.0000  0.0576  0.2942   1.0   1.0  2.1254
  1720.29360     25.07  0.0000     77.34   2.3270  0.2015    94.23    8.65   2.3270    94.23  0.3122  0.0000  0.0576  0.2942   1.0   1.0  2.1254
  1720.44600     25.06  0.0000     77.32   2.3270  0.2015    94.22    8.65   2.3270    94.22  0.3122  0.0000  0.0576  0.2942   1.0   1.0  2.1255
