~Version --------------------------------------------------
VERS.   2.0 : CWLS log ASCII Standard -VERSION 2.0
WRAP.    NO : One line per depth step
DLM . SPACE : Column Data Section Delimiter
~Well ------------------------------------------------------
STRT.M                   1250.00000 : START DEPTH (mMD)
STOP.                    2600.00000 : STOP DEPTH (mMD)
STEP.                       0.15240 : STEP (m)
NULL.                      -999.25 : NULL VALUE
COMP.  Petroleum Asia Pacific (PAPC)     : COMPANY
WELL.  BOKOR-2                          : WELL
FLD .  BOKOR                            : FIELD
LOC .  Offshore Sarawak, Malaysia Block : LOCATION
PROV.  Sarawak                          : PROVINCE
CNTY.  Sarawak                          : COUNTY
STAT.  Malaysia                        : STATE
CTRY.  Malaysia                        : COUNTRY
SRVC.  Geoquest Malaysia Sdn Bhd       : SERVICE COMPANY
DATE.  2024-04-22                      : LOG DATE
UWI .  BOKOR-2 ST00                     : UNIQUE WELL ID
API .  97MSAW00002B000                  : API NUMBER
EKB .  45.80                           : ELEVATION KELLY BUSHING (m)
EGL .  46.20                           : ELEVATION GROUND LEVEL (m)
TDD .  2640.00                          : TOTAL DEPTH DRILLED (mMD)
TVD .  2431.00                          : TOTAL VERTICAL DEPTH (mTVDSS)
~Curve Information -----------------------------------------
DEPT   .M     : Measured Depth (mMD)
GR     .GAPI  : Gamma Ray (Total)
GR_NSH .V/V   : GR Normalized Shale
RT     .OHMM  : Deep Resistivity (Array Induction AI45)
RHOB   .G/CC  : Bulk Density
NPHI   .V/V   : Neutron Porosity (limestone eq)
DT     .US/F  : Sonic Transit Time (compressional)
CALI   .IN    : Caliper
DEN    .G/CC  : Bulk Density (alias)
AC     .US/F  : Sonic Transit Time (alias)
PHI_E  .V/V   : Effective Porosity (DN average)
VSHALE .V/V   : Shale Volume (GR linear)
SW     .V/V   : Water Saturation (Archie, Rw=0.025)
VHC    .V/V   : Hydrocarbon Volume (PhiE x (1-SW))
NET    .BIN   : Net Reservoir Flag (VSHALE<0.40)
PAY    .BIN   : Pay Flag (NET=1 AND SW<0.60)
CROSS  .V/V   : Neutron-Density Crossover (RHOB-NPHI)
~Params ----------------------------------------------------
FORM .  BOKOR-2                        : Formation / Well ID
RFT  .  1380.0  1420.0  1600.0  1720.0 : RFT sample depths (mMD)
MD_D .  1250.0                         : Measured depth datum (mMD)
TVDSS.  46.20                          : TVD at datum (mTVDSS)
DATUM.  MSL  Mean Sea Level             : Depth datum reference
# Formation Tops (EXPLORATORY_VISUALIZATION — not RFT-confirmed)
# BOKOR-2 is 1.2km NE of BOKOR-1 — slight structural updip
FM_TOP .  1360.0  : Top FMM Formation (Shale) — 45m deeper than BOKOR-1
SS1_TOP.  1520.0  : Top Shallow Sand 1 — downdip vs BOKOR-1
SS1_BOT.  1600.0  : Bottom Shallow Sand 1
SS2_TOP.  1650.0  : Top Deep Sand 2  <-- main gas reservoir (30m deeper than BOKOR-1)
SS2_BOT.  1810.0  : Bottom Deep Sand 2
SS3_TOP.  1920.0  : Top Deep Sand 3
SS3_BOT.  2080.0  : Bottom Deep Sand 3
BASE  .  2130.0  : Base of reservoir section
# Petrophysics cutoffs
RW     .  0.025  : Formation water resistivity (ohm.m)
PHIT  .  0.30   : Total porosity cutoff
VSH_cut .  0.40 : Shale volume cutoff for net pay
SW_cut  .  0.60 : Sw cutoff for pay
CLAIM  .  EXPLORATORY_VISUALIZATION    : Default claim state
~Other -----------------------------------------------------
BOKOR-2 is the second well in the BOKOR field appraisal program.
Drilled April 2024 by PAPC, 1.2km NE of BOKOR-1 on the same structural
closure. Objectives: (1) confirm lateral continuity of SS2 and SS3 fans,
(2) RFT sampling in SS2 gas column. Result: Gas confirmed in SS2 and SS3.
Shows higher porosity in SS2 vs BOKOR-1 due to cleaner sand facies.
Depths are measured from GL (46.2m above MSL). All in mMD.
~ASCII -----------------------------------------------------
# ...
  2146.11200    107.71  1.0000      2.01   2.4570  0.4913   119.69    8.65   2.4570   119.69  0.1775  1.0000  0.3773  0.0000   0.0   0.0  1.9657
  2146.26440    107.72  1.0000      2.01   2.4570  0.4913   119.69    8.65   2.4570   119.69  0.1775  1.0000  0.3772  0.0000   0.0   0.0  1.9657
  2146.41680    107.73  1.0000      2.01   2.4570  0.4913   119.70    8.65   2.4570   119.70  0.1775  1.0000  0.3772  0.0000   0.0   0.0  1.9657
  2146.56920    107.75  1.0000      2.01   2.4571  0.4913   119.70    8.65   2.4571   119.70  0.1774  1.0000  0.3772  0.0000   0.0   0.0  1.9657
  2146.72160    107.76  1.0000      2.01   2.4571  0.4913   119.70    8.65   2.4571   119.70  0.1774  1.0000  0.3772  0.0000   0.0   0.0  1.9657
  2146.87400    107.77  1.0000      2.01   2.4571  0.4914   119.70    8.65   2.4571   119.70  0.1774  1.0000  0.3771  0.0000   0.0   0.0  1.9657
  2147.02640    107.79  1.0000      2.01   2.4571  0.4914   119.71    8.65   2.4571   119.71  0.1774  1.0000  0.3771  0.0000   0.0   0.0  1.9657
  2147.17880    107.80  1.0000      2.01   2.4571  0.4914   119.71    8.65   2.4571   119.71  0.1774  1.0000  0.3771  0.0000   0.0   0.0  1.9657
  2147.33120    107.81  1.0000      2.01   2.4571  0.4914   119.71    8.65   2.4571   119.71  0.1774  1.0000  0.3771  0.0000   0.0   0.0  1.9657
  2147.48360    107.83  1.0000      2.01   2.4571  0.4914   119.71    8.65   2.4571   119.71  0.1774  1.0000  0.3770  0.0000   0.0   0.0  1.9657
  2147.63600    107.84  1.0000      2.01   2.4572  0.4914   119.71    8.65   2.4572   119.71  0.1774  1.0000  0.3770  0.0000   0.0   0.0  1.9657
  2147.78840    107.85  1.0000      2.01   2.4572  0.4914   119.72    8.65   2.4572   119.72  0.1774  1.0000  0.3770  0.0000   0.0   0.0  1.9657
  2147.94080    107.86  1.0000      2.01   2.4572  0.4915   119.72    8.65   2.4572   119.72  0.1774  1.0000  0.3770  0.0000   0.0   0.0  1.9657
  2148.09320    107.88  1.0000      2.01   2.4572  0.4915   119.72    8.65   2.4572   119.72  0.1774  1.0000  0.3769  0.0000   0.0   0.0  1.9657
  2148.24560    107.89  1.0000      2.01   2.4572  0.4915   119.72    8.65   2.4572   119.72  0.1774  1.0000  0.3769  0.0000   0.0   0.0  1.9657
  2148.39800    107.90  1.0000      2.01   2.4572  0.4915   119.73    8.65   2.4572   119.73  0.1774  1.0000  0.3769  0.0000   0.0   0.0  1.9657
  2148.55040    107.91  1.0000      2.01   2.4573  0.4915   119.73    8.65   2.4573   119.73  0.1774  1.0000  0.3769  0.0000   0.0   0.0  1.9657
  2148.70280    107.93  1.0000      2.01   2.4573  0.4915   119.73    8.65   2.4573   119.73  0.1774  1.0000  0.3768  0.0000   0.0   0.0  1.9657
  2148.85520    107.94  1.0000      2.01   2.4573  0.4916   119.73    8.65   2.4573   119.73  0.1774  1.0000  0.3768  0.0000   0.0   0.0  1.9657
  2149.00760    107.95  1.0000      2.01   2.4573  0.4916   119.74    8.65   2.4573   119.74  0.1774  1.0000  0.3768  0.0000   0.0   0.0  1.9657
  2149.16000    107.97  1.0000      2.01   2.4573  0.4916   119.74    8.65   2.4573   119.74  0.1774  1.0000  0.3768  0.0000   0.0   0.0  1.9657
  2149.31240    107.98  1.0000      2.01   2.4573  0.4916   119.74    8.65   2.4573   119.74  0.1774  1.0000  0.3767  0.0000   0.0   0.0  1.9657
  2149.46480    107.99  1.0000      2.02   2.4574  0.4916   119.74    8.65   2.4574   119.74  0.1774  1.0000  0.3767  0.0000   0.0   0.0  1.9657
  2149.61720    108.00  1.0000      2.02   2.4574  0.4916   119.75    8.65   2.4574   119.75  0.1774  1.0000  0.3767  0.0000   0.0   0.0  1.9657
  2149.76960    108.02  1.0000      2.02   2.4574  0.4917   119.75    8.65   2.4574   119.75  0.1774  1.0000  0.3767  0.0000   0.0   0.0  1.9657
  2149.92200    108.03  1.0000      2.02   2.4574  0.4917   119.75    8.65   2.4574   119.75  0.1774  1.0000  0.3766  0.0000   0.0   0.0  1.9657
  2150.07440    108.04  1.0000      2.02   2.4574  0.4917   119.75    8.65   2.4574   119.75  0.1774  1.0000  0.3766  0.0000   0.0   0.0  1.9657
  2150.22680    108.05  1.0000      2.02   2.4574  0.4917   119.76    8.65   2.4574   119.76  0.1774  1.0000  0.3766  0.0000   0.0   0.0  1.9657
  2150.37920    108.07  1.0000      2.02   2.4574  0.4917   119.76    8.65   2.4574   119.76  0.1774  1.0000  0.3766  0.0000   0.0   0.0  1.9657
  2150.53160    108.08  1.0000      2.02   2.4575  0.4917   119.76    8.65   2.4575   119.76  0.1774  1.0000  0.3765  0.0000   0.0   0.0  1.9657
  2150.68400    108.09  1.0000      2.02   2.4575  0.4918   119.76    8.65   2.4575   119.76  0.1774  1.0000  0.3765  0.0000   0.0   0.0  1.9657
  2150.83640    108.10  1.0000      2.02   2.4575  0.4918   119.77    8.65   2.4575   119.77  0.1774  1.0000  0.3765  0.0000   0.0   0.0  1.9657
  2150.98880    108.11  1.0000      2.02   2.4575  0.4918   119.77    8.65   2.4575   119.77  0.1774  1.0000  0.3765  0.0000   0.0   0.0  1.9657
  2151.14120    108.13  1.0000      2.02   2.4575  0.4918   119.77    8.65   2.4575   119.77  0.1774  1.0000  0.3764  0.0000   0.0   0.0  1.9657
  2151.29360    108.14  1.0000      2.02   2.4575  0.4918   119.77    8.65   2.4575   119.77  0.1774  1.0000  0.3764  0.0000   0.0   0.0  1.9657
  2151.44600    108.15  1.0000      2.02   2.4576  0.4918   119.78    8.65   2.4576   119.78  0.1774  1.0000  0.3764  0.0000   0.0   0.0  1.9657
  2151.59840    108.16  1.0000      2.02   2.4576  0.4919   119.78    8.65   2.4576   119.78  0.1774  1.0000  0.3764  0.0000   0.0   0.0  1.9657
  2151.75080    108.17  1.0000      2.02   2.4576  0.4919   119.78    8.65   2.4576   119.78  0.1774  1.0000  0.3763  0.0000   0.0   0.0  1.9657
  2151.90320    108.19  1.0000      2.02   2.4576  0.4919   119.78    8.65   2.4576   119.78  0.1774  1.0000  0.3763  0.0000   0.0   0.0  1.9657
  2152.05560    108.20  1.0000      2.02   2.4576  0.4919   119.79    8.65   2.4576   119.79  0.1774  1.0000  0.3763  0.0000   0.0   0.0  1.9657
  2152.20800    108.21  1.0000      2.02   2.4576  0.4919   119.79    8.65   2.4576   119.79  0.1774  1.0000  0.3763  0.0000   0.0   0.0  1.9657
  2152.36040    108.22  1.0000      2.02   2.4576  0.4920   119.79    8.65   2.4576   119.79  0.1774  1.0000  0.3762  0.0000   0.0   0.0  1.9657
  2152.51280    108.23  1.0000      2.02   2.4577  0.4920   119.80    8.65   2.4577   119.80  0.1774  1.0000  0.3762  0.0000   0.0   0.0  1.9657
  2152.66520    108.25  1.0000      2.02   2.4577  0.4920   119.80    8.65   2.4577   119.80  0.1774  1.0000  0.3762  0.0000   0.0   0.0  1.9657
  2152.81760    108.26  1.0000      2.02   2.4577  0.4920   119.80    8.65   2.4577   119.80  0.1774  1.0000  0.3762  0.0000   0.0   0.0  1.9657
  2152.97000    108.27  1.0000      2.02   2.4577  0.4920   119.80    8.65   2.4577   119.80  0.1774  1.0000  0.3761  0.0000   0.0   0.0  1.9657
  2153.12240    108.28  1.0000      2.02   2.4577  0.4920   119.81    8.65   2.4577   119.81  0.1774  1.0000  0.3761  0.0000   0.0   0.0  1.9657
  2153.27480    108.29  1.0000      2.02   2.4577  0.4921   119.81    8.65   2.4577   119.81  0.1774  1.0000  0.3761  0.0000   0.0   0.0  1.9657
  2153.42720    108.31  1.0000      2.02   2.4577  0.4921   119.81    8.65   2.4577   119.81  0.1774  1.0000  0.3761  0.0000   0.0   0.0  1.9657
  2153.57960    108.32  1.0000      2.02   2.4578  0.4921   119.82    8.65   2.4578   119.82  0.1773  1.0000  0.3760  0.0000   0.0   0.0  1.9657
  2153.73200    108.33  1.0000      2.02   2.4578  0.4921   119.82    8.65   2.4578   119.82  0.1773  1.0000  0.3760  0.0000   0.0   0.0  1.9657
  2153.88440    108.34  1.0000      2.02   2.4578  0.4921   119.82    8.65   2.4578   119.82  0.1773  1.0000  0.3760  0.0000   0.0   0.0  1.9656
  2154.03680    108.35  1.0000      2.02   2.4578  0.4922   119.82    8.65   2.4578   119.82  0.1773  1.0000  0.3760  0.0000   0.0   0.0  1.9656
  2154.18920    108.36  1.0000      2.02   2.4578  0.4922   119.83    8.65   2.4578   119.83  0.1773  1.0000  0.3759  0.0000   0.0   0.0  1.9656
  2154.34160    108.37  1.0000      2.03   2.4578  0.4922   119.83    8.65   2.4578   119.83  0.1773  1.0000  0.3759  0.0000   0.0   0.0  1.9656
  2154.49400    108.39  1.0000      2.03   2.4578  0.4922   119.83    8.65   2.4578   119.83  0.1773  1.0000  0.3759  0.0000   0.0   0.0  1.9656
