~Version --------------------------------------------------
VERS.   2.0 : CWLS log ASCII Standard -VERSION 2.0
WRAP.    NO : One line per depth step
DLM . SPACE : Column Data Section Delimiter
~Well ------------------------------------------------------
STRT.M                   1200.00000 : START DEPTH (mMD)
STOP.                    2500.00000 : STOP DEPTH (mMD)
STEP.                       0.15240 : STEP (m)
NULL.                      -999.25 : NULL VALUE
COMP.  Petroleum Asia Pacific (PAPC)     : COMPANY
WELL.  BOKOR-1                          : WELL
FLD .  BOKOR                            : FIELD
LOC .  Offshore Sarawak, Malaysia Block : LOCATION
PROV.  Sarawak                          : PROVINCE
CNTY.  Sarawak                          : COUNTY
STAT.  Malaysia                        : STATE
CTRY.  Malaysia                        : COUNTRY
SRVC.  Geoquest Malaysia Sdn Bhd       : SERVICE COMPANY
DATE.  2024-03-15                      : LOG DATE
UWI .  BOKOR-1 ST00                     : UNIQUE WELL ID
API .  97MSAW00001B000                  : API NUMBER
EKB .  1234.56                          : ELEVATION KELLY BUSHING (m)
EGL .  1235.20                          : ELEVATION GROUND LEVEL (m)
TDD .  2550.00                          : TOTAL DEPTH DRILLED (mMD)
TVD .  2340.15                          : TOTAL VERTICAL DEPTH (mTVDSS)
~Curve Information -----------------------------------------
DEPT   .M     : Measured Depth (mMD)
GR     .GAPI  : Gamma Ray (Total)
GR_NSH .V/V   : GR Normalized Shale
RT     .OHMM  : Deep Resistivity (Array Induction AI45)
RHOB   .G/CC  : Bulk Density
NPHI   .V/V   : Neutron Porosity (limestone eq)
DT     .US/F  : Sonic Transit Time (compressional)
CALI   .IN    : Caliper
DEN    .G/CC  : Bulk Density (alias)
AC     .US/F  : Sonic Transit Time (alias)
PHI_E  .V/V   : Effective Porosity (DN average)
VSHALE .V/V   : Shale Volume (GR linear)
SW     .V/V   : Water Saturation (Archie, Rw=0.025)
VHC    .V/V   : Hydrocarbon Volume (PhiE x (1-SW))
NET    .BIN   : Net Reservoir Flag (VSHALE<0.40)
PAY    .BIN   : Pay Flag (NET=1 AND SW<0.60)
CROSS  .V/V   : Neutron-Density Crossover (RHOB-NPHI)
~Params ----------------------------------------------------
FORM .  BOKOR-1                        : Formation / Well ID
RFT  .  1350.0  1400.0  1550.0         : RFT sample depths (mMD)
MD_D .  1200.0                         : Measured depth datum (mMD)
TVDSS.  1235.2                         : TVD at datum (mTVDSS)
DATUM.  MSL  Mean Sea Level             : Depth datum reference
# Formation Tops (EXPLORATORY_VISUALIZATION — not RFT-confirmed)
FM_TOP .  1315.0  : Top FMM Formation (Shale)
SS1_TOP.  1480.0  : Top Shallow Sand 1
SS1_BOT.  1560.0  : Bottom Shallow Sand 1
SS2_TOP.  1620.0  : Top Deep Sand 2  <-- main gas reservoir
SS2_BOT.  1780.0  : Bottom Deep Sand 2
SS3_TOP.  1890.0  : Top Deep Sand 3
SS3_BOT.  2050.0  : Bottom Deep Sand 3
BASE  .  2100.0  : Base of reservoir section
# Petrophysics cutoffs
RW     .  0.025  : Formation water resistivity (ohm.m)
PHIT  .  0.30   : Total porosity cutoff
VSH_cut .  0.40 : Shale volume cutoff for net pay
SW_cut  .  0.60 : Sw cutoff for pay
CLAIM  .  EXPLORATORY_VISUALIZATION    : Default claim state
~Other -----------------------------------------------------
BOKOR-1 was drilled by PAPC in March 2024 as a wildcat exploration
well to test Miocene turbidite sands in the BOKOR structural closure.
Result: Gas shows in SS2 and SS3. RFT confirmation pending.
Depths are measured from GL (1235.2m above MSL). All in mMD.
~ASCII -----------------------------------------------------
  1200.00000    106.81  1.0000      1.45   2.4425  0.4909   121.64    8.35   2.4425   121.64  0.1700  1.0000  0.4641  0.0000   0.0   0.0  1.9515
  1200.15240    106.82  1.0000      1.45   2.4425  0.4910   121.64    8.35   2.4425   121.64  0.1700  1.0000  0.4641  0.0000   0.0   0.0  1.9515
  1200.30480    106.83  1.0000      1.45   2.4425  0.4910   121.65    8.35   2.4425   121.65  0.1700  1.0000  0.4642  0.0000   0.0   0.0  1.9516
  1200.45720    106.84  1.0000      1.44   2.4425  0.4910   121.65    8.35   2.4425   121.65  0.1700  1.0000  0.4643  0.0000   0.0   0.0  1.9516
  1200.60960    106.85  1.0000      1.44   2.4426  0.4910   121.65    8.35   2.4426   121.65  0.1700  1.0000  0.4643  0.0000   0.0   0.0  1.9516
  1200.76200    106.86  1.0000      1.44   2.4426  0.4910   121.65    8.35   2.4426   121.65  0.1700  1.0000  0.4644  0.0000   0.0   0.0  1.9516
  1200.91440    106.87  1.0000      1.44   2.4426  0.4910   121.65    8.35   2.4426   121.65  0.1700  1.0000  0.4644  0.0000   0.0   0.0  1.9516
  1201.06680    106.88  1.0000      1.44   2.4426  0.4910   121.66    8.35   2.4426   121.66  0.1700  1.0000  0.4645  0.0000   0.0   0.0  1.9516
  1201.21920    106.89  1.0000      1.44   2.4426  0.4911   121.66    8.35   2.4426   121.66  0.1700  1.0000  0.4645  0.0000   0.0   0.0  1.9516
  1201.37160    106.90  1.0000      1.44   2.4426  0.4911   121.66    8.35   2.4426   121.66  0.1700  1.0000  0.4646  0.0000   0.0   0.0  1.9516
  1201.52400    106.91  1.0000      1.44   2.4426  0.4911   121.66    8.35   2.4426   121.66  0.1700  1.0000  0.4647  0.0000   0.0   0.0  1.9516
  1201.67640    106.92  1.0000      1.44   2.4427  0.4911   121.66    8.35   2.4427   121.66  0.1700  1.0000  0.4647  0.0000   0.0   0.0  1.9516
  1201.82880    106.94  1.0000      1.44   2.4427  0.4911   121.67    8.35   2.4427   121.67  0.1700  1.0000  0.4648  0.0000   0.0   0.0  1.9516
  1201.98120    106.95  1.0000      1.44   2.4427  0.4911   121.67    8.35   2.4427   121.67  0.1700  1.0000  0.4648  0.0000   0.0   0.0  1.9516
  1202.13360    106.96  1.0000      1.44   2.4427  0.4911   121.67    8.35   2.4427   121.67  0.1700  1.0000  0.4649  0.0000   0.0   0.0  1.9516
  1202.28600    106.97  1.0000      1.44   2.4427  0.4911   121.67    8.35   2.4427   121.67  0.1700  1.0000  0.4650  0.0000   0.0   0.0  1.9516
  1202.43840    106.98  1.0000      1.44   2.4427  0.4912   121.67    8.35   2.4427   121.67  0.1700  1.0000  0.4650  0.0000   0.0   0.0  1.9516
  1202.59080    106.99  1.0000      1.44   2.4428  0.4912   121.68    8.35   2.4428   121.68  0.1700  1.0000  0.4651  0.0000   0.0   0.0  1.9516
  1202.74320    107.00  1.0000      1.44   2.4428  0.4912   121.68    8.35   2.4428   121.68  0.1700  1.0000  0.4651  0.0000   0.0   0.0  1.9516
  1202.89560    107.01  1.0000      1.44   2.4428  0.4912   121.68    8.35   2.4428   121.68  0.1700  1.0000  0.4652  0.0000   0.0   0.0  1.9516
  1203.04800    107.02  1.0000      1.44   2.4428  0.4912   121.68    8.35   2.4428   121.68  0.1700  1.0000  0.4653  0.0000   0.0   0.0  1.9516
  1203.20040    107.03  1.0000      1.44   2.4428  0.4912   121.69    8.35   2.4428   121.69  0.1700  1.0000  0.4653  0.0000   0.0   0.0  1.9516
  1203.35280    107.04  1.0000      1.44   2.4428  0.4912   121.69    8.35   2.4428   121.69  0.1699  1.0000  0.4654  0.0000   0.0   0.0  1.9516
  1203.50520    107.05  1.0000      1.44   2.4428  0.4913   121.69    8.35   2.4428   121.69  0.1699  1.0000  0.4654  0.0000   0.0   0.0  1.9516
  1203.65760    107.07  1.0000      1.44   2.4429  0.4913   121.69    8.35   2.4429   121.69  0.1699  1.0000  0.4655  0.0000   0.0   0.0  1.9516
  1203.81000    107.08  1.0000      1.44   2.4429  0.4913   121.69    8.35   2.4429   121.69  0.1699  1.0000  0.4656  0.0000   0.0   0.0  1.9516
  1203.96240    107.09  1.0000      1.44   2.4429  0.4913   121.70    8.35   2.4429   121.70  0.1699  1.0000  0.4656  0.0000   0.0   0.0  1.9516
  1204.11480    107.10  1.0000      1.44   2.4429  0.4913   121.70    8.35   2.4429   121.70  0.1699  1.0000  0.4657  0.0000   0.0   0.0  1.9516
  1204.26720    107.11  1.0000      1.44   2.4429  0.4913   121.70    8.35   2.4429   121.70  0.1699  1.0000  0.4657  0.0000   0.0   0.0  1.9516
  1204.41960    107.12  1.0000      1.44   2.4429  0.4914   121.70    8.35   2.4429   121.70  0.1699  1.0000  0.4658  0.0000   0.0   0.0  1.9516
  1204.57200    107.13  1.0000      1.44   2.4430  0.4914   121.71    8.35   2.4430   121.71  0.1699  1.0000  0.4658  0.0000   0.0   0.0  1.9516
  1204.72440    107.14  1.0000      1.44   2.4430  0.4914   121.71    8.35   2.4430   121.71  0.1699  1.0000  0.4659  0.0000   0.0   0.0  1.9516
  1204.87680    107.15  1.0000      1.44   2.4430  0.4914   121.71    8.35   2.4430   121.71  0.1699  1.0000  0.4660  0.0000   0.0   0.0  1.9516
  1205.02920    107.16  1.0000      1.44   2.4430  0.4914   121.71    8.35   2.4430   121.71  0.1699  1.0000  0.4660  0.0000   0.0   0.0  1.9516
  1205.18160    107.18  1.0000      1.43   2.4430  0.4914   121.71    8.35   2.4430   121.71  0.1699  1.0000  0.4661  0.0000   0.0   0.0  1.9516
  1205.33400    107.19  1.0000      1.43   2.4430  0.4914   121.72    8.35   2.4430   121.72  0.1699  1.0000  0.4661  0.0000   0.0   0.0  1.9516
  1205.48640    107.20  1.0000      1.43   2.4431  0.4915   121.72    8.35   2.4431   121.72  0.1699  1.0000  0.4662  0.0000   0.0   0.0  1.9516
  1205.63880    107.21  1.0000      1.43   2.4431  0.4915   121.72    8.35   2.4431   121.72  0.1699  1.0000  0.4663  0.0000   0.0   0.0  1.9516
  1205.79120    107.22  1.0000      1.43   2.4431  0.4915   121.72    8.35   2.4431   121.72  0.1699  1.0000  0.4663  0.0000   0.0   0.0  1.9516
  1205.94360    107.23  1.0000      1.43   2.4431  0.4915   121.73    8.35   2.4431   121.73  0.1699  1.0000  0.4664  0.0000   0.0   0.0  1.9516
  1206.09600    107.24  1.0000      1.43   2.4431  0.4915   121.73    8.35   2.4431   121.73  0.1699  1.0000  0.4664  0.0000   0.0   0.0  1.9516
  1206.24840    107.25  1.0000      1.43   2.4431  0.4915   121.73    8.35   2.4431   121.73  0.1699  1.0000  0.4665  0.0000   0.0   0.0  1.9516
  1206.40080    107.27  1.0000      1.43   2.4432  0.4916   121.73    8.35   2.4432   121.73  0.1699  1.0000  0.4666  0.0000   0.0   0.0  1.9516
  1206.55320    107.28  1.0000      1.43   2.4432  0.4916   121.74    8.35   2.4432   121.74  0.1699  1.0000  0.4666  0.0000   0.0   0.0  1.9516
  1206.70560    107.29  1.0000      1.43   2.4432  0.4916   121.74    8.35   2.4432   121.74  0.1699  1.0000  0.4667  0.0000   0.0   0.0  1.9516
  1206.85800    107.30  1.0000      1.43   2.4432  0.4916   121.74    8.35   2.4432   121.74  0.1699  1.0000  0.4667  0.0000   0.0   0.0  1.9516
  1207.01040    107.31  1.0000      1.43   2.4432  0.4916   121.74    8.35   2.4432   121.74  0.1699  1.0000  0.4668  0.0000   0.0   0.0  1.9516
  1207.16280    107.32  1.0000      1.43   2.4432  0.4916   121.75    8.35   2.4432   121.75  0.1699  1.0000  0.4669  0.0000   0.0   0.0  1.9516
  1207.31520    107.33  1.0000      1.43   2.4433  0.4917   121.75    8.35   2.4433   121.75  0.1699  1.0000  0.4669  0.0000   0.0   0.0  1.9516
  1207.46760    107.34  1.0000      1.43   2.4433  0.4917   121.75    8.35   2.4433   121.75  0.1699  1.0000  0.4670  0.0000   0.0   0.0  1.9516
  1207.62000    107.36  1.0000      1.43   2.4433  0.4917   121.75    8.35   2.4433   121.75  0.1699  1.0000  0.4670  0.0000   0.0   0.0  1.9516
  1207.77240    107.37  1.0000      1.43   2.4433  0.4917   121.76    8.35   2.4433   121.76  0.1699  1.0000  0.4671  0.0000   0.0   0.0  1.9516
  1207.92480    107.38  1.0000      1.43   2.4433  0.4917   121.76    8.35   2.4433   121.76  0.1699  1.0000  0.4671  0.0000   0.0   0.0  1.9516
  1208.07720    107.39  1.0000      1.43   2.4433  0.4917   121.76    8.35   2.4433   121.76  0.1699  1.0000  0.4672  0.0000   0.0   0.0  1.9516
  1208.22960    107.40  1.0000      1.43   2.4434  0.4918   121.76    8.35   2.4434   121.76  0.1699  1.0000  0.4673  0.0000   0.0   0.0  1.9516
  1208.38200    107.41  1.0000      1.43   2.4434  0.4918   121.77    8.35   2.4434   121.77  0.1699  1.0000  0.4673  0.0000   0.0   0.0  1.9516
