~Version --------------------------------------------------
VERS.   2.0 : CWLS log ASCII Standard -VERSION 2.0
WRAP.    NO : One line per depth step
DLM . SPACE : Column Data Section Delimiter
~Well ------------------------------------------------------
STRT.M                   1200.00000 : START DEPTH (mMD)
STOP.                    2500.00000 : STOP DEPTH (mMD)
STEP.                       0.15240 : STEP (m)
NULL.                      -999.25 : NULL VALUE
COMP.  Petroleum Asia Pacific (PAPC)     : COMPANY
WELL.  BOKOR-1                          : WELL
FLD .  BOKOR                            : FIELD
LOC .  Offshore Sarawak, Malaysia Block : LOCATION
PROV.  Sarawak                          : PROVINCE
CNTY.  Sarawak                          : COUNTY
STAT.  Malaysia                        : STATE
CTRY.  Malaysia                        : COUNTRY
SRVC.  Geoquest Malaysia Sdn Bhd       : SERVICE COMPANY
DATE.  2024-03-15                      : LOG DATE
UWI .  BOKOR-1 ST00                     : UNIQUE WELL ID
API .  97MSAW00001B000                  : API NUMBER
EKB .  1234.56                          : ELEVATION KELLY BUSHING (m)
EGL .  1235.20                          : ELEVATION GROUND LEVEL (m)
TDD .  2550.00                          : TOTAL DEPTH DRILLED (mMD)
TVD .  2340.15                          : TOTAL VERTICAL DEPTH (mTVDSS)
~Curve Information -----------------------------------------
DEPT   .M     : Measured Depth (mMD)
GR     .GAPI  : Gamma Ray (Total)
GR_NSH .V/V   : GR Normalized Shale
RT     .OHMM  : Deep Resistivity (Array Induction AI45)
RHOB   .G/CC  : Bulk Density
NPHI   .V/V   : Neutron Porosity (limestone eq)
DT     .US/F  : Sonic Transit Time (compressional)
CALI   .IN    : Caliper
DEN    .G/CC  : Bulk Density (alias)
AC     .US/F  : Sonic Transit Time (alias)
PHI_E  .V/V   : Effective Porosity (DN average)
VSHALE .V/V   : Shale Volume (GR linear)
SW     .V/V   : Water Saturation (Archie, Rw=0.025)
VHC    .V/V   : Hydrocarbon Volume (PhiE x (1-SW))
NET    .BIN   : Net Reservoir Flag (VSHALE<0.40)
PAY    .BIN   : Pay Flag (NET=1 AND SW<0.60)
CROSS  .V/V   : Neutron-Density Crossover (RHOB-NPHI)
~Params ----------------------------------------------------
FORM .  BOKOR-1                        : Formation / Well ID
RFT  .  1350.0  1400.0  1550.0         : RFT sample depths (mMD)
MD_D .  1200.0                         : Measured depth datum (mMD)
TVDSS.  1235.2                         : TVD at datum (mTVDSS)
DATUM.  MSL  Mean Sea Level             : Depth datum reference
# Formation Tops (EXPLORATORY_VISUALIZATION — not RFT-confirmed)
FM_TOP .  1315.0  : Top FMM Formation (Shale)
SS1_TOP.  1480.0  : Top Shallow Sand 1
SS1_BOT.  1560.0  : Bottom Shallow Sand 1
SS2_TOP.  1620.0  : Top Deep Sand 2  <-- main gas reservoir
SS2_BOT.  1780.0  : Bottom Deep Sand 2
SS3_TOP.  1890.0  : Top Deep Sand 3
SS3_BOT.  2050.0  : Bottom Deep Sand 3
BASE  .  2100.0  : Base of reservoir section
# Petrophysics cutoffs
RW     .  0.025  : Formation water resistivity (ohm.m)
PHIT  .  0.30   : Total porosity cutoff
VSH_cut .  0.40 : Shale volume cutoff for net pay
SW_cut  .  0.60 : Sw cutoff for pay
CLAIM  .  EXPLORATORY_VISUALIZATION    : Default claim state
~Other -----------------------------------------------------
BOKOR-1 was drilled by PAPC in March 2024 as a wildcat exploration
well to test Miocene turbidite sands in the BOKOR structural closure.
Result: Gas shows in SS2 and SS3. RFT confirmation pending.
Depths are measured from GL (1235.2m above MSL). All in mMD.
~ASCII -----------------------------------------------------
# ...
  2147.31840    101.17  1.0000      1.93   2.4571  0.4914   121.71    8.65   2.4571   121.71  0.1558  1.0000  0.4387  0.0000   0.0   0.0  1.9657
  2147.47080    101.18  1.0000      1.93   2.4571  0.4914   121.71    8.65   2.4571   121.71  0.1558  1.0000  0.4387  0.0000   0.0   0.0  1.9657
  2147.62320    101.20  1.0000      1.93   2.4572  0.4914   121.71    8.65   2.4572   121.71  0.1558  1.0000  0.4387  0.0000   0.0   0.0  1.9657
  2147.77560    101.21  1.0000      1.93   2.4572  0.4914   121.72    8.65   2.4572   121.72  0.1558  1.0000  0.4386  0.0000   0.0   0.0  1.9657
  2147.92800    101.23  1.0000      1.93   2.4572  0.4915   121.72    8.65   2.4572   121.72  0.1558  1.0000  0.4386  0.0000   0.0   0.0  1.9657
  2148.08040    101.24  1.0000      1.93   2.4572  0.4915   121.72    8.65   2.4572   121.72  0.1558  1.0000  0.4386  0.0000   0.0   0.0  1.9657
  2148.23280    101.26  1.0000      1.93   2.4572  0.4915   121.72    8.65   2.4572   121.72  0.1558  1.0000  0.4385  0.0000   0.0   0.0  1.9657
  2148.38520    101.27  1.0000      1.93   2.4572  0.4915   121.73    8.65   2.4572   121.73  0.1558  1.0000  0.4385  0.0000   0.0   0.0  1.9657
  2148.53760    101.29  1.0000      1.93   2.4573  0.4915   121.73    8.65   2.4573   121.73  0.1558  1.0000  0.4385  0.0000   0.0   0.0  1.9657
  2148.69000    101.30  1.0000      1.93   2.4573  0.4915   121.73    8.65   2.4573   121.73  0.1558  1.0000  0.4384  0.0000   0.0   0.0  1.9657
  2148.84240    101.32  1.0000      1.93   2.4573  0.4916   121.73    8.65   2.4573   121.73  0.1558  1.0000  0.4384  0.0000   0.0   0.0  1.9657
  2148.99480    101.33  1.0000      1.93   2.4573  0.4916   121.74    8.65   2.4573   121.74  0.1558  1.0000  0.4384  0.0000   0.0   0.0  1.9657
  2149.14720    101.35  1.0000      1.93   2.4573  0.4916   121.74    8.65   2.4573   121.74  0.1558  1.0000  0.4383  0.0000   0.0   0.0  1.9657
  2149.29960    101.36  1.0000      1.93   2.4573  0.4916   121.74    8.65   2.4573   121.74  0.1558  1.0000  0.4383  0.0000   0.0   0.0  1.9657
  2149.45200    101.38  1.0000      1.93   2.4574  0.4916   121.74    8.65   2.4574   121.74  0.1558  1.0000  0.4382  0.0000   0.0   0.0  1.9657
  2149.60440    101.39  1.0000      1.93   2.4574  0.4916   121.75    8.65   2.4574   121.75  0.1558  1.0000  0.4382  0.0000   0.0   0.0  1.9657
  2149.75680    101.41  1.0000      1.93   2.4574  0.4917   121.75    8.65   2.4574   121.75  0.1558  1.0000  0.4382  0.0000   0.0   0.0  1.9657
  2149.90920    101.43  1.0000      1.93   2.4574  0.4917   121.75    8.65   2.4574   121.75  0.1558  1.0000  0.4381  0.0000   0.0   0.0  1.9657
  2150.06160    101.44  1.0000      1.93   2.4574  0.4917   121.75    8.65   2.4574   121.75  0.1557  1.0000  0.4381  0.0000   0.0   0.0  1.9657
  2150.21400    101.46  1.0000      1.93   2.4574  0.4917   121.76    8.65   2.4574   121.76  0.1557  1.0000  0.4381  0.0000   0.0   0.0  1.9657
  2150.36640    101.47  1.0000      1.93   2.4574  0.4917   121.76    8.65   2.4574   121.76  0.1557  1.0000  0.4380  0.0000   0.0   0.0  1.9657
  2150.51880    101.49  1.0000      1.93   2.4575  0.4917   121.76    8.65   2.4575   121.76  0.1557  1.0000  0.4380  0.0000   0.0   0.0  1.9657
  2150.67120    101.50  1.0000      1.93   2.4575  0.4918   121.76    8.65   2.4575   121.76  0.1557  1.0000  0.4380  0.0000   0.0   0.0  1.9657
  2150.82360    101.52  1.0000      1.93   2.4575  0.4918   121.77    8.65   2.4575   121.77  0.1557  1.0000  0.4379  0.0000   0.0   0.0  1.9657
  2150.97600    101.53  1.0000      1.94   2.4575  0.4918   121.77    8.65   2.4575   121.77  0.1557  1.0000  0.4379  0.0000   0.0   0.0  1.9657
  2151.12840    101.55  1.0000      1.94   2.4575  0.4918   121.77    8.65   2.4575   121.77  0.1557  1.0000  0.4379  0.0000   0.0   0.0  1.9657
  2151.28080    101.56  1.0000      1.94   2.4575  0.4918   121.77    8.65   2.4575   121.77  0.1557  1.0000  0.4378  0.0000   0.0   0.0  1.9657
  2151.43320    101.58  1.0000      1.94   2.4575  0.4918   121.78    8.65   2.4575   121.78  0.1557  1.0000  0.4378  0.0000   0.0   0.0  1.9657
  2151.58560    101.60  1.0000      1.94   2.4576  0.4919   121.78    8.65   2.4576   121.78  0.1557  1.0000  0.4378  0.0000   0.0   0.0  1.9657
  2151.73800    101.61  1.0000      1.94   2.4576  0.4919   121.78    8.65   2.4576   121.78  0.1557  1.0000  0.4377  0.0000   0.0   0.0  1.9657
  2151.89040    101.63  1.0000      1.94   2.4576  0.4919   121.78    8.65   2.4576   121.78  0.1557  1.0000  0.4377  0.0000   0.0   0.0  1.9657
  2152.04280    101.64  1.0000      1.94   2.4576  0.4919   121.79    8.65   2.4576   121.79  0.1557  1.0000  0.4377  0.0000   0.0   0.0  1.9657
  2152.19520    101.66  1.0000      1.94   2.4576  0.4919   121.79    8.65   2.4576   121.79  0.1557  1.0000  0.4376  0.0000   0.0   0.0  1.9657
  2152.34760    101.67  1.0000      1.94   2.4576  0.4920   121.79    8.65   2.4576   121.79  0.1557  1.0000  0.4376  0.0000   0.0   0.0  1.9657
  2152.50000    101.69  1.0000      1.94   2.4577  0.4920   121.80    8.65   2.4577   121.80  0.1557  1.0000  0.4376  0.0000   0.0   0.0  1.9657
  2152.65240    101.71  1.0000      1.94   2.4577  0.4920   121.80    8.65   2.4577   121.80  0.1557  1.0000  0.4375  0.0000   0.0   0.0  1.9657
  2152.80480    101.72  1.0000      1.94   2.4577  0.4920   121.80    8.65   2.4577   121.80  0.1557  1.0000  0.4375  0.0000   0.0   0.0  1.9657
  2152.95720    101.74  1.0000      1.94   2.4577  0.4920   121.80    8.65   2.4577   121.80  0.1557  1.0000  0.4375  0.0000   0.0   0.0  1.9657
  2153.10960    101.75  1.0000      1.94   2.4577  0.4920   121.81    8.65   2.4577   121.81  0.1557  1.0000  0.4374  0.0000   0.0   0.0  1.9657
  2153.26200    101.77  1.0000      1.94   2.4577  0.4921   121.81    8.65   2.4577   121.81  0.1557  1.0000  0.4374  0.0000   0.0   0.0  1.9657
  2153.41440    101.79  1.0000      1.94   2.4577  0.4921   121.81    8.65   2.4577   121.81  0.1557  1.0000  0.4374  0.0000   0.0   0.0  1.9657
  2153.56680    101.80  1.0000      1.94   2.4578  0.4921   121.81    8.65   2.4578   121.81  0.1557  1.0000  0.4373  0.0000   0.0   0.0  1.9657
  2153.71920    101.82  1.0000      1.94   2.4578  0.4921   121.82    8.65   2.4578   121.82  0.1557  1.0000  0.4373  0.0000   0.0   0.0  1.9657
  2153.87160    101.83  1.0000      1.94   2.4578  0.4921   121.82    8.65   2.4578   121.82  0.1557  1.0000  0.4373  0.0000   0.0   0.0  1.9656
  2154.02400    101.85  1.0000      1.94   2.4578  0.4922   121.82    8.65   2.4578   121.82  0.1557  1.0000  0.4372  0.0000   0.0   0.0  1.9656
  2154.17640    101.86  1.0000      1.94   2.4578  0.4922   121.83    8.65   2.4578   121.83  0.1557  1.0000  0.4372  0.0000   0.0   0.0  1.9656
  2154.32880    101.88  1.0000      1.94   2.4578  0.4922   121.83    8.65   2.4578   121.83  0.1557  1.0000  0.4371  0.0000   0.0   0.0  1.9656
  2154.48120    101.90  1.0000      1.94   2.4578  0.4922   121.83    8.65   2.4578   121.83  0.1557  1.0000  0.4371  0.0000   0.0   0.0  1.9656
  2154.63360    101.91  1.0000      1.94   2.4579  0.4922   121.83    8.65   2.4579   121.83  0.1557  1.0000  0.4371  0.0000   0.0   0.0  1.9656
  2154.78600    101.93  1.0000      1.94   2.4579  0.4923   121.84    8.65   2.4579   121.84  0.1557  1.0000  0.4370  0.0000   0.0   0.0  1.9656
  2154.93840    101.94  1.0000      1.94   2.4579  0.4923   121.84    8.65   2.4579   121.84  0.1557  1.0000  0.4370  0.0000   0.0   0.0  1.9656
  2155.09080    101.96  1.0000      1.94   2.4579  0.4923   121.84    8.65   2.4579   121.84  0.1557  1.0000  0.4370  0.0000   0.0   0.0  1.9656
  2155.24320    101.98  1.0000      1.95   2.4579  0.4923   121.85    8.65   2.4579   121.85  0.1557  1.0000  0.4369  0.0000   0.0   0.0  1.9656
  2155.39560    101.99  1.0000      1.95   2.4579  0.4923   121.85    8.64   2.4579   121.85  0.1557  1.0000  0.4369  0.0000   0.0   0.0  1.9656
  2155.54800    102.01  1.0000      1.95   2.4579  0.4923   121.85    8.64   2.4579   121.85  0.1557  1.0000  0.4369  0.0000   0.0   0.0  1.9656
  2155.70040    102.03  1.0000      1.95   2.4580  0.4924   121.86    8.64   2.4580   121.86  0.1557  1.0000  0.4368  0.0000   0.0   0.0  1.9656
