~Version --------------------------------------------------
VERS.   2.0 : CWLS log ASCII Standard -VERSION 2.0
WRAP.    NO : One line per depth step
DLM . SPACE : Column Data Section Delimiter
~Well ------------------------------------------------------
STRT.M                   1200.00000 : START DEPTH (mMD)
STOP.                    2500.00000 : STOP DEPTH (mMD)
STEP.                       0.15240 : STEP (m)
NULL.                      -999.25 : NULL VALUE
COMP.  Petroleum Asia Pacific (PAPC)     : COMPANY
WELL.  BOKOR-1                          : WELL
FLD .  BOKOR                            : FIELD
LOC .  Offshore Sarawak, Malaysia Block : LOCATION
PROV.  Sarawak                          : PROVINCE
CNTY.  Sarawak                          : COUNTY
STAT.  Malaysia                        : STATE
CTRY.  Malaysia                        : COUNTRY
SRVC.  Geoquest Malaysia Sdn Bhd       : SERVICE COMPANY
DATE.  2024-03-15                      : LOG DATE
UWI .  BOKOR-1 ST00                     : UNIQUE WELL ID
API .  97MSAW00001B000                  : API NUMBER
EKB .  1234.56                          : ELEVATION KELLY BUSHING (m)
EGL .  1235.20                          : ELEVATION GROUND LEVEL (m)
TDD .  2550.00                          : TOTAL DEPTH DRILLED (mMD)
TVD .  2340.15                          : TOTAL VERTICAL DEPTH (mTVDSS)
~Curve Information -----------------------------------------
DEPT   .M     : Measured Depth (mMD)
GR     .GAPI  : Gamma Ray (Total)
GR_NSH .V/V   : GR Normalized Shale
RT     .OHMM  : Deep Resistivity (Array Induction AI45)
RHOB   .G/CC  : Bulk Density
NPHI   .V/V   : Neutron Porosity (limestone eq)
DT     .US/F  : Sonic Transit Time (compressional)
CALI   .IN    : Caliper
DEN    .G/CC  : Bulk Density (alias)
AC     .US/F  : Sonic Transit Time (alias)
PHI_E  .V/V   : Effective Porosity (DN average)
VSHALE .V/V   : Shale Volume (GR linear)
SW     .V/V   : Water Saturation (Archie, Rw=0.025)
VHC    .V/V   : Hydrocarbon Volume (PhiE x (1-SW))
NET    .BIN   : Net Reservoir Flag (VSHALE<0.40)
PAY    .BIN   : Pay Flag (NET=1 AND SW<0.60)
CROSS  .V/V   : Neutron-Density Crossover (RHOB-NPHI)
~Params ----------------------------------------------------
FORM .  BOKOR-1                        : Formation / Well ID
RFT  .  1350.0  1400.0  1550.0         : RFT sample depths (mMD)
MD_D .  1200.0                         : Measured depth datum (mMD)
TVDSS.  1235.2                         : TVD at datum (mTVDSS)
DATUM.  MSL  Mean Sea Level             : Depth datum reference
# Formation Tops (EXPLORATORY_VISUALIZATION — not RFT-confirmed)
FM_TOP .  1315.0  : Top FMM Formation (Shale)
SS1_TOP.  1480.0  : Top Shallow Sand 1
SS1_BOT.  1560.0  : Bottom Shallow Sand 1
SS2_TOP.  1620.0  : Top Deep Sand 2  <-- main gas reservoir
SS2_BOT.  1780.0  : Bottom Deep Sand 2
SS3_TOP.  1890.0  : Top Deep Sand 3
SS3_BOT.  2050.0  : Bottom Deep Sand 3
BASE  .  2100.0  : Base of reservoir section
# Petrophysics cutoffs
RW     .  0.025  : Formation water resistivity (ohm.m)
PHIT  .  0.30   : Total porosity cutoff
VSH_cut .  0.40 : Shale volume cutoff for net pay
SW_cut  .  0.60 : Sw cutoff for pay
CLAIM  .  EXPLORATORY_VISUALIZATION    : Default claim state
~Other -----------------------------------------------------
BOKOR-1 was drilled by PAPC in March 2024 as a wildcat exploration
well to test Miocene turbidite sands in the BOKOR structural closure.
Result: Gas shows in SS2 and SS3. RFT confirmation pending.
Depths are measured from GL (1235.2m above MSL). All in mMD.
~ASCII -----------------------------------------------------
# ...
  2061.97440     96.52  1.0000      1.72   2.4453  0.4961   122.42    8.38   2.4453   122.42  0.1571  1.0000  0.4602  0.0000   0.0   0.0  1.9492
  2062.12680     96.52  1.0000      1.72   2.4453  0.4961   122.41    8.38   2.4453   122.41  0.1571  1.0000  0.4602  0.0000   0.0   0.0  1.9493
  2062.27920     96.52  1.0000      1.72   2.4454  0.4961   122.41    8.38   2.4454   122.41  0.1571  1.0000  0.4601  0.0000   0.0   0.0  1.9493
  2062.43160     96.52  1.0000      1.72   2.4454  0.4960   122.40    8.38   2.4454   122.40  0.1571  1.0000  0.4601  0.0000   0.0   0.0  1.9494
  2062.58400     96.52  1.0000      1.72   2.4454  0.4960   122.40    8.38   2.4454   122.40  0.1571  1.0000  0.4601  0.0000   0.0   0.0  1.9494
  2062.73640     96.53  1.0000      1.72   2.4454  0.4960   122.40    8.38   2.4454   122.40  0.1571  1.0000  0.4600  0.0000   0.0   0.0  1.9495
  2062.88880     96.53  1.0000      1.72   2.4454  0.4959   122.39    8.38   2.4454   122.39  0.1571  1.0000  0.4600  0.0000   0.0   0.0  1.9495
  2063.04120     96.53  1.0000      1.72   2.4455  0.4959   122.39    8.38   2.4455   122.39  0.1571  1.0000  0.4599  0.0000   0.0   0.0  1.9495
  2063.19360     96.53  1.0000      1.73   2.4455  0.4959   122.38    8.38   2.4455   122.38  0.1571  1.0000  0.4599  0.0000   0.0   0.0  1.9496
  2063.34600     96.54  1.0000      1.73   2.4455  0.4959   122.38    8.38   2.4455   122.38  0.1570  1.0000  0.4598  0.0000   0.0   0.0  1.9496
  2063.49840     96.54  1.0000      1.73   2.4455  0.4958   122.38    8.38   2.4455   122.38  0.1570  1.0000  0.4598  0.0000   0.0   0.0  1.9497
  2063.65080     96.54  1.0000      1.73   2.4456  0.4958   122.37    8.38   2.4456   122.37  0.1570  1.0000  0.4598  0.0000   0.0   0.0  1.9497
  2063.80320     96.54  1.0000      1.73   2.4456  0.4958   122.37    8.38   2.4456   122.37  0.1570  1.0000  0.4597  0.0000   0.0   0.0  1.9498
  2063.95560     96.55  1.0000      1.73   2.4456  0.4958   122.36    8.38   2.4456   122.36  0.1570  1.0000  0.4597  0.0000   0.0   0.0  1.9498
  2064.10800     96.55  1.0000      1.73   2.4456  0.4957   122.36    8.38   2.4456   122.36  0.1570  1.0000  0.4596  0.0000   0.0   0.0  1.9499
  2064.26040     96.55  1.0000      1.73   2.4456  0.4957   122.35    8.38   2.4456   122.35  0.1570  1.0000  0.4596  0.0000   0.0   0.0  1.9499
  2064.41280     96.55  1.0000      1.73   2.4457  0.4957   122.35    8.38   2.4457   122.35  0.1570  1.0000  0.4596  0.0000   0.0   0.0  1.9500
  2064.56520     96.56  1.0000      1.73   2.4457  0.4956   122.35    8.38   2.4457   122.35  0.1570  1.0000  0.4595  0.0000   0.0   0.0  1.9500
  2064.71760     96.56  1.0000      1.73   2.4457  0.4956   122.34    8.38   2.4457   122.34  0.1570  1.0000  0.4595  0.0000   0.0   0.0  1.9501
  2064.87000     96.56  1.0000      1.73   2.4457  0.4956   122.34    8.38   2.4457   122.34  0.1570  1.0000  0.4594  0.0000   0.0   0.0  1.9501
  2065.02240     96.56  1.0000      1.73   2.4457  0.4956   122.33    8.38   2.4457   122.33  0.1570  1.0000  0.4594  0.0000   0.0   0.0  1.9502
  2065.17480     96.57  1.0000      1.73   2.4458  0.4955   122.33    8.38   2.4458   122.33  0.1570  1.0000  0.4593  0.0000   0.0   0.0  1.9502
  2065.32720     96.57  1.0000      1.73   2.4458  0.4955   122.33    8.39   2.4458   122.33  0.1570  1.0000  0.4593  0.0000   0.0   0.0  1.9503
  2065.47960     96.57  1.0000      1.73   2.4458  0.4955   122.32    8.39   2.4458   122.32  0.1570  1.0000  0.4593  0.0000   0.0   0.0  1.9503
  2065.63200     96.58  1.0000      1.73   2.4458  0.4955   122.32    8.39   2.4458   122.32  0.1570  1.0000  0.4592  0.0000   0.0   0.0  1.9504
  2065.78440     96.58  1.0000      1.73   2.4458  0.4954   122.31    8.39   2.4458   122.31  0.1570  1.0000  0.4592  0.0000   0.0   0.0  1.9504
  2065.93680     96.58  1.0000      1.73   2.4459  0.4954   122.31    8.39   2.4459   122.31  0.1570  1.0000  0.4591  0.0000   0.0   0.0  1.9505
  2066.08920     96.58  1.0000      1.73   2.4459  0.4954   122.31    8.39   2.4459   122.31  0.1570  1.0000  0.4591  0.0000   0.0   0.0  1.9505
  2066.24160     96.59  1.0000      1.73   2.4459  0.4953   122.30    8.39   2.4459   122.30  0.1570  1.0000  0.4591  0.0000   0.0   0.0  1.9506
  2066.39400     96.59  1.0000      1.73   2.4459  0.4953   122.30    8.39   2.4459   122.30  0.1570  1.0000  0.4590  0.0000   0.0   0.0  1.9506
  2066.54640     96.59  1.0000      1.73   2.4459  0.4953   122.29    8.39   2.4459   122.29  0.1570  1.0000  0.4590  0.0000   0.0   0.0  1.9507
  2066.69880     96.59  1.0000      1.73   2.4460  0.4953   122.29    8.39   2.4460   122.29  0.1570  1.0000  0.4589  0.0000   0.0   0.0  1.9507
  2066.85120     96.60  1.0000      1.73   2.4460  0.4952   122.29    8.39   2.4460   122.29  0.1570  1.0000  0.4589  0.0000   0.0   0.0  1.9507
  2067.00360     96.60  1.0000      1.73   2.4460  0.4952   122.28    8.39   2.4460   122.28  0.1570  1.0000  0.4588  0.0000   0.0   0.0  1.9508
  2067.15600     96.60  1.0000      1.73   2.4460  0.4952   122.28    8.39   2.4460   122.28  0.1570  1.0000  0.4588  0.0000   0.0   0.0  1.9508
  2067.30840     96.61  1.0000      1.74   2.4460  0.4952   122.27    8.39   2.4460   122.27  0.1570  1.0000  0.4588  0.0000   0.0   0.0  1.9509
  2067.46080     96.61  1.0000      1.74   2.4461  0.4951   122.27    8.39   2.4461   122.27  0.1570  1.0000  0.4587  0.0000   0.0   0.0  1.9509
  2067.61320     96.61  1.0000      1.74   2.4461  0.4951   122.27    8.39   2.4461   122.27  0.1570  1.0000  0.4587  0.0000   0.0   0.0  1.9510
  2067.76560     96.61  1.0000      1.74   2.4461  0.4951   122.26    8.39   2.4461   122.26  0.1570  1.0000  0.4586  0.0000   0.0   0.0  1.9510
  2067.91800     96.62  1.0000      1.74   2.4461  0.4951   122.26    8.39   2.4461   122.26  0.1570  1.0000  0.4586  0.0000   0.0   0.0  1.9511
  2068.07040     96.62  1.0000      1.74   2.4462  0.4950   122.25    8.39   2.4462   122.25  0.1570  1.0000  0.4586  0.0000   0.0   0.0  1.9511
  2068.22280     96.62  1.0000      1.74   2.4462  0.4950   122.25    8.39   2.4462   122.25  0.1570  1.0000  0.4585  0.0000   0.0   0.0  1.9512
  2068.37520     96.63  1.0000      1.74   2.4462  0.4950   122.25    8.39   2.4462   122.25  0.1570  1.0000  0.4585  0.0000   0.0   0.0  1.9512
  2068.52760     96.63  1.0000      1.74   2.4462  0.4949   122.24    8.39   2.4462   122.24  0.1570  1.0000  0.4584  0.0000   0.0   0.0  1.9513
  2068.68000     96.63  1.0000      1.74   2.4462  0.4949   122.24    8.40   2.4462   122.24  0.1570  1.0000  0.4584  0.0000   0.0   0.0  1.9513
  2068.83240     96.63  1.0000      1.74   2.4463  0.4949   122.23    8.40   2.4463   122.23  0.1570  1.0000  0.4584  0.0000   0.0   0.0  1.9514
  2068.98480     96.64  1.0000      1.74   2.4463  0.4949   122.23    8.40   2.4463   122.23  0.1570  1.0000  0.4583  0.0000   0.0   0.0  1.9514
  2069.13720     96.64  1.0000      1.74   2.4463  0.4948   122.23    8.40   2.4463   122.23  0.1570  1.0000  0.4583  0.0000   0.0   0.0  1.9515
  2069.28960     96.64  1.0000      1.74   2.4463  0.4948   122.22    8.40   2.4463   122.22  0.1570  1.0000  0.4582  0.0000   0.0   0.0  1.9515
  2069.44200     96.65  1.0000      1.74   2.4463  0.4948   122.22    8.40   2.4463   122.22  0.1570  1.0000  0.4582  0.0000   0.0   0.0  1.9516
  2069.59440     96.65  1.0000      1.74   2.4464  0.4948   122.21    8.40   2.4464   122.21  0.1570  1.0000  0.4581  0.0000   0.0   0.0  1.9516
  2069.74680     96.65  1.0000      1.74   2.4464  0.4947   122.21    8.40   2.4464   122.21  0.1570  1.0000  0.4581  0.0000   0.0   0.0  1.9516
  2069.89920     96.66  1.0000      1.74   2.4464  0.4947   122.21    8.40   2.4464   122.21  0.1570  1.0000  0.4581  0.0000   0.0   0.0  1.9517
  2070.05160     96.66  1.0000      1.74   2.4464  0.4947   122.20    8.40   2.4464   122.20  0.1569  1.0000  0.4580  0.0000   0.0   0.0  1.9517
  2070.20400     96.66  1.0000      1.74   2.4465  0.4947   122.20    8.40   2.4465   122.20  0.1569  1.0000  0.4580  0.0000   0.0   0.0  1.9518
  2070.35640     96.67  1.0000      1.74   2.4465  0.4946   122.20    8.40   2.4465   122.20  0.1569  1.0000  0.4579  0.0000   0.0   0.0  1.9518
