~Version --------------------------------------------------
VERS.   2.0 : CWLS log ASCII Standard -VERSION 2.0
WRAP.    NO : One line per depth step
DLM . SPACE : Column Data Section Delimiter
~Well ------------------------------------------------------
STRT.M                   1250.00000 : START DEPTH (mMD)
STOP.                    2600.00000 : STOP DEPTH (mMD)
STEP.                       0.15240 : STEP (m)
NULL.                      -999.25 : NULL VALUE
COMP.  Petroleum Asia Pacific (PAPC)     : COMPANY
WELL.  BOKOR-2                          : WELL
FLD .  BOKOR                            : FIELD
LOC .  Offshore Sarawak, Malaysia Block : LOCATION
PROV.  Sarawak                          : PROVINCE
CNTY.  Sarawak                          : COUNTY
STAT.  Malaysia                        : STATE
CTRY.  Malaysia                        : COUNTRY
SRVC.  Geoquest Malaysia Sdn Bhd       : SERVICE COMPANY
DATE.  2024-04-22                      : LOG DATE
UWI .  BOKOR-2 ST00                     : UNIQUE WELL ID
API .  97MSAW00002B000                  : API NUMBER
EKB .  45.80                           : ELEVATION KELLY BUSHING (m)
EGL .  46.20                           : ELEVATION GROUND LEVEL (m)
TDD .  2640.00                          : TOTAL DEPTH DRILLED (mMD)
TVD .  2431.00                          : TOTAL VERTICAL DEPTH (mTVDSS)
~Curve Information -----------------------------------------
DEPT   .M     : Measured Depth (mMD)
GR     .GAPI  : Gamma Ray (Total)
GR_NSH .V/V   : GR Normalized Shale
RT     .OHMM  : Deep Resistivity (Array Induction AI45)
RHOB   .G/CC  : Bulk Density
NPHI   .V/V   : Neutron Porosity (limestone eq)
DT     .US/F  : Sonic Transit Time (compressional)
CALI   .IN    : Caliper
DEN    .G/CC  : Bulk Density (alias)
AC     .US/F  : Sonic Transit Time (alias)
PHI_E  .V/V   : Effective Porosity (DN average)
VSHALE .V/V   : Shale Volume (GR linear)
SW     .V/V   : Water Saturation (Archie, Rw=0.025)
VHC    .V/V   : Hydrocarbon Volume (PhiE x (1-SW))
NET    .BIN   : Net Reservoir Flag (VSHALE<0.40)
PAY    .BIN   : Pay Flag (NET=1 AND SW<0.60)
CROSS  .V/V   : Neutron-Density Crossover (RHOB-NPHI)
~Params ----------------------------------------------------
FORM .  BOKOR-2                        : Formation / Well ID
RFT  .  1380.0  1420.0  1600.0  1720.0 : RFT sample depths (mMD)
MD_D .  1250.0                         : Measured depth datum (mMD)
TVDSS.  46.20                          : TVD at datum (mTVDSS)
DATUM.  MSL  Mean Sea Level             : Depth datum reference
# Formation Tops (EXPLORATORY_VISUALIZATION — not RFT-confirmed)
# BOKOR-2 is 1.2km NE of BOKOR-1 — slight structural updip
FM_TOP .  1360.0  : Top FMM Formation (Shale) — 45m deeper than BOKOR-1
SS1_TOP.  1520.0  : Top Shallow Sand 1 — downdip vs BOKOR-1
SS1_BOT.  1600.0  : Bottom Shallow Sand 1
SS2_TOP.  1650.0  : Top Deep Sand 2  <-- main gas reservoir (30m deeper than BOKOR-1)
SS2_BOT.  1810.0  : Bottom Deep Sand 2
SS3_TOP.  1920.0  : Top Deep Sand 3
SS3_BOT.  2080.0  : Bottom Deep Sand 3
BASE  .  2130.0  : Base of reservoir section
# Petrophysics cutoffs
RW     .  0.025  : Formation water resistivity (ohm.m)
PHIT  .  0.30   : Total porosity cutoff
VSH_cut .  0.40 : Shale volume cutoff for net pay
SW_cut  .  0.60 : Sw cutoff for pay
CLAIM  .  EXPLORATORY_VISUALIZATION    : Default claim state
~Other -----------------------------------------------------
BOKOR-2 is the second well in the BOKOR field appraisal program.
Drilled April 2024 by PAPC, 1.2km NE of BOKOR-1 on the same structural
closure. Objectives: (1) confirm lateral continuity of SS2 and SS3 fans,
(2) RFT sampling in SS2 gas column. Result: Gas confirmed in SS2 and SS3.
Shows higher porosity in SS2 vs BOKOR-1 due to cleaner sand facies.
Depths are measured from GL (46.2m above MSL). All in mMD.
~ASCII -----------------------------------------------------
# ...
  1514.56640    106.45  1.0000      1.21   2.4434  0.4910   119.65    8.65   2.4434   119.65  0.1863  1.0000  0.4630  0.0000   0.0   0.0  1.9524
  1514.71880    106.45  1.0000      1.21   2.4433  0.4910   119.65    8.65   2.4433   119.65  0.1863  1.0000  0.4630  0.0000   0.0   0.0  1.9523
  1514.87120    106.45  1.0000      1.21   2.4433  0.4910   119.65    8.65   2.4433   119.65  0.1863  1.0000  0.4630  0.0000   0.0   0.0  1.9523
  1515.02360    106.45  1.0000      1.21   2.4433  0.4910   119.65    8.65   2.4433   119.65  0.1863  1.0000  0.4630  0.0000   0.0   0.0  1.9523
  1515.17600    106.45  1.0000      1.21   2.4433  0.4910   119.65    8.65   2.4433   119.65  0.1863  1.0000  0.4630  0.0000   0.0   0.0  1.9523
  1515.32840    106.45  1.0000      1.21   2.4433  0.4910   119.66    8.65   2.4433   119.66  0.1863  1.0000  0.4630  0.0000   0.0   0.0  1.9522
  1515.48080    106.45  1.0000      1.21   2.4432  0.4911   119.66    8.65   2.4432   119.66  0.1863  1.0000  0.4630  0.0000   0.0   0.0  1.9522
  1515.63320    106.45  1.0000      1.21   2.4432  0.4911   119.66    8.65   2.4432   119.66  0.1863  1.0000  0.4631  0.0000   0.0   0.0  1.9522
  1515.78560    106.45  1.0000      1.21   2.4432  0.4911   119.66    8.65   2.4432   119.66  0.1863  1.0000  0.4631  0.0000   0.0   0.0  1.9521
  1515.93800    106.45  1.0000      1.21   2.4432  0.4911   119.67    8.65   2.4432   119.67  0.1863  1.0000  0.4631  0.0000   0.0   0.0  1.9521
  1516.09040    106.45  1.0000      1.21   2.4432  0.4911   119.67    8.65   2.4432   119.67  0.1863  1.0000  0.4631  0.0000   0.0   0.0  1.9521
  1516.24280    106.45  1.0000      1.21   2.4432  0.4911   119.67    8.65   2.4432   119.67  0.1863  1.0000  0.4631  0.0000   0.0   0.0  1.9520
  1516.39520    106.45  1.0000      1.21   2.4431  0.4911   119.67    8.65   2.4431   119.67  0.1863  1.0000  0.4631  0.0000   0.0   0.0  1.9520
  1516.54760    106.45  1.0000      1.21   2.4431  0.4912   119.67    8.65   2.4431   119.67  0.1863  1.0000  0.4632  0.0000   0.0   0.0  1.9520
  1516.70000    106.45  1.0000      1.21   2.4431  0.4912   119.68    8.65   2.4431   119.68  0.1863  1.0000  0.4632  0.0000   0.0   0.0  1.9519
  1516.85240    106.45  1.0000      1.21   2.4431  0.4912   119.68    8.65   2.4431   119.68  0.1863  1.0000  0.4632  0.0000   0.0   0.0  1.9519
  1517.00480    106.45  1.0000      1.21   2.4431  0.4912   119.68    8.65   2.4431   119.68  0.1863  1.0000  0.4632  0.0000   0.0   0.0  1.9519
  1517.15720    106.45  1.0000      1.21   2.4431  0.4912   119.68    8.65   2.4431   119.68  0.1863  1.0000  0.4632  0.0000   0.0   0.0  1.9519
  1517.30960    106.45  1.0000      1.21   2.4430  0.4912   119.68    8.65   2.4430   119.68  0.1863  1.0000  0.4632  0.0000   0.0   0.0  1.9518
  1517.46200    106.45  1.0000      1.21   2.4430  0.4912   119.69    8.65   2.4430   119.69  0.1863  1.0000  0.4632  0.0000   0.0   0.0  1.9518
  1517.61440    106.45  1.0000      1.21   2.4430  0.4913   119.69    8.65   2.4430   119.69  0.1863  1.0000  0.4633  0.0000   0.0   0.0  1.9518
  1517.76680    106.45  1.0000      1.21   2.4430  0.4913   119.69    8.65   2.4430   119.69  0.1863  1.0000  0.4633  0.0000   0.0   0.0  1.9517
  1517.91920    106.45  1.0000      1.21   2.4430  0.4913   119.69    8.65   2.4430   119.69  0.1862  1.0000  0.4633  0.0000   0.0   0.0  1.9517
  1518.07160    106.45  1.0000      1.21   2.4430  0.4913   119.70    8.65   2.4430   119.70  0.1862  1.0000  0.4633  0.0000   0.0   0.0  1.9517
  1518.22400    106.45  1.0000      1.21   2.4430  0.4913   119.70    8.65   2.4430   119.70  0.1862  1.0000  0.4633  0.0000   0.0   0.0  1.9516
  1518.37640    106.45  1.0000      1.21   2.4429  0.4913   119.70    8.65   2.4429   119.70  0.1862  1.0000  0.4633  0.0000   0.0   0.0  1.9516
  1518.52880    106.45  1.0000      1.21   2.4429  0.4913   119.70    8.65   2.4429   119.70  0.1862  1.0000  0.4633  0.0000   0.0   0.0  1.9516
  1518.68120    106.45  1.0000      1.21   2.4429  0.4914   119.70    8.65   2.4429   119.70  0.1862  1.0000  0.4634  0.0000   0.0   0.0  1.9515
  1518.83360    106.45  1.0000      1.21   2.4429  0.4914   119.71    8.65   2.4429   119.71  0.1862  1.0000  0.4634  0.0000   0.0   0.0  1.9515
  1518.98600    106.45  1.0000      1.21   2.4429  0.4914   119.71    8.65   2.4429   119.71  0.1862  1.0000  0.4634  0.0000   0.0   0.0  1.9515
  1519.13840    106.45  1.0000      1.21   2.4429  0.4914   119.71    8.65   2.4429   119.71  0.1862  1.0000  0.4634  0.0000   0.0   0.0  1.9514
  1519.29080    106.45  1.0000      1.21   2.4428  0.4914   119.71    8.65   2.4428   119.71  0.1862  1.0000  0.4634  0.0000   0.0   0.0  1.9514
  1519.44320    106.45  1.0000      1.21   2.4428  0.4914   119.72    8.65   2.4428   119.72  0.1862  1.0000  0.4634  0.0000   0.0   0.0  1.9514
  1519.59560    106.45  1.0000      1.21   2.4428  0.4915   119.72    8.65   2.4428   119.72  0.1862  1.0000  0.4635  0.0000   0.0   0.0  1.9513
  1519.74800    106.45  1.0000      1.21   2.4428  0.4915   119.72    8.65   2.4428   119.72  0.1862  1.0000  0.4635  0.0000   0.0   0.0  1.9513
  1519.90040    106.45  1.0000      1.21   2.4428  0.4915   119.72    8.65   2.4428   119.72  0.1862  1.0000  0.4635  0.0000   0.0   0.0  1.9513
  1520.05280     25.49  0.0000      2.54   2.3641  0.2515    85.73    8.65   2.3641    85.73  0.3262  0.0000  0.3042  0.2270   1.0   1.0  2.1126
  1520.20520     25.49  0.0000      2.54   2.3641  0.2515    85.73    8.65   2.3641    85.73  0.3262  0.0000  0.3042  0.2270   1.0   1.0  2.1125
  1520.35760     25.48  0.0000      2.54   2.3640  0.2515    85.73    8.65   2.3640    85.73  0.3262  0.0000  0.3042  0.2270   1.0   1.0  2.1125
  1520.51000     25.47  0.0000      2.54   2.3640  0.2516    85.73    8.65   2.3640    85.73  0.3262  0.0000  0.3041  0.2270   1.0   1.0  2.1125
  1520.66240     25.47  0.0000      2.54   2.3640  0.2516    85.74    8.65   2.3640    85.74  0.3262  0.0000  0.3041  0.2270   1.0   1.0  2.1124
  1520.81480     25.46  0.0000      2.54   2.3640  0.2516    85.74    8.65   2.3640    85.74  0.3262  0.0000  0.3040  0.2270   1.0   1.0  2.1124
  1520.96720     25.45  0.0000      2.54   2.3640  0.2516    85.74    8.65   2.3640    85.74  0.3262  0.0000  0.3040  0.2270   1.0   1.0  2.1124
  1521.11960     25.45  0.0000      2.54   2.3640  0.2516    85.74    8.65   2.3640    85.74  0.3262  0.0000  0.3039  0.2271   1.0   1.0  2.1123
  1521.27200     25.44  0.0000      2.54   2.3639  0.2516    85.75    8.65   2.3639    85.75  0.3262  0.0000  0.3039  0.2271   1.0   1.0  2.1123
  1521.42440     25.43  0.0000      2.54   2.3639  0.2517    85.75    8.65   2.3639    85.75  0.3262  0.0000  0.3038  0.2271   1.0   1.0  2.1123
  1521.57680     25.43  0.0000      2.55   2.3639  0.2517    85.75    8.65   2.3639    85.75  0.3262  0.0000  0.3038  0.2271   1.0   1.0  2.1122
  1521.72920     25.42  0.0000      2.55   2.3639  0.2517    85.75    8.65   2.3639    85.75  0.3262  0.0000  0.3038  0.2271   1.0   1.0  2.1122
  1521.88160     25.41  0.0000      2.55   2.3639  0.2517    85.76    8.65   2.3639    85.76  0.3262  0.0000  0.3037  0.2271   1.0   1.0  2.1122
  1522.03400     25.41  0.0000      2.55   2.3639  0.2517    85.76    8.65   2.3639    85.76  0.3262  0.0000  0.3037  0.2271   1.0   1.0  2.1121
  1522.18640     25.40  0.0000      2.55   2.3639  0.2517    85.76    8.65   2.3639    85.76  0.3262  0.0000  0.3036  0.2272   1.0   1.0  2.1121
  1522.33880     25.39  0.0000      2.55   2.3638  0.2518    85.76    8.65   2.3638    85.76  0.3262  0.0000  0.3036  0.2272   1.0   1.0  2.1121
  1522.49120     25.39  0.0000      2.55   2.3638  0.2518    85.77    8.65   2.3638    85.77  0.3262  0.0000  0.3035  0.2272   1.0   1.0  2.1120
  1522.64360     25.38  0.0000      2.55   2.3638  0.2518    85.77    8.65   2.3638    85.77  0.3262  0.0000  0.3035  0.2272   1.0   1.0  2.1120
  1522.79600     25.38  0.0000      2.55   2.3638  0.2518    85.77    8.65   2.3638    85.77  0.3262  0.0000  0.3034  0.2272   1.0   1.0  2.1120
  1522.94840     25.37  0.0000      2.55   2.3638  0.2518    85.77    8.65   2.3638    85.77  0.3262  0.0000  0.3034  0.2272   1.0   1.0  2.1120
