~Version --------------------------------------------------
VERS.   2.0 : CWLS log ASCII Standard -VERSION 2.0
WRAP.    NO : One line per depth step
DLM . SPACE : Column Data Section Delimiter
~Well ------------------------------------------------------
STRT.M                   1250.00000 : START DEPTH (mMD)
STOP.                    2600.00000 : STOP DEPTH (mMD)
STEP.                       0.15240 : STEP (m)
NULL.                      -999.25 : NULL VALUE
COMP.  Petroleum Asia Pacific (PAPC)     : COMPANY
WELL.  BOKOR-2                          : WELL
FLD .  BOKOR                            : FIELD
LOC .  Offshore Sarawak, Malaysia Block : LOCATION
PROV.  Sarawak                          : PROVINCE
CNTY.  Sarawak                          : COUNTY
STAT.  Malaysia                        : STATE
CTRY.  Malaysia                        : COUNTRY
SRVC.  Geoquest Malaysia Sdn Bhd       : SERVICE COMPANY
DATE.  2024-04-22                      : LOG DATE
UWI .  BOKOR-2 ST00                     : UNIQUE WELL ID
API .  97MSAW00002B000                  : API NUMBER
EKB .  45.80                           : ELEVATION KELLY BUSHING (m)
EGL .  46.20                           : ELEVATION GROUND LEVEL (m)
TDD .  2640.00                          : TOTAL DEPTH DRILLED (mMD)
TVD .  2431.00                          : TOTAL VERTICAL DEPTH (mTVDSS)
~Curve Information -----------------------------------------
DEPT   .M     : Measured Depth (mMD)
GR     .GAPI  : Gamma Ray (Total)
GR_NSH .V/V   : GR Normalized Shale
RT     .OHMM  : Deep Resistivity (Array Induction AI45)
RHOB   .G/CC  : Bulk Density
NPHI   .V/V   : Neutron Porosity (limestone eq)
DT     .US/F  : Sonic Transit Time (compressional)
CALI   .IN    : Caliper
DEN    .G/CC  : Bulk Density (alias)
AC     .US/F  : Sonic Transit Time (alias)
PHI_E  .V/V   : Effective Porosity (DN average)
VSHALE .V/V   : Shale Volume (GR linear)
SW     .V/V   : Water Saturation (Archie, Rw=0.025)
VHC    .V/V   : Hydrocarbon Volume (PhiE x (1-SW))
NET    .BIN   : Net Reservoir Flag (VSHALE<0.40)
PAY    .BIN   : Pay Flag (NET=1 AND SW<0.60)
CROSS  .V/V   : Neutron-Density Crossover (RHOB-NPHI)
~Params ----------------------------------------------------
FORM .  BOKOR-2                        : Formation / Well ID
RFT  .  1380.0  1420.0  1600.0  1720.0 : RFT sample depths (mMD)
MD_D .  1250.0                         : Measured depth datum (mMD)
TVDSS.  46.20                          : TVD at datum (mTVDSS)
DATUM.  MSL  Mean Sea Level             : Depth datum reference
# Formation Tops (EXPLORATORY_VISUALIZATION — not RFT-confirmed)
# BOKOR-2 is 1.2km NE of BOKOR-1 — slight structural updip
FM_TOP .  1360.0  : Top FMM Formation (Shale) — 45m deeper than BOKOR-1
SS1_TOP.  1520.0  : Top Shallow Sand 1 — downdip vs BOKOR-1
SS1_BOT.  1600.0  : Bottom Shallow Sand 1
SS2_TOP.  1650.0  : Top Deep Sand 2  <-- main gas reservoir (30m deeper than BOKOR-1)
SS2_BOT.  1810.0  : Bottom Deep Sand 2
SS3_TOP.  1920.0  : Top Deep Sand 3
SS3_BOT.  2080.0  : Bottom Deep Sand 3
BASE  .  2130.0  : Base of reservoir section
# Petrophysics cutoffs
RW     .  0.025  : Formation water resistivity (ohm.m)
PHIT  .  0.30   : Total porosity cutoff
VSH_cut .  0.40 : Shale volume cutoff for net pay
SW_cut  .  0.60 : Sw cutoff for pay
CLAIM  .  EXPLORATORY_VISUALIZATION    : Default claim state
~Other -----------------------------------------------------
BOKOR-2 is the second well in the BOKOR field appraisal program.
Drilled April 2024 by PAPC, 1.2km NE of BOKOR-1 on the same structural
closure. Objectives: (1) confirm lateral continuity of SS2 and SS3 fans,
(2) RFT sampling in SS2 gas column. Result: Gas confirmed in SS2 and SS3.
Shows higher porosity in SS2 vs BOKOR-1 due to cleaner sand facies.
Depths are measured from GL (46.2m above MSL). All in mMD.
~ASCII -----------------------------------------------------
# ...
  2504.55680    110.47  1.0000      2.56   2.4487  0.4983   120.74    8.46   2.4487   120.74  0.1724  1.0000  0.3439  0.0000   0.0   0.0  1.9504
  2504.70920    110.45  1.0000      2.56   2.4487  0.4983   120.74    8.46   2.4487   120.74  0.1724  1.0000  0.3439  0.0000   0.0   0.0  1.9504
  2504.86160    110.44  1.0000      2.56   2.4487  0.4983   120.75    8.46   2.4487   120.75  0.1724  1.0000  0.3439  0.0000   0.0   0.0  1.9504
  2505.01400    110.43  1.0000      2.56   2.4488  0.4984   120.75    8.46   2.4488   120.75  0.1724  1.0000  0.3439  0.0000   0.0   0.0  1.9504
  2505.16640    110.41  1.0000      2.56   2.4488  0.4984   120.76    8.46   2.4488   120.76  0.1724  1.0000  0.3439  0.0000   0.0   0.0  1.9504
  2505.31880    110.40  1.0000      2.56   2.4488  0.4984   120.76    8.46   2.4488   120.76  0.1724  1.0000  0.3438  0.0000   0.0   0.0  1.9504
  2505.47120    110.39  1.0000      2.56   2.4488  0.4984   120.77    8.47   2.4488   120.77  0.1724  1.0000  0.3438  0.0000   0.0   0.0  1.9504
  2505.62360    110.37  1.0000      2.56   2.4489  0.4985   120.77    8.47   2.4489   120.77  0.1724  1.0000  0.3438  0.0000   0.0   0.0  1.9504
  2505.77600    110.36  1.0000      2.56   2.4489  0.4985   120.78    8.47   2.4489   120.78  0.1724  1.0000  0.3438  0.0000   0.0   0.0  1.9504
  2505.92840    110.34  1.0000      2.56   2.4489  0.4985   120.78    8.47   2.4489   120.78  0.1724  1.0000  0.3438  0.0000   0.0   0.0  1.9504
  2506.08080    110.33  1.0000      2.56   2.4489  0.4986   120.78    8.47   2.4489   120.78  0.1724  1.0000  0.3438  0.0000   0.0   0.0  1.9504
  2506.23320    110.32  1.0000      2.56   2.4489  0.4986   120.79    8.47   2.4489   120.79  0.1724  1.0000  0.3438  0.0000   0.0   0.0  1.9503
  2506.38560    110.30  1.0000      2.56   2.4490  0.4986   120.79    8.47   2.4490   120.79  0.1724  1.0000  0.3438  0.0000   0.0   0.0  1.9503
  2506.53800    110.29  1.0000      2.56   2.4490  0.4987   120.80    8.47   2.4490   120.80  0.1724  1.0000  0.3438  0.0000   0.0   0.0  1.9503
  2506.69040    110.27  1.0000      2.56   2.4490  0.4987   120.80    8.47   2.4490   120.80  0.1724  1.0000  0.3438  0.0000   0.0   0.0  1.9503
  2506.84280    110.26  1.0000      2.56   2.4490  0.4987   120.81    8.47   2.4490   120.81  0.1724  1.0000  0.3438  0.0000   0.0   0.0  1.9503
  2506.99520    110.25  1.0000      2.56   2.4491  0.4987   120.81    8.47   2.4491   120.81  0.1724  1.0000  0.3438  0.0000   0.0   0.0  1.9503
  2507.14760    110.23  1.0000      2.56   2.4491  0.4988   120.82    8.47   2.4491   120.82  0.1724  1.0000  0.3438  0.0000   0.0   0.0  1.9503
  2507.30000    110.22  1.0000      2.56   2.4491  0.4988   120.82    8.47   2.4491   120.82  0.1724  1.0000  0.3438  0.0000   0.0   0.0  1.9503
  2507.45240    110.20  1.0000      2.56   2.4491  0.4988   120.83    8.47   2.4491   120.83  0.1724  1.0000  0.3438  0.0000   0.0   0.0  1.9503
  2507.60480    110.19  1.0000      2.56   2.4492  0.4989   120.83    8.47   2.4492   120.83  0.1724  1.0000  0.3438  0.0000   0.0   0.0  1.9503
  2507.75720    110.17  1.0000      2.56   2.4492  0.4989   120.83    8.48   2.4492   120.83  0.1724  1.0000  0.3438  0.0000   0.0   0.0  1.9503
  2507.90960    110.16  1.0000      2.56   2.4492  0.4989   120.84    8.48   2.4492   120.84  0.1724  1.0000  0.3438  0.0000   0.0   0.0  1.9503
  2508.06200    110.15  1.0000      2.56   2.4492  0.4990   120.84    8.48   2.4492   120.84  0.1724  1.0000  0.3438  0.0000   0.0   0.0  1.9503
  2508.21440    110.13  1.0000      2.56   2.4492  0.4990   120.85    8.48   2.4492   120.85  0.1724  1.0000  0.3438  0.0000   0.0   0.0  1.9503
  2508.36680    110.12  1.0000      2.56   2.4493  0.4990   120.85    8.48   2.4493   120.85  0.1724  1.0000  0.3438  0.0000   0.0   0.0  1.9502
  2508.51920    110.10  1.0000      2.56   2.4493  0.4991   120.86    8.48   2.4493   120.86  0.1724  1.0000  0.3438  0.0000   0.0   0.0  1.9502
  2508.67160    110.09  1.0000      2.56   2.4493  0.4991   120.86    8.48   2.4493   120.86  0.1724  1.0000  0.3438  0.0000   0.0   0.0  1.9502
  2508.82400    110.07  1.0000      2.56   2.4493  0.4991   120.87    8.48   2.4493   120.87  0.1724  1.0000  0.3438  0.0000   0.0   0.0  1.9502
  2508.97640    110.06  1.0000      2.56   2.4494  0.4991   120.87    8.48   2.4494   120.87  0.1724  1.0000  0.3438  0.0000   0.0   0.0  1.9502
  2509.12880    110.04  1.0000      2.56   2.4494  0.4992   120.88    8.48   2.4494   120.88  0.1724  1.0000  0.3438  0.0000   0.0   0.0  1.9502
  2509.28120    110.03  1.0000      2.56   2.4494  0.4992   120.88    8.48   2.4494   120.88  0.1724  1.0000  0.3438  0.0000   0.0   0.0  1.9502
  2509.43360    110.02  1.0000      2.56   2.4494  0.4992   120.88    8.48   2.4494   120.88  0.1724  1.0000  0.3438  0.0000   0.0   0.0  1.9502
  2509.58600    110.00  1.0000      2.56   2.4494  0.4993   120.89    8.48   2.4494   120.89  0.1724  1.0000  0.3438  0.0000   0.0   0.0  1.9502
  2509.73840    109.99  1.0000      2.56   2.4495  0.4993   120.89    8.48   2.4495   120.89  0.1724  1.0000  0.3438  0.0000   0.0   0.0  1.9502
  2509.89080    109.97  1.0000      2.56   2.4495  0.4993   120.90    8.48   2.4495   120.90  0.1724  1.0000  0.3438  0.0000   0.0   0.0  1.9502
  2510.04320    109.96  1.0000      2.56   2.4495  0.4994   120.90    8.49   2.4495   120.90  0.1724  1.0000  0.3438  0.0000   0.0   0.0  1.9502
  2510.19560    109.94  1.0000      2.56   2.4495  0.4994   120.91    8.49   2.4495   120.91  0.1724  1.0000  0.3438  0.0000   0.0   0.0  1.9502
  2510.34800    109.93  1.0000      2.56   2.4496  0.4994   120.91    8.49   2.4496   120.91  0.1724  1.0000  0.3438  0.0000   0.0   0.0  1.9501
  2510.50040    109.91  1.0000      2.56   2.4496  0.4994   120.92    8.49   2.4496   120.92  0.1724  1.0000  0.3438  0.0000   0.0   0.0  1.9501
  2510.65280    109.90  1.0000      2.56   2.4496  0.4995   120.92    8.49   2.4496   120.92  0.1724  1.0000  0.3438  0.0000   0.0   0.0  1.9501
  2510.80520    109.88  1.0000      2.56   2.4496  0.4995   120.93    8.49   2.4496   120.93  0.1723  1.0000  0.3438  0.0000   0.0   0.0  1.9501
  2510.95760    109.87  1.0000      2.56   2.4497  0.4995   120.93    8.49   2.4497   120.93  0.1723  1.0000  0.3437  0.0000   0.0   0.0  1.9501
  2511.11000    109.85  1.0000      2.56   2.4497  0.4996   120.94    8.49   2.4497   120.94  0.1723  1.0000  0.3437  0.0000   0.0   0.0  1.9501
  2511.26240    109.84  1.0000      2.56   2.4497  0.4996   120.94    8.49   2.4497   120.94  0.1723  1.0000  0.3437  0.0000   0.0   0.0  1.9501
  2511.41480    109.82  1.0000      2.56   2.4497  0.4996   120.94    8.49   2.4497   120.94  0.1723  1.0000  0.3437  0.0000   0.0   0.0  1.9501
  2511.56720    109.81  1.0000      2.56   2.4497  0.4997   120.95    8.49   2.4497   120.95  0.1723  1.0000  0.3437  0.0000   0.0   0.0  1.9501
  2511.71960    109.79  1.0000      2.56   2.4498  0.4997   120.95    8.49   2.4498   120.95  0.1723  1.0000  0.3437  0.0000   0.0   0.0  1.9501
  2511.87200    109.78  1.0000      2.56   2.4498  0.4997   120.96    8.49   2.4498   120.96  0.1723  1.0000  0.3437  0.0000   0.0   0.0  1.9501
  2512.02440    109.76  1.0000      2.56   2.4498  0.4998   120.96    8.49   2.4498   120.96  0.1723  1.0000  0.3437  0.0000   0.0   0.0  1.9501
  2512.17680    109.75  1.0000      2.57   2.4498  0.4998   120.97    8.50   2.4498   120.97  0.1723  1.0000  0.3437  0.0000   0.0   0.0  1.9501
  2512.32920    109.73  1.0000      2.57   2.4499  0.4998   120.97    8.50   2.4499   120.97  0.1723  1.0000  0.3437  0.0000   0.0   0.0  1.9500
  2512.48160    109.72  1.0000      2.57   2.4499  0.4998   120.98    8.50   2.4499   120.98  0.1723  1.0000  0.3437  0.0000   0.0   0.0  1.9500
  2512.63400    109.70  1.0000      2.57   2.4499  0.4999   120.98    8.50   2.4499   120.98  0.1723  1.0000  0.3437  0.0000   0.0   0.0  1.9500
  2512.78640    109.69  1.0000      2.57   2.4499  0.4999   120.99    8.50   2.4499   120.99  0.1723  1.0000  0.3437  0.0000   0.0   0.0  1.9500
  2512.93880    109.67  1.0000      2.57   2.4499  0.4999   120.99    8.50   2.4499   120.99  0.1723  1.0000  0.3437  0.0000   0.0   0.0  1.9500
