~Version --------------------------------------------------
VERS.   2.0 : CWLS log ASCII Standard -VERSION 2.0
WRAP.    NO : One line per depth step
DLM . SPACE : Column Data Section Delimiter
~Well ------------------------------------------------------
STRT.M                   1200.00000 : START DEPTH (mMD)
STOP.                    2500.00000 : STOP DEPTH (mMD)
STEP.                       0.15240 : STEP (m)
NULL.                      -999.25 : NULL VALUE
COMP.  Petroleum Asia Pacific (PAPC)     : COMPANY
WELL.  BOKOR-1                          : WELL
FLD .  BOKOR                            : FIELD
LOC .  Offshore Sarawak, Malaysia Block : LOCATION
PROV.  Sarawak                          : PROVINCE
CNTY.  Sarawak                          : COUNTY
STAT.  Malaysia                        : STATE
CTRY.  Malaysia                        : COUNTRY
SRVC.  Geoquest Malaysia Sdn Bhd       : SERVICE COMPANY
DATE.  2024-03-15                      : LOG DATE
UWI .  BOKOR-1 ST00                     : UNIQUE WELL ID
API .  97MSAW00001B000                  : API NUMBER
EKB .  1234.56                          : ELEVATION KELLY BUSHING (m)
EGL .  1235.20                          : ELEVATION GROUND LEVEL (m)
TDD .  2550.00                          : TOTAL DEPTH DRILLED (mMD)
TVD .  2340.15                          : TOTAL VERTICAL DEPTH (mTVDSS)
~Curve Information -----------------------------------------
DEPT   .M     : Measured Depth (mMD)
GR     .GAPI  : Gamma Ray (Total)
GR_NSH .V/V   : GR Normalized Shale
RT     .OHMM  : Deep Resistivity (Array Induction AI45)
RHOB   .G/CC  : Bulk Density
NPHI   .V/V   : Neutron Porosity (limestone eq)
DT     .US/F  : Sonic Transit Time (compressional)
CALI   .IN    : Caliper
DEN    .G/CC  : Bulk Density (alias)
AC     .US/F  : Sonic Transit Time (alias)
PHI_E  .V/V   : Effective Porosity (DN average)
VSHALE .V/V   : Shale Volume (GR linear)
SW     .V/V   : Water Saturation (Archie, Rw=0.025)
VHC    .V/V   : Hydrocarbon Volume (PhiE x (1-SW))
NET    .BIN   : Net Reservoir Flag (VSHALE<0.40)
PAY    .BIN   : Pay Flag (NET=1 AND SW<0.60)
CROSS  .V/V   : Neutron-Density Crossover (RHOB-NPHI)
~Params ----------------------------------------------------
FORM .  BOKOR-1                        : Formation / Well ID
RFT  .  1350.0  1400.0  1550.0         : RFT sample depths (mMD)
MD_D .  1200.0                         : Measured depth datum (mMD)
TVDSS.  1235.2                         : TVD at datum (mTVDSS)
DATUM.  MSL  Mean Sea Level             : Depth datum reference
# Formation Tops (EXPLORATORY_VISUALIZATION — not RFT-confirmed)
FM_TOP .  1315.0  : Top FMM Formation (Shale)
SS1_TOP.  1480.0  : Top Shallow Sand 1
SS1_BOT.  1560.0  : Bottom Shallow Sand 1
SS2_TOP.  1620.0  : Top Deep Sand 2  <-- main gas reservoir
SS2_BOT.  1780.0  : Bottom Deep Sand 2
SS3_TOP.  1890.0  : Top Deep Sand 3
SS3_BOT.  2050.0  : Bottom Deep Sand 3
BASE  .  2100.0  : Base of reservoir section
# Petrophysics cutoffs
RW     .  0.025  : Formation water resistivity (ohm.m)
PHIT  .  0.30   : Total porosity cutoff
VSH_cut .  0.40 : Shale volume cutoff for net pay
SW_cut  .  0.60 : Sw cutoff for pay
CLAIM  .  EXPLORATORY_VISUALIZATION    : Default claim state
~Other -----------------------------------------------------
BOKOR-1 was drilled by PAPC in March 2024 as a wildcat exploration
well to test Miocene turbidite sands in the BOKOR structural closure.
Result: Gas shows in SS2 and SS3. RFT confirmation pending.
Depths are measured from GL (1235.2m above MSL). All in mMD.
~ASCII -----------------------------------------------------
# ...
  2318.00640    113.76  1.0000      2.30   2.4479  0.5069   124.04    8.56   2.4479   124.04  0.1532  1.0000  0.4085  0.0000   0.0   0.0  1.9410
  2318.15880    113.76  1.0000      2.30   2.4479  0.5069   124.03    8.56   2.4479   124.03  0.1532  1.0000  0.4085  0.0000   0.0   0.0  1.9410
  2318.31120    113.75  1.0000      2.30   2.4478  0.5069   124.03    8.56   2.4478   124.03  0.1532  1.0000  0.4084  0.0000   0.0   0.0  1.9410
  2318.46360    113.75  1.0000      2.30   2.4478  0.5069   124.03    8.56   2.4478   124.03  0.1532  1.0000  0.4084  0.0000   0.0   0.0  1.9410
  2318.61600    113.74  1.0000      2.30   2.4478  0.5068   124.02    8.56   2.4478   124.02  0.1532  1.0000  0.4084  0.0000   0.0   0.0  1.9410
  2318.76840    113.74  1.0000      2.30   2.4478  0.5068   124.02    8.56   2.4478   124.02  0.1532  1.0000  0.4084  0.0000   0.0   0.0  1.9410
  2318.92080    113.74  1.0000      2.30   2.4478  0.5068   124.02    8.57   2.4478   124.02  0.1532  1.0000  0.4084  0.0000   0.0   0.0  1.9410
  2319.07320    113.73  1.0000      2.30   2.4477  0.5068   124.01    8.57   2.4477   124.01  0.1532  1.0000  0.4083  0.0000   0.0   0.0  1.9410
  2319.22560    113.73  1.0000      2.30   2.4477  0.5067   124.01    8.57   2.4477   124.01  0.1532  1.0000  0.4083  0.0000   0.0   0.0  1.9410
  2319.37800    113.72  1.0000      2.30   2.4477  0.5067   124.01    8.57   2.4477   124.01  0.1532  1.0000  0.4083  0.0000   0.0   0.0  1.9410
  2319.53040    113.72  1.0000      2.30   2.4477  0.5067   124.00    8.57   2.4477   124.00  0.1532  1.0000  0.4083  0.0000   0.0   0.0  1.9410
  2319.68280    113.71  1.0000      2.30   2.4476  0.5067   124.00    8.57   2.4476   124.00  0.1532  1.0000  0.4083  0.0000   0.0   0.0  1.9410
  2319.83520    113.71  1.0000      2.30   2.4476  0.5066   124.00    8.57   2.4476   124.00  0.1532  1.0000  0.4082  0.0000   0.0   0.0  1.9410
  2319.98760    113.71  1.0000      2.30   2.4476  0.5066   123.99    8.57   2.4476   123.99  0.1532  1.0000  0.4082  0.0000   0.0   0.0  1.9410
  2320.14000    113.70  1.0000      2.30   2.4476  0.5066   123.99    8.57   2.4476   123.99  0.1532  1.0000  0.4082  0.0000   0.0   0.0  1.9410
  2320.29240    113.70  1.0000      2.30   2.4476  0.5066   123.99    8.57   2.4476   123.99  0.1532  1.0000  0.4082  0.0000   0.0   0.0  1.9410
  2320.44480    113.69  1.0000      2.30   2.4475  0.5066   123.98    8.57   2.4475   123.98  0.1532  1.0000  0.4082  0.0000   0.0   0.0  1.9410
  2320.59720    113.69  1.0000      2.30   2.4475  0.5065   123.98    8.57   2.4475   123.98  0.1532  1.0000  0.4081  0.0000   0.0   0.0  1.9410
  2320.74960    113.68  1.0000      2.30   2.4475  0.5065   123.98    8.57   2.4475   123.98  0.1532  1.0000  0.4081  0.0000   0.0   0.0  1.9410
  2320.90200    113.68  1.0000      2.30   2.4475  0.5065   123.97    8.57   2.4475   123.97  0.1532  1.0000  0.4081  0.0000   0.0   0.0  1.9410
  2321.05440    113.67  1.0000      2.30   2.4474  0.5065   123.97    8.57   2.4474   123.97  0.1532  1.0000  0.4081  0.0000   0.0   0.0  1.9410
  2321.20680    113.67  1.0000      2.30   2.4474  0.5064   123.97    8.57   2.4474   123.97  0.1532  1.0000  0.4081  0.0000   0.0   0.0  1.9410
  2321.35920    113.66  1.0000      2.30   2.4474  0.5064   123.96    8.58   2.4474   123.96  0.1532  1.0000  0.4081  0.0000   0.0   0.0  1.9410
  2321.51160    113.66  1.0000      2.30   2.4474  0.5064   123.96    8.58   2.4474   123.96  0.1532  1.0000  0.4080  0.0000   0.0   0.0  1.9410
  2321.66400    113.65  1.0000      2.30   2.4474  0.5064   123.96    8.58   2.4474   123.96  0.1532  1.0000  0.4080  0.0000   0.0   0.0  1.9410
  2321.81640    113.65  1.0000      2.30   2.4473  0.5063   123.95    8.58   2.4473   123.95  0.1532  1.0000  0.4080  0.0000   0.0   0.0  1.9410
  2321.96880    113.64  1.0000      2.30   2.4473  0.5063   123.95    8.58   2.4473   123.95  0.1532  1.0000  0.4080  0.0000   0.0   0.0  1.9410
  2322.12120    113.64  1.0000      2.31   2.4473  0.5063   123.94    8.58   2.4473   123.94  0.1532  1.0000  0.4080  0.0000   0.0   0.0  1.9410
  2322.27360    113.64  1.0000      2.31   2.4473  0.5063   123.94    8.58   2.4473   123.94  0.1532  1.0000  0.4079  0.0000   0.0   0.0  1.9410
  2322.42600    113.63  1.0000      2.31   2.4472  0.5063   123.94    8.58   2.4472   123.94  0.1532  1.0000  0.4079  0.0000   0.0   0.0  1.9410
  2322.57840    113.63  1.0000      2.31   2.4472  0.5062   123.93    8.58   2.4472   123.93  0.1532  1.0000  0.4079  0.0000   0.0   0.0  1.9410
  2322.73080    113.62  1.0000      2.31   2.4472  0.5062   123.93    8.58   2.4472   123.93  0.1532  1.0000  0.4079  0.0000   0.0   0.0  1.9410
  2322.88320    113.62  1.0000      2.31   2.4472  0.5062   123.93    8.58   2.4472   123.93  0.1532  1.0000  0.4079  0.0000   0.0   0.0  1.9410
  2323.03560    113.61  1.0000      2.31   2.4472  0.5062   123.92    8.58   2.4472   123.92  0.1532  1.0000  0.4078  0.0000   0.0   0.0  1.9410
  2323.18800    113.61  1.0000      2.31   2.4471  0.5061   123.92    8.58   2.4471   123.92  0.1532  1.0000  0.4078  0.0000   0.0   0.0  1.9410
  2323.34040    113.60  1.0000      2.31   2.4471  0.5061   123.92    8.58   2.4471   123.92  0.1531  1.0000  0.4078  0.0000   0.0   0.0  1.9410
  2323.49280    113.59  1.0000      2.31   2.4471  0.5061   123.91    8.58   2.4471   123.91  0.1531  1.0000  0.4078  0.0000   0.0   0.0  1.9410
  2323.64520    113.59  1.0000      2.31   2.4471  0.5061   123.91    8.58   2.4471   123.91  0.1531  1.0000  0.4078  0.0000   0.0   0.0  1.9410
  2323.79760    113.58  1.0000      2.31   2.4471  0.5060   123.91    8.58   2.4471   123.91  0.1531  1.0000  0.4078  0.0000   0.0   0.0  1.9410
  2323.95000    113.58  1.0000      2.31   2.4470  0.5060   123.90    8.59   2.4470   123.90  0.1531  1.0000  0.4077  0.0000   0.0   0.0  1.9410
  2324.10240    113.57  1.0000      2.31   2.4470  0.5060   123.90    8.59   2.4470   123.90  0.1531  1.0000  0.4077  0.0000   0.0   0.0  1.9410
  2324.25480    113.57  1.0000      2.31   2.4470  0.5060   123.89    8.59   2.4470   123.89  0.1531  1.0000  0.4077  0.0000   0.0   0.0  1.9410
  2324.40720    113.56  1.0000      2.31   2.4470  0.5059   123.89    8.59   2.4470   123.89  0.1531  1.0000  0.4077  0.0000   0.0   0.0  1.9410
  2324.55960    113.56  1.0000      2.31   2.4469  0.5059   123.89    8.59   2.4469   123.89  0.1531  1.0000  0.4077  0.0000   0.0   0.0  1.9410
  2324.71200    113.55  1.0000      2.31   2.4469  0.5059   123.88    8.59   2.4469   123.88  0.1531  1.0000  0.4076  0.0000   0.0   0.0  1.9410
  2324.86440    113.55  1.0000      2.31   2.4469  0.5059   123.88    8.59   2.4469   123.88  0.1531  1.0000  0.4076  0.0000   0.0   0.0  1.9410
  2325.01680    113.54  1.0000      2.31   2.4469  0.5058   123.88    8.59   2.4469   123.88  0.1531  1.0000  0.4076  0.0000   0.0   0.0  1.9410
  2325.16920    113.54  1.0000      2.31   2.4469  0.5058   123.87    8.59   2.4469   123.87  0.1531  1.0000  0.4076  0.0000   0.0   0.0  1.9410
  2325.32160    113.53  1.0000      2.31   2.4468  0.5058   123.87    8.59   2.4468   123.87  0.1531  1.0000  0.4076  0.0000   0.0   0.0  1.9410
  2325.47400    113.53  1.0000      2.31   2.4468  0.5058   123.86    8.59   2.4468   123.86  0.1531  1.0000  0.4075  0.0000   0.0   0.0  1.9410
  2325.62640    113.52  1.0000      2.31   2.4468  0.5057   123.86    8.59   2.4468   123.86  0.1531  1.0000  0.4075  0.0000   0.0   0.0  1.9410
  2325.77880    113.52  1.0000      2.31   2.4468  0.5057   123.86    8.59   2.4468   123.86  0.1531  1.0000  0.4075  0.0000   0.0   0.0  1.9411
  2325.93120    113.51  1.0000      2.31   2.4467  0.5057   123.85    8.59   2.4467   123.85  0.1531  1.0000  0.4075  0.0000   0.0   0.0  1.9411
  2326.08360    113.50  1.0000      2.31   2.4467  0.5057   123.85    8.59   2.4467   123.85  0.1531  1.0000  0.4075  0.0000   0.0   0.0  1.9411
  2326.23600    113.50  1.0000      2.31   2.4467  0.5056   123.85    8.59   2.4467   123.85  0.1531  1.0000  0.4075  0.0000   0.0   0.0  1.9411
  2326.38840    113.49  1.0000      2.31   2.4467  0.5056   123.84    8.59   2.4467   123.84  0.1531  1.0000  0.4074  0.0000   0.0   0.0  1.9411
