~Version --------------------------------------------------
VERS.   2.0 : CWLS log ASCII Standard -VERSION 2.0
WRAP.    NO : One line per depth step
DLM . SPACE : Column Data Section Delimiter
~Well ------------------------------------------------------
STRT.M                   1200.00000 : START DEPTH (mMD)
STOP.                    2500.00000 : STOP DEPTH (mMD)
STEP.                       0.15240 : STEP (m)
NULL.                      -999.25 : NULL VALUE
COMP.  Petroleum Asia Pacific (PAPC)     : COMPANY
WELL.  BOKOR-1                          : WELL
FLD .  BOKOR                            : FIELD
LOC .  Offshore Sarawak, Malaysia Block : LOCATION
PROV.  Sarawak                          : PROVINCE
CNTY.  Sarawak                          : COUNTY
STAT.  Malaysia                        : STATE
CTRY.  Malaysia                        : COUNTRY
SRVC.  Geoquest Malaysia Sdn Bhd       : SERVICE COMPANY
DATE.  2024-03-15                      : LOG DATE
UWI .  BOKOR-1 ST00                     : UNIQUE WELL ID
API .  97MSAW00001B000                  : API NUMBER
EKB .  1234.56                          : ELEVATION KELLY BUSHING (m)
EGL .  1235.20                          : ELEVATION GROUND LEVEL (m)
TDD .  2550.00                          : TOTAL DEPTH DRILLED (mMD)
TVD .  2340.15                          : TOTAL VERTICAL DEPTH (mTVDSS)
~Curve Information -----------------------------------------
DEPT   .M     : Measured Depth (mMD)
GR     .GAPI  : Gamma Ray (Total)
GR_NSH .V/V   : GR Normalized Shale
RT     .OHMM  : Deep Resistivity (Array Induction AI45)
RHOB   .G/CC  : Bulk Density
NPHI   .V/V   : Neutron Porosity (limestone eq)
DT     .US/F  : Sonic Transit Time (compressional)
CALI   .IN    : Caliper
DEN    .G/CC  : Bulk Density (alias)
AC     .US/F  : Sonic Transit Time (alias)
PHI_E  .V/V   : Effective Porosity (DN average)
VSHALE .V/V   : Shale Volume (GR linear)
SW     .V/V   : Water Saturation (Archie, Rw=0.025)
VHC    .V/V   : Hydrocarbon Volume (PhiE x (1-SW))
NET    .BIN   : Net Reservoir Flag (VSHALE<0.40)
PAY    .BIN   : Pay Flag (NET=1 AND SW<0.60)
CROSS  .V/V   : Neutron-Density Crossover (RHOB-NPHI)
~Params ----------------------------------------------------
FORM .  BOKOR-1                        : Formation / Well ID
RFT  .  1350.0  1400.0  1550.0         : RFT sample depths (mMD)
MD_D .  1200.0                         : Measured depth datum (mMD)
TVDSS.  1235.2                         : TVD at datum (mTVDSS)
DATUM.  MSL  Mean Sea Level             : Depth datum reference
# Formation Tops (EXPLORATORY_VISUALIZATION — not RFT-confirmed)
FM_TOP .  1315.0  : Top FMM Formation (Shale)
SS1_TOP.  1480.0  : Top Shallow Sand 1
SS1_BOT.  1560.0  : Bottom Shallow Sand 1
SS2_TOP.  1620.0  : Top Deep Sand 2  <-- main gas reservoir
SS2_BOT.  1780.0  : Bottom Deep Sand 2
SS3_TOP.  1890.0  : Top Deep Sand 3
SS3_BOT.  2050.0  : Bottom Deep Sand 3
BASE  .  2100.0  : Base of reservoir section
# Petrophysics cutoffs
RW     .  0.025  : Formation water resistivity (ohm.m)
PHIT  .  0.30   : Total porosity cutoff
VSH_cut .  0.40 : Shale volume cutoff for net pay
SW_cut  .  0.60 : Sw cutoff for pay
CLAIM  .  EXPLORATORY_VISUALIZATION    : Default claim state
~Other -----------------------------------------------------
BOKOR-1 was drilled by PAPC in March 2024 as a wildcat exploration
well to test Miocene turbidite sands in the BOKOR structural closure.
Result: Gas shows in SS2 and SS3. RFT confirmation pending.
Depths are measured from GL (1235.2m above MSL). All in mMD.
~ASCII -----------------------------------------------------
# ...
  1285.34400    113.51  1.0000      1.28   2.4542  0.5054   123.81    8.61   2.4542   123.81  0.1687  1.0000  0.4978  0.0000   0.0   0.0  1.9487
  1285.49640    113.52  1.0000      1.28   2.4542  0.5055   123.82    8.61   2.4542   123.82  0.1687  1.0000  0.4979  0.0000   0.0   0.0  1.9487
  1285.64880    113.53  1.0000      1.28   2.4542  0.5055   123.82    8.61   2.4542   123.82  0.1687  1.0000  0.4979  0.0000   0.0   0.0  1.9487
  1285.80120    113.54  1.0000      1.28   2.4542  0.5055   123.83    8.62   2.4542   123.83  0.1687  1.0000  0.4980  0.0000   0.0   0.0  1.9487
  1285.95360    113.55  1.0000      1.27   2.4543  0.5055   123.83    8.62   2.4543   123.83  0.1687  1.0000  0.4980  0.0000   0.0   0.0  1.9487
  1286.10600    113.55  1.0000      1.27   2.4543  0.5056   123.83    8.62   2.4543   123.83  0.1687  1.0000  0.4981  0.0000   0.0   0.0  1.9487
  1286.25840    113.56  1.0000      1.27   2.4543  0.5056   123.84    8.62   2.4543   123.84  0.1687  1.0000  0.4982  0.0000   0.0   0.0  1.9487
  1286.41080    113.57  1.0000      1.27   2.4543  0.5056   123.84    8.62   2.4543   123.84  0.1687  1.0000  0.4982  0.0000   0.0   0.0  1.9487
  1286.56320    113.58  1.0000      1.27   2.4543  0.5056   123.85    8.62   2.4543   123.85  0.1687  1.0000  0.4983  0.0000   0.0   0.0  1.9487
  1286.71560    113.59  1.0000      1.27   2.4544  0.5057   123.85    8.62   2.4544   123.85  0.1687  1.0000  0.4983  0.0000   0.0   0.0  1.9487
  1286.86800    113.60  1.0000      1.27   2.4544  0.5057   123.85    8.62   2.4544   123.85  0.1687  1.0000  0.4984  0.0000   0.0   0.0  1.9487
  1287.02040    113.61  1.0000      1.27   2.4544  0.5057   123.86    8.62   2.4544   123.86  0.1687  1.0000  0.4985  0.0000   0.0   0.0  1.9487
  1287.17280    113.62  1.0000      1.27   2.4544  0.5057   123.86    8.62   2.4544   123.86  0.1687  1.0000  0.4985  0.0000   0.0   0.0  1.9487
  1287.32520    113.63  1.0000      1.27   2.4544  0.5058   123.86    8.62   2.4544   123.86  0.1687  1.0000  0.4986  0.0000   0.0   0.0  1.9487
  1287.47760    113.64  1.0000      1.27   2.4545  0.5058   123.87    8.62   2.4545   123.87  0.1687  1.0000  0.4987  0.0000   0.0   0.0  1.9487
  1287.63000    113.64  1.0000      1.27   2.4545  0.5058   123.87    8.62   2.4545   123.87  0.1687  1.0000  0.4987  0.0000   0.0   0.0  1.9487
  1287.78240    113.65  1.0000      1.27   2.4545  0.5058   123.88    8.62   2.4545   123.88  0.1687  1.0000  0.4988  0.0000   0.0   0.0  1.9487
  1287.93480    113.66  1.0000      1.27   2.4545  0.5059   123.88    8.62   2.4545   123.88  0.1687  1.0000  0.4988  0.0000   0.0   0.0  1.9487
  1288.08720    113.67  1.0000      1.27   2.4545  0.5059   123.88    8.62   2.4545   123.88  0.1687  1.0000  0.4989  0.0000   0.0   0.0  1.9487
  1288.23960    113.68  1.0000      1.27   2.4546  0.5059   123.89    8.62   2.4546   123.89  0.1687  1.0000  0.4990  0.0000   0.0   0.0  1.9487
  1288.39200    113.69  1.0000      1.27   2.4546  0.5059   123.89    8.62   2.4546   123.89  0.1687  1.0000  0.4990  0.0000   0.0   0.0  1.9487
  1288.54440    113.70  1.0000      1.27   2.4546  0.5060   123.89    8.62   2.4546   123.89  0.1687  1.0000  0.4991  0.0000   0.0   0.0  1.9486
  1288.69680    113.71  1.0000      1.27   2.4546  0.5060   123.90    8.62   2.4546   123.90  0.1687  1.0000  0.4991  0.0000   0.0   0.0  1.9486
  1288.84920    113.71  1.0000      1.27   2.4546  0.5060   123.90    8.62   2.4546   123.90  0.1687  1.0000  0.4992  0.0000   0.0   0.0  1.9486
  1289.00160    113.72  1.0000      1.27   2.4547  0.5060   123.90    8.62   2.4547   123.90  0.1687  1.0000  0.4993  0.0000   0.0   0.0  1.9486
  1289.15400    113.73  1.0000      1.27   2.4547  0.5061   123.91    8.62   2.4547   123.91  0.1687  1.0000  0.4993  0.0000   0.0   0.0  1.9486
  1289.30640    113.74  1.0000      1.27   2.4547  0.5061   123.91    8.62   2.4547   123.91  0.1687  1.0000  0.4994  0.0000   0.0   0.0  1.9486
  1289.45880    113.75  1.0000      1.27   2.4547  0.5061   123.92    8.62   2.4547   123.92  0.1687  1.0000  0.4994  0.0000   0.0   0.0  1.9486
  1289.61120    113.76  1.0000      1.27   2.4547  0.5061   123.92    8.63   2.4547   123.92  0.1687  1.0000  0.4995  0.0000   0.0   0.0  1.9486
  1289.76360    113.77  1.0000      1.27   2.4548  0.5062   123.92    8.63   2.4548   123.92  0.1687  1.0000  0.4996  0.0000   0.0   0.0  1.9486
  1289.91600    113.77  1.0000      1.27   2.4548  0.5062   123.93    8.63   2.4548   123.93  0.1687  1.0000  0.4996  0.0000   0.0   0.0  1.9486
  1290.06840    113.78  1.0000      1.27   2.4548  0.5062   123.93    8.63   2.4548   123.93  0.1686  1.0000  0.4997  0.0000   0.0   0.0  1.9486
  1290.22080    113.79  1.0000      1.27   2.4548  0.5062   123.93    8.63   2.4548   123.93  0.1686  1.0000  0.4997  0.0000   0.0   0.0  1.9486
  1290.37320    113.80  1.0000      1.27   2.4548  0.5062   123.94    8.63   2.4548   123.94  0.1686  1.0000  0.4998  0.0000   0.0   0.0  1.9486
  1290.52560    113.81  1.0000      1.27   2.4549  0.5063   123.94    8.63   2.4549   123.94  0.1686  1.0000  0.4999  0.0000   0.0   0.0  1.9486
  1290.67800    113.82  1.0000      1.27   2.4549  0.5063   123.94    8.63   2.4549   123.94  0.1686  1.0000  0.4999  0.0000   0.0   0.0  1.9486
  1290.83040    113.82  1.0000      1.27   2.4549  0.5063   123.95    8.63   2.4549   123.95  0.1686  1.0000  0.5000  0.0000   0.0   0.0  1.9486
  1290.98280    113.83  1.0000      1.27   2.4549  0.5063   123.95    8.63   2.4549   123.95  0.1686  1.0000  0.5000  0.0000   0.0   0.0  1.9486
  1291.13520    113.84  1.0000      1.27   2.4549  0.5064   123.95    8.63   2.4549   123.95  0.1686  1.0000  0.5001  0.0000   0.0   0.0  1.9486
  1291.28760    113.85  1.0000      1.27   2.4550  0.5064   123.96    8.63   2.4550   123.96  0.1686  1.0000  0.5002  0.0000   0.0   0.0  1.9486
  1291.44000    113.86  1.0000      1.26   2.4550  0.5064   123.96    8.63   2.4550   123.96  0.1686  1.0000  0.5002  0.0000   0.0   0.0  1.9486
  1291.59240    113.87  1.0000      1.26   2.4550  0.5064   123.97    8.63   2.4550   123.97  0.1686  1.0000  0.5003  0.0000   0.0   0.0  1.9486
  1291.74480    113.87  1.0000      1.26   2.4550  0.5065   123.97    8.63   2.4550   123.97  0.1686  1.0000  0.5003  0.0000   0.0   0.0  1.9486
  1291.89720    113.88  1.0000      1.26   2.4550  0.5065   123.97    8.63   2.4550   123.97  0.1686  1.0000  0.5004  0.0000   0.0   0.0  1.9486
  1292.04960    113.89  1.0000      1.26   2.4551  0.5065   123.98    8.63   2.4551   123.98  0.1686  1.0000  0.5005  0.0000   0.0   0.0  1.9486
  1292.20200    113.90  1.0000      1.26   2.4551  0.5065   123.98    8.63   2.4551   123.98  0.1686  1.0000  0.5005  0.0000   0.0   0.0  1.9486
  1292.35440    113.91  1.0000      1.26   2.4551  0.5066   123.98    8.63   2.4551   123.98  0.1686  1.0000  0.5006  0.0000   0.0   0.0  1.9486
  1292.50680    113.91  1.0000      1.26   2.4551  0.5066   123.99    8.63   2.4551   123.99  0.1686  1.0000  0.5006  0.0000   0.0   0.0  1.9486
  1292.65920    113.92  1.0000      1.26   2.4551  0.5066   123.99    8.63   2.4551   123.99  0.1686  1.0000  0.5007  0.0000   0.0   0.0  1.9485
  1292.81160    113.93  1.0000      1.26   2.4552  0.5066   123.99    8.63   2.4552   123.99  0.1686  1.0000  0.5008  0.0000   0.0   0.0  1.9485
  1292.96400    113.94  1.0000      1.26   2.4552  0.5066   124.00    8.63   2.4552   124.00  0.1686  1.0000  0.5008  0.0000   0.0   0.0  1.9485
  1293.11640    113.95  1.0000      1.26   2.4552  0.5067   124.00    8.63   2.4552   124.00  0.1686  1.0000  0.5009  0.0000   0.0   0.0  1.9485
  1293.26880    113.95  1.0000      1.26   2.4552  0.5067   124.00    8.63   2.4552   124.00  0.1686  1.0000  0.5010  0.0000   0.0   0.0  1.9485
  1293.42120    113.96  1.0000      1.26   2.4552  0.5067   124.01    8.63   2.4552   124.01  0.1686  1.0000  0.5010  0.0000   0.0   0.0  1.9485
  1293.57360    113.97  1.0000      1.26   2.4553  0.5067   124.01    8.63   2.4553   124.01  0.1686  1.0000  0.5011  0.0000   0.0   0.0  1.9485
  1293.72600    113.98  1.0000      1.26   2.4553  0.5068   124.01    8.63   2.4553   124.01  0.1686  1.0000  0.5011  0.0000   0.0   0.0  1.9485
