~Version --------------------------------------------------
VERS.   2.0 : CWLS log ASCII Standard -VERSION 2.0
WRAP.    NO : One line per depth step
DLM . SPACE : Column Data Section Delimiter
~Well ------------------------------------------------------
STRT.M                   1250.00000 : START DEPTH (mMD)
STOP.                    2600.00000 : STOP DEPTH (mMD)
STEP.                       0.15240 : STEP (m)
NULL.                      -999.25 : NULL VALUE
COMP.  Petroleum Asia Pacific (PAPC)     : COMPANY
WELL.  BOKOR-2                          : WELL
FLD .  BOKOR                            : FIELD
LOC .  Offshore Sarawak, Malaysia Block : LOCATION
PROV.  Sarawak                          : PROVINCE
CNTY.  Sarawak                          : COUNTY
STAT.  Malaysia                        : STATE
CTRY.  Malaysia                        : COUNTRY
SRVC.  Geoquest Malaysia Sdn Bhd       : SERVICE COMPANY
DATE.  2024-04-22                      : LOG DATE
UWI .  BOKOR-2 ST00                     : UNIQUE WELL ID
API .  97MSAW00002B000                  : API NUMBER
EKB .  45.80                           : ELEVATION KELLY BUSHING (m)
EGL .  46.20                           : ELEVATION GROUND LEVEL (m)
TDD .  2640.00                          : TOTAL DEPTH DRILLED (mMD)
TVD .  2431.00                          : TOTAL VERTICAL DEPTH (mTVDSS)
~Curve Information -----------------------------------------
DEPT   .M     : Measured Depth (mMD)
GR     .GAPI  : Gamma Ray (Total)
GR_NSH .V/V   : GR Normalized Shale
RT     .OHMM  : Deep Resistivity (Array Induction AI45)
RHOB   .G/CC  : Bulk Density
NPHI   .V/V   : Neutron Porosity (limestone eq)
DT     .US/F  : Sonic Transit Time (compressional)
CALI   .IN    : Caliper
DEN    .G/CC  : Bulk Density (alias)
AC     .US/F  : Sonic Transit Time (alias)
PHI_E  .V/V   : Effective Porosity (DN average)
VSHALE .V/V   : Shale Volume (GR linear)
SW     .V/V   : Water Saturation (Archie, Rw=0.025)
VHC    .V/V   : Hydrocarbon Volume (PhiE x (1-SW))
NET    .BIN   : Net Reservoir Flag (VSHALE<0.40)
PAY    .BIN   : Pay Flag (NET=1 AND SW<0.60)
CROSS  .V/V   : Neutron-Density Crossover (RHOB-NPHI)
~Params ----------------------------------------------------
FORM .  BOKOR-2                        : Formation / Well ID
RFT  .  1380.0  1420.0  1600.0  1720.0 : RFT sample depths (mMD)
MD_D .  1250.0                         : Measured depth datum (mMD)
TVDSS.  46.20                          : TVD at datum (mTVDSS)
DATUM.  MSL  Mean Sea Level             : Depth datum reference
# Formation Tops (EXPLORATORY_VISUALIZATION — not RFT-confirmed)
# BOKOR-2 is 1.2km NE of BOKOR-1 — slight structural updip
FM_TOP .  1360.0  : Top FMM Formation (Shale) — 45m deeper than BOKOR-1
SS1_TOP.  1520.0  : Top Shallow Sand 1 — downdip vs BOKOR-1
SS1_BOT.  1600.0  : Bottom Shallow Sand 1
SS2_TOP.  1650.0  : Top Deep Sand 2  <-- main gas reservoir (30m deeper than BOKOR-1)
SS2_BOT.  1810.0  : Bottom Deep Sand 2
SS3_TOP.  1920.0  : Top Deep Sand 3
SS3_BOT.  2080.0  : Bottom Deep Sand 3
BASE  .  2130.0  : Base of reservoir section
# Petrophysics cutoffs
RW     .  0.025  : Formation water resistivity (ohm.m)
PHIT  .  0.30   : Total porosity cutoff
VSH_cut .  0.40 : Shale volume cutoff for net pay
SW_cut  .  0.60 : Sw cutoff for pay
CLAIM  .  EXPLORATORY_VISUALIZATION    : Default claim state
~Other -----------------------------------------------------
BOKOR-2 is the second well in the BOKOR field appraisal program.
Drilled April 2024 by PAPC, 1.2km NE of BOKOR-1 on the same structural
closure. Objectives: (1) confirm lateral continuity of SS2 and SS3 fans,
(2) RFT sampling in SS2 gas column. Result: Gas confirmed in SS2 and SS3.
Shows higher porosity in SS2 vs BOKOR-1 due to cleaner sand facies.
Depths are measured from GL (46.2m above MSL). All in mMD.
~ASCII -----------------------------------------------------
# ...
  1608.44480    101.87  1.0000      1.20   2.4416  0.5068   122.03    8.36   2.4416   122.03  0.1850  1.0000  0.4673  0.0000   0.0   0.0  1.9347
  1608.59720    101.85  1.0000      1.20   2.4416  0.5069   122.03    8.36   2.4416   122.03  0.1850  1.0000  0.4673  0.0000   0.0   0.0  1.9347
  1608.74960    101.84  1.0000      1.20   2.4416  0.5069   122.03    8.36   2.4416   122.03  0.1850  1.0000  0.4673  0.0000   0.0   0.0  1.9347
  1608.90200    101.82  1.0000      1.20   2.4416  0.5069   122.04    8.36   2.4416   122.04  0.1850  1.0000  0.4673  0.0000   0.0   0.0  1.9347
  1609.05440    101.81  1.0000      1.20   2.4416  0.5069   122.04    8.36   2.4416   122.04  0.1850  1.0000  0.4673  0.0000   0.0   0.0  1.9347
  1609.20680    101.79  1.0000      1.20   2.4416  0.5069   122.04    8.36   2.4416   122.04  0.1850  1.0000  0.4673  0.0000   0.0   0.0  1.9347
  1609.35920    101.78  1.0000      1.20   2.4416  0.5070   122.05    8.36   2.4416   122.05  0.1850  1.0000  0.4673  0.0000   0.0   0.0  1.9347
  1609.51160    101.76  1.0000      1.20   2.4416  0.5070   122.05    8.36   2.4416   122.05  0.1850  1.0000  0.4673  0.0000   0.0   0.0  1.9346
  1609.66400    101.74  1.0000      1.20   2.4417  0.5070   122.05    8.36   2.4417   122.05  0.1850  1.0000  0.4673  0.0000   0.0   0.0  1.9346
  1609.81640    101.73  1.0000      1.20   2.4417  0.5070   122.06    8.36   2.4417   122.06  0.1850  1.0000  0.4673  0.0000   0.0   0.0  1.9346
  1609.96880    101.71  1.0000      1.20   2.4417  0.5071   122.06    8.36   2.4417   122.06  0.1850  1.0000  0.4673  0.0000   0.0   0.0  1.9346
  1610.12120    101.70  1.0000      1.20   2.4417  0.5071   122.06    8.36   2.4417   122.06  0.1850  1.0000  0.4673  0.0000   0.0   0.0  1.9346
  1610.27360    101.68  1.0000      1.20   2.4417  0.5071   122.07    8.36   2.4417   122.07  0.1850  1.0000  0.4673  0.0000   0.0   0.0  1.9346
  1610.42600    101.66  1.0000      1.20   2.4417  0.5071   122.07    8.36   2.4417   122.07  0.1850  1.0000  0.4673  0.0000   0.0   0.0  1.9346
  1610.57840    101.65  1.0000      1.20   2.4417  0.5071   122.07    8.36   2.4417   122.07  0.1850  1.0000  0.4673  0.0000   0.0   0.0  1.9346
  1610.73080    101.63  1.0000      1.21   2.4417  0.5072   122.07    8.36   2.4417   122.07  0.1849  1.0000  0.4673  0.0000   0.0   0.0  1.9346
  1610.88320    101.62  1.0000      1.21   2.4418  0.5072   122.08    8.36   2.4418   122.08  0.1849  1.0000  0.4673  0.0000   0.0   0.0  1.9346
  1611.03560    101.60  1.0000      1.21   2.4418  0.5072   122.08    8.36   2.4418   122.08  0.1849  1.0000  0.4673  0.0000   0.0   0.0  1.9346
  1611.18800    101.58  1.0000      1.21   2.4418  0.5072   122.08    8.36   2.4418   122.08  0.1849  1.0000  0.4673  0.0000   0.0   0.0  1.9346
  1611.34040    101.57  1.0000      1.21   2.4418  0.5072   122.09    8.36   2.4418   122.09  0.1849  1.0000  0.4673  0.0000   0.0   0.0  1.9345
  1611.49280    101.55  1.0000      1.21   2.4418  0.5073   122.09    8.36   2.4418   122.09  0.1849  1.0000  0.4673  0.0000   0.0   0.0  1.9345
  1611.64520    101.54  1.0000      1.21   2.4418  0.5073   122.09    8.36   2.4418   122.09  0.1849  1.0000  0.4673  0.0000   0.0   0.0  1.9345
  1611.79760    101.52  1.0000      1.21   2.4418  0.5073   122.10    8.36   2.4418   122.10  0.1849  1.0000  0.4673  0.0000   0.0   0.0  1.9345
  1611.95000    101.50  1.0000      1.21   2.4418  0.5073   122.10    8.36   2.4418   122.10  0.1849  1.0000  0.4673  0.0000   0.0   0.0  1.9345
  1612.10240    101.49  1.0000      1.21   2.4419  0.5074   122.10    8.36   2.4419   122.10  0.1849  1.0000  0.4673  0.0000   0.0   0.0  1.9345
  1612.25480    101.47  1.0000      1.21   2.4419  0.5074   122.11    8.36   2.4419   122.11  0.1849  1.0000  0.4673  0.0000   0.0   0.0  1.9345
  1612.40720    101.45  1.0000      1.21   2.4419  0.5074   122.11    8.36   2.4419   122.11  0.1849  1.0000  0.4672  0.0000   0.0   0.0  1.9345
  1612.55960    101.44  1.0000      1.21   2.4419  0.5074   122.11    8.36   2.4419   122.11  0.1849  1.0000  0.4672  0.0000   0.0   0.0  1.9345
  1612.71200    101.42  1.0000      1.21   2.4419  0.5074   122.12    8.36   2.4419   122.12  0.1849  1.0000  0.4672  0.0000   0.0   0.0  1.9345
  1612.86440    101.41  1.0000      1.21   2.4419  0.5075   122.12    8.36   2.4419   122.12  0.1849  1.0000  0.4672  0.0000   0.0   0.0  1.9345
  1613.01680    101.39  1.0000      1.21   2.4419  0.5075   122.12    8.36   2.4419   122.12  0.1849  1.0000  0.4672  0.0000   0.0   0.0  1.9345
  1613.16920    101.37  1.0000      1.21   2.4420  0.5075   122.12    8.36   2.4420   122.12  0.1849  1.0000  0.4672  0.0000   0.0   0.0  1.9345
  1613.32160    101.36  1.0000      1.21   2.4420  0.5075   122.13    8.36   2.4420   122.13  0.1849  1.0000  0.4672  0.0000   0.0   0.0  1.9345
  1613.47400    101.34  1.0000      1.21   2.4420  0.5075   122.13    8.36   2.4420   122.13  0.1849  1.0000  0.4672  0.0000   0.0   0.0  1.9344
  1613.62640    101.32  1.0000      1.21   2.4420  0.5076   122.13    8.36   2.4420   122.13  0.1849  1.0000  0.4672  0.0000   0.0   0.0  1.9344
  1613.77880    101.31  1.0000      1.21   2.4420  0.5076   122.14    8.36   2.4420   122.14  0.1849  1.0000  0.4672  0.0000   0.0   0.0  1.9344
  1613.93120    101.29  1.0000      1.21   2.4420  0.5076   122.14    8.36   2.4420   122.14  0.1849  1.0000  0.4672  0.0000   0.0   0.0  1.9344
  1614.08360    101.28  1.0000      1.21   2.4420  0.5076   122.14    8.36   2.4420   122.14  0.1849  1.0000  0.4672  0.0000   0.0   0.0  1.9344
  1614.23600    101.26  1.0000      1.21   2.4420  0.5076   122.15    8.36   2.4420   122.15  0.1849  1.0000  0.4672  0.0000   0.0   0.0  1.9344
  1614.38840    101.24  1.0000      1.21   2.4421  0.5077   122.15    8.36   2.4421   122.15  0.1849  1.0000  0.4672  0.0000   0.0   0.0  1.9344
  1614.54080    101.23  1.0000      1.21   2.4421  0.5077   122.15    8.35   2.4421   122.15  0.1849  1.0000  0.4672  0.0000   0.0   0.0  1.9344
  1614.69320    101.21  1.0000      1.21   2.4421  0.5077   122.15    8.35   2.4421   122.15  0.1849  1.0000  0.4672  0.0000   0.0   0.0  1.9344
  1614.84560    101.19  1.0000      1.21   2.4421  0.5077   122.16    8.35   2.4421   122.16  0.1849  1.0000  0.4672  0.0000   0.0   0.0  1.9344
  1614.99800    101.18  1.0000      1.21   2.4421  0.5077   122.16    8.35   2.4421   122.16  0.1849  1.0000  0.4672  0.0000   0.0   0.0  1.9344
  1615.15040    101.16  1.0000      1.21   2.4421  0.5078   122.16    8.35   2.4421   122.16  0.1849  1.0000  0.4672  0.0000   0.0   0.0  1.9344
  1615.30280    101.14  1.0000      1.21   2.4421  0.5078   122.17    8.35   2.4421   122.17  0.1849  1.0000  0.4672  0.0000   0.0   0.0  1.9344
  1615.45520    101.13  1.0000      1.21   2.4422  0.5078   122.17    8.35   2.4422   122.17  0.1849  1.0000  0.4672  0.0000   0.0   0.0  1.9344
  1615.60760    101.11  1.0000      1.21   2.4422  0.5078   122.17    8.35   2.4422   122.17  0.1849  1.0000  0.4672  0.0000   0.0   0.0  1.9344
  1615.76000    101.09  1.0000      1.21   2.4422  0.5078   122.17    8.35   2.4422   122.17  0.1849  1.0000  0.4672  0.0000   0.0   0.0  1.9344
  1615.91240    101.08  1.0000      1.21   2.4422  0.5078   122.18    8.35   2.4422   122.18  0.1849  1.0000  0.4672  0.0000   0.0   0.0  1.9344
  1616.06480    101.06  1.0000      1.21   2.4422  0.5079   122.18    8.35   2.4422   122.18  0.1849  1.0000  0.4672  0.0000   0.0   0.0  1.9344
  1616.21720    101.04  1.0000      1.21   2.4422  0.5079   122.18    8.35   2.4422   122.18  0.1849  1.0000  0.4672  0.0000   0.0   0.0  1.9343
  1616.36960    101.03  1.0000      1.21   2.4422  0.5079   122.19    8.35   2.4422   122.19  0.1849  1.0000  0.4672  0.0000   0.0   0.0  1.9343
  1616.52200    101.01  1.0000      1.21   2.4423  0.5079   122.19    8.35   2.4423   122.19  0.1849  1.0000  0.4672  0.0000   0.0   0.0  1.9343
  1616.67440    100.99  1.0000      1.21   2.4423  0.5079   122.19    8.35   2.4423   122.19  0.1849  1.0000  0.4672  0.0000   0.0   0.0  1.9343
  1616.82680    100.98  1.0000      1.21   2.4423  0.5080   122.19    8.35   2.4423   122.19  0.1849  1.0000  0.4672  0.0000   0.0   0.0  1.9343
