~Version --------------------------------------------------
VERS.   2.0 : CWLS log ASCII Standard -VERSION 2.0
WRAP.    NO : One line per depth step
DLM . SPACE : Column Data Section Delimiter
~Well ------------------------------------------------------
STRT.M                   1250.00000 : START DEPTH (mMD)
STOP.                    2600.00000 : STOP DEPTH (mMD)
STEP.                       0.15240 : STEP (m)
NULL.                      -999.25 : NULL VALUE
COMP.  Petroleum Asia Pacific (PAPC)     : COMPANY
WELL.  BOKOR-2                          : WELL
FLD .  BOKOR                            : FIELD
LOC .  Offshore Sarawak, Malaysia Block : LOCATION
PROV.  Sarawak                          : PROVINCE
CNTY.  Sarawak                          : COUNTY
STAT.  Malaysia                        : STATE
CTRY.  Malaysia                        : COUNTRY
SRVC.  Geoquest Malaysia Sdn Bhd       : SERVICE COMPANY
DATE.  2024-04-22                      : LOG DATE
UWI .  BOKOR-2 ST00                     : UNIQUE WELL ID
API .  97MSAW00002B000                  : API NUMBER
EKB .  45.80                           : ELEVATION KELLY BUSHING (m)
EGL .  46.20                           : ELEVATION GROUND LEVEL (m)
TDD .  2640.00                          : TOTAL DEPTH DRILLED (mMD)
TVD .  2431.00                          : TOTAL VERTICAL DEPTH (mTVDSS)
~Curve Information -----------------------------------------
DEPT   .M     : Measured Depth (mMD)
GR     .GAPI  : Gamma Ray (Total)
GR_NSH .V/V   : GR Normalized Shale
RT     .OHMM  : Deep Resistivity (Array Induction AI45)
RHOB   .G/CC  : Bulk Density
NPHI   .V/V   : Neutron Porosity (limestone eq)
DT     .US/F  : Sonic Transit Time (compressional)
CALI   .IN    : Caliper
DEN    .G/CC  : Bulk Density (alias)
AC     .US/F  : Sonic Transit Time (alias)
PHI_E  .V/V   : Effective Porosity (DN average)
VSHALE .V/V   : Shale Volume (GR linear)
SW     .V/V   : Water Saturation (Archie, Rw=0.025)
VHC    .V/V   : Hydrocarbon Volume (PhiE x (1-SW))
NET    .BIN   : Net Reservoir Flag (VSHALE<0.40)
PAY    .BIN   : Pay Flag (NET=1 AND SW<0.60)
CROSS  .V/V   : Neutron-Density Crossover (RHOB-NPHI)
~Params ----------------------------------------------------
FORM .  BOKOR-2                        : Formation / Well ID
RFT  .  1380.0  1420.0  1600.0  1720.0 : RFT sample depths (mMD)
MD_D .  1250.0                         : Measured depth datum (mMD)
TVDSS.  46.20                          : TVD at datum (mTVDSS)
DATUM.  MSL  Mean Sea Level             : Depth datum reference
# Formation Tops (EXPLORATORY_VISUALIZATION — not RFT-confirmed)
# BOKOR-2 is 1.2km NE of BOKOR-1 — slight structural updip
FM_TOP .  1360.0  : Top FMM Formation (Shale) — 45m deeper than BOKOR-1
SS1_TOP.  1520.0  : Top Shallow Sand 1 — downdip vs BOKOR-1
SS1_BOT.  1600.0  : Bottom Shallow Sand 1
SS2_TOP.  1650.0  : Top Deep Sand 2  <-- main gas reservoir (30m deeper than BOKOR-1)
SS2_BOT.  1810.0  : Bottom Deep Sand 2
SS3_TOP.  1920.0  : Top Deep Sand 3
SS3_BOT.  2080.0  : Bottom Deep Sand 3
BASE  .  2130.0  : Base of reservoir section
# Petrophysics cutoffs
RW     .  0.025  : Formation water resistivity (ohm.m)
PHIT  .  0.30   : Total porosity cutoff
VSH_cut .  0.40 : Shale volume cutoff for net pay
SW_cut  .  0.60 : Sw cutoff for pay
CLAIM  .  EXPLORATORY_VISUALIZATION    : Default claim state
~Other -----------------------------------------------------
BOKOR-2 is the second well in the BOKOR field appraisal program.
Drilled April 2024 by PAPC, 1.2km NE of BOKOR-1 on the same structural
closure. Objectives: (1) confirm lateral continuity of SS2 and SS3 fans,
(2) RFT sampling in SS2 gas column. Result: Gas confirmed in SS2 and SS3.
Shows higher porosity in SS2 vs BOKOR-1 due to cleaner sand facies.
Depths are measured from GL (46.2m above MSL). All in mMD.
~ASCII -----------------------------------------------------
# ...
  2325.33440    108.86  1.0000      2.35   2.4468  0.5058   121.87    8.59   2.4468   121.87  0.1749  1.0000  0.3540  0.0000   0.0   0.0  1.9410
  2325.48680    108.86  1.0000      2.35   2.4468  0.5058   121.86    8.59   2.4468   121.86  0.1749  1.0000  0.3539  0.0000   0.0   0.0  1.9410
  2325.63920    108.86  1.0000      2.35   2.4468  0.5057   121.86    8.59   2.4468   121.86  0.1749  1.0000  0.3539  0.0000   0.0   0.0  1.9410
  2325.79160    108.87  1.0000      2.35   2.4468  0.5057   121.86    8.59   2.4468   121.86  0.1749  1.0000  0.3539  0.0000   0.0   0.0  1.9411
  2325.94400    108.87  1.0000      2.35   2.4467  0.5057   121.85    8.59   2.4467   121.85  0.1749  1.0000  0.3539  0.0000   0.0   0.0  1.9411
  2326.09640    108.87  1.0000      2.35   2.4467  0.5057   121.85    8.59   2.4467   121.85  0.1749  1.0000  0.3539  0.0000   0.0   0.0  1.9411
  2326.24880    108.88  1.0000      2.35   2.4467  0.5056   121.85    8.59   2.4467   121.85  0.1749  1.0000  0.3539  0.0000   0.0   0.0  1.9411
  2326.40120    108.88  1.0000      2.35   2.4467  0.5056   121.84    8.59   2.4467   121.84  0.1749  1.0000  0.3539  0.0000   0.0   0.0  1.9411
  2326.55360    108.88  1.0000      2.35   2.4467  0.5056   121.84    8.59   2.4467   121.84  0.1749  1.0000  0.3538  0.0000   0.0   0.0  1.9411
  2326.70600    108.89  1.0000      2.35   2.4466  0.5056   121.83    8.60   2.4466   121.83  0.1749  1.0000  0.3538  0.0000   0.0   0.0  1.9411
  2326.85840    108.89  1.0000      2.35   2.4466  0.5055   121.83    8.60   2.4466   121.83  0.1749  1.0000  0.3538  0.0000   0.0   0.0  1.9411
  2327.01080    108.89  1.0000      2.35   2.4466  0.5055   121.83    8.60   2.4466   121.83  0.1749  1.0000  0.3538  0.0000   0.0   0.0  1.9411
  2327.16320    108.89  1.0000      2.35   2.4466  0.5055   121.82    8.60   2.4466   121.82  0.1749  1.0000  0.3538  0.0000   0.0   0.0  1.9411
  2327.31560    108.90  1.0000      2.35   2.4466  0.5055   121.82    8.60   2.4466   121.82  0.1749  1.0000  0.3538  0.0000   0.0   0.0  1.9411
  2327.46800    108.90  1.0000      2.35   2.4465  0.5054   121.82    8.60   2.4465   121.82  0.1749  1.0000  0.3538  0.0000   0.0   0.0  1.9411
  2327.62040    108.90  1.0000      2.35   2.4465  0.5054   121.81    8.60   2.4465   121.81  0.1749  1.0000  0.3537  0.0000   0.0   0.0  1.9411
  2327.77280    108.91  1.0000      2.35   2.4465  0.5054   121.81    8.60   2.4465   121.81  0.1749  1.0000  0.3537  0.0000   0.0   0.0  1.9411
  2327.92520    108.91  1.0000      2.35   2.4465  0.5054   121.80    8.60   2.4465   121.80  0.1749  1.0000  0.3537  0.0000   0.0   0.0  1.9411
  2328.07760    108.91  1.0000      2.35   2.4464  0.5053   121.80    8.60   2.4464   121.80  0.1749  1.0000  0.3537  0.0000   0.0   0.0  1.9411
  2328.23000    108.92  1.0000      2.35   2.4464  0.5053   121.80    8.60   2.4464   121.80  0.1749  1.0000  0.3537  0.0000   0.0   0.0  1.9411
  2328.38240    108.92  1.0000      2.35   2.4464  0.5053   121.79    8.60   2.4464   121.79  0.1749  1.0000  0.3537  0.0000   0.0   0.0  1.9411
  2328.53480    108.93  1.0000      2.35   2.4464  0.5053   121.79    8.60   2.4464   121.79  0.1749  1.0000  0.3537  0.0000   0.0   0.0  1.9411
  2328.68720    108.93  1.0000      2.35   2.4464  0.5052   121.78    8.60   2.4464   121.78  0.1749  1.0000  0.3536  0.0000   0.0   0.0  1.9411
  2328.83960    108.93  1.0000      2.35   2.4463  0.5052   121.78    8.60   2.4463   121.78  0.1749  1.0000  0.3536  0.0000   0.0   0.0  1.9411
  2328.99200    108.94  1.0000      2.35   2.4463  0.5052   121.78    8.60   2.4463   121.78  0.1749  1.0000  0.3536  0.0000   0.0   0.0  1.9411
  2329.14440    108.94  1.0000      2.35   2.4463  0.5051   121.77    8.60   2.4463   121.77  0.1749  1.0000  0.3536  0.0000   0.0   0.0  1.9411
  2329.29680    108.94  1.0000      2.35   2.4463  0.5051   121.77    8.60   2.4463   121.77  0.1749  1.0000  0.3536  0.0000   0.0   0.0  1.9411
  2329.44920    108.95  1.0000      2.35   2.4463  0.5051   121.76    8.60   2.4463   121.76  0.1749  1.0000  0.3536  0.0000   0.0   0.0  1.9412
  2329.60160    108.95  1.0000      2.35   2.4462  0.5051   121.76    8.60   2.4462   121.76  0.1749  1.0000  0.3536  0.0000   0.0   0.0  1.9412
  2329.75400    108.95  1.0000      2.35   2.4462  0.5050   121.76    8.61   2.4462   121.76  0.1749  1.0000  0.3536  0.0000   0.0   0.0  1.9412
  2329.90640    108.96  1.0000      2.35   2.4462  0.5050   121.75    8.61   2.4462   121.75  0.1749  1.0000  0.3535  0.0000   0.0   0.0  1.9412
  2330.05880    108.96  1.0000      2.35   2.4462  0.5050   121.75    8.61   2.4462   121.75  0.1749  1.0000  0.3535  0.0000   0.0   0.0  1.9412
  2330.21120    108.96  1.0000      2.35   2.4461  0.5050   121.74    8.61   2.4461   121.74  0.1749  1.0000  0.3535  0.0000   0.0   0.0  1.9412
  2330.36360    108.97  1.0000      2.36   2.4461  0.5049   121.74    8.61   2.4461   121.74  0.1749  1.0000  0.3535  0.0000   0.0   0.0  1.9412
  2330.51600    108.97  1.0000      2.36   2.4461  0.5049   121.74    8.61   2.4461   121.74  0.1749  1.0000  0.3535  0.0000   0.0   0.0  1.9412
  2330.66840    108.98  1.0000      2.36   2.4461  0.5049   121.73    8.61   2.4461   121.73  0.1749  1.0000  0.3535  0.0000   0.0   0.0  1.9412
  2330.82080    108.98  1.0000      2.36   2.4461  0.5049   121.73    8.61   2.4461   121.73  0.1749  1.0000  0.3535  0.0000   0.0   0.0  1.9412
  2330.97320    108.98  1.0000      2.36   2.4460  0.5048   121.72    8.61   2.4460   121.72  0.1749  1.0000  0.3534  0.0000   0.0   0.0  1.9412
  2331.12560    108.99  1.0000      2.36   2.4460  0.5048   121.72    8.61   2.4460   121.72  0.1749  1.0000  0.3534  0.0000   0.0   0.0  1.9412
  2331.27800    108.99  1.0000      2.36   2.4460  0.5048   121.72    8.61   2.4460   121.72  0.1749  1.0000  0.3534  0.0000   0.0   0.0  1.9412
  2331.43040    108.99  1.0000      2.36   2.4460  0.5048   121.71    8.61   2.4460   121.71  0.1749  1.0000  0.3534  0.0000   0.0   0.0  1.9412
  2331.58280    109.00  1.0000      2.36   2.4460  0.5047   121.71    8.61   2.4460   121.71  0.1749  1.0000  0.3534  0.0000   0.0   0.0  1.9412
  2331.73520    109.00  1.0000      2.36   2.4459  0.5047   121.70    8.61   2.4459   121.70  0.1749  1.0000  0.3534  0.0000   0.0   0.0  1.9412
  2331.88760    109.01  1.0000      2.36   2.4459  0.5047   121.70    8.61   2.4459   121.70  0.1749  1.0000  0.3534  0.0000   0.0   0.0  1.9412
  2332.04000    109.01  1.0000      2.36   2.4459  0.5046   121.70    8.61   2.4459   121.70  0.1749  1.0000  0.3533  0.0000   0.0   0.0  1.9412
  2332.19240    109.01  1.0000      2.36   2.4459  0.5046   121.69    8.61   2.4459   121.69  0.1748  1.0000  0.3533  0.0000   0.0   0.0  1.9413
  2332.34480    109.02  1.0000      2.36   2.4459  0.5046   121.69    8.61   2.4459   121.69  0.1748  1.0000  0.3533  0.0000   0.0   0.0  1.9413
  2332.49720    109.02  1.0000      2.36   2.4458  0.5046   121.68    8.61   2.4458   121.68  0.1748  1.0000  0.3533  0.0000   0.0   0.0  1.9413
  2332.64960    109.03  1.0000      2.36   2.4458  0.5045   121.68    8.61   2.4458   121.68  0.1748  1.0000  0.3533  0.0000   0.0   0.0  1.9413
  2332.80200    109.03  1.0000      2.36   2.4458  0.5045   121.68    8.61   2.4458   121.68  0.1748  1.0000  0.3533  0.0000   0.0   0.0  1.9413
  2332.95440    109.03  1.0000      2.36   2.4458  0.5045   121.67    8.61   2.4458   121.67  0.1748  1.0000  0.3533  0.0000   0.0   0.0  1.9413
  2333.10680    109.04  1.0000      2.36   2.4457  0.5045   121.67    8.62   2.4457   121.67  0.1748  1.0000  0.3532  0.0000   0.0   0.0  1.9413
  2333.25920    109.04  1.0000      2.36   2.4457  0.5044   121.66    8.62   2.4457   121.66  0.1748  1.0000  0.3532  0.0000   0.0   0.0  1.9413
  2333.41160    109.05  1.0000      2.36   2.4457  0.5044   121.66    8.62   2.4457   121.66  0.1748  1.0000  0.3532  0.0000   0.0   0.0  1.9413
  2333.56400    109.05  1.0000      2.36   2.4457  0.5044   121.66    8.62   2.4457   121.66  0.1748  1.0000  0.3532  0.0000   0.0   0.0  1.9413
  2333.71640    109.06  1.0000      2.36   2.4457  0.5043   121.65    8.62   2.4457   121.65  0.1748  1.0000  0.3532  0.0000   0.0   0.0  1.9413
