~Version --------------------------------------------------
VERS.   2.0 : CWLS log ASCII Standard -VERSION 2.0
WRAP.    NO : One line per depth step
DLM . SPACE : Column Data Section Delimiter
~Well ------------------------------------------------------
STRT.M                   1200.00000 : START DEPTH (mMD)
STOP.                    2500.00000 : STOP DEPTH (mMD)
STEP.                       0.15240 : STEP (m)
NULL.                      -999.25 : NULL VALUE
COMP.  Petroleum Asia Pacific (PAPC)     : COMPANY
WELL.  BOKOR-1                          : WELL
FLD .  BOKOR                            : FIELD
LOC .  Offshore Sarawak, Malaysia Block : LOCATION
PROV.  Sarawak                          : PROVINCE
CNTY.  Sarawak                          : COUNTY
STAT.  Malaysia                        : STATE
CTRY.  Malaysia                        : COUNTRY
SRVC.  Geoquest Malaysia Sdn Bhd       : SERVICE COMPANY
DATE.  2024-03-15                      : LOG DATE
UWI .  BOKOR-1 ST00                     : UNIQUE WELL ID
API .  97MSAW00001B000                  : API NUMBER
EKB .  1234.56                          : ELEVATION KELLY BUSHING (m)
EGL .  1235.20                          : ELEVATION GROUND LEVEL (m)
TDD .  2550.00                          : TOTAL DEPTH DRILLED (mMD)
TVD .  2340.15                          : TOTAL VERTICAL DEPTH (mTVDSS)
~Curve Information -----------------------------------------
DEPT   .M     : Measured Depth (mMD)
GR     .GAPI  : Gamma Ray (Total)
GR_NSH .V/V   : GR Normalized Shale
RT     .OHMM  : Deep Resistivity (Array Induction AI45)
RHOB   .G/CC  : Bulk Density
NPHI   .V/V   : Neutron Porosity (limestone eq)
DT     .US/F  : Sonic Transit Time (compressional)
CALI   .IN    : Caliper
DEN    .G/CC  : Bulk Density (alias)
AC     .US/F  : Sonic Transit Time (alias)
PHI_E  .V/V   : Effective Porosity (DN average)
VSHALE .V/V   : Shale Volume (GR linear)
SW     .V/V   : Water Saturation (Archie, Rw=0.025)
VHC    .V/V   : Hydrocarbon Volume (PhiE x (1-SW))
NET    .BIN   : Net Reservoir Flag (VSHALE<0.40)
PAY    .BIN   : Pay Flag (NET=1 AND SW<0.60)
CROSS  .V/V   : Neutron-Density Crossover (RHOB-NPHI)
~Params ----------------------------------------------------
FORM .  BOKOR-1                        : Formation / Well ID
RFT  .  1350.0  1400.0  1550.0         : RFT sample depths (mMD)
MD_D .  1200.0                         : Measured depth datum (mMD)
TVDSS.  1235.2                         : TVD at datum (mTVDSS)
DATUM.  MSL  Mean Sea Level             : Depth datum reference
# Formation Tops (EXPLORATORY_VISUALIZATION — not RFT-confirmed)
FM_TOP .  1315.0  : Top FMM Formation (Shale)
SS1_TOP.  1480.0  : Top Shallow Sand 1
SS1_BOT.  1560.0  : Bottom Shallow Sand 1
SS2_TOP.  1620.0  : Top Deep Sand 2  <-- main gas reservoir
SS2_BOT.  1780.0  : Bottom Deep Sand 2
SS3_TOP.  1890.0  : Top Deep Sand 3
SS3_BOT.  2050.0  : Bottom Deep Sand 3
BASE  .  2100.0  : Base of reservoir section
# Petrophysics cutoffs
RW     .  0.025  : Formation water resistivity (ohm.m)
PHIT  .  0.30   : Total porosity cutoff
VSH_cut .  0.40 : Shale volume cutoff for net pay
SW_cut  .  0.60 : Sw cutoff for pay
CLAIM  .  EXPLORATORY_VISUALIZATION    : Default claim state
~Other -----------------------------------------------------
BOKOR-1 was drilled by PAPC in March 2024 as a wildcat exploration
well to test Miocene turbidite sands in the BOKOR structural closure.
Result: Gas shows in SS2 and SS3. RFT confirmation pending.
Depths are measured from GL (1235.2m above MSL). All in mMD.
~ASCII -----------------------------------------------------
# ...
  2232.66240    110.72  1.0000      2.12   2.4588  0.5062   123.93    8.37   2.4588   123.93  0.1545  1.0000  0.4215  0.0000   0.0   0.0  1.9525
  2232.81480    110.73  1.0000      2.12   2.4587  0.5062   123.94    8.37   2.4587   123.94  0.1545  1.0000  0.4214  0.0000   0.0   0.0  1.9525
  2232.96720    110.75  1.0000      2.12   2.4587  0.5063   123.94    8.37   2.4587   123.94  0.1545  1.0000  0.4214  0.0000   0.0   0.0  1.9525
  2233.11960    110.76  1.0000      2.12   2.4587  0.5063   123.94    8.37   2.4587   123.94  0.1545  1.0000  0.4214  0.0000   0.0   0.0  1.9524
  2233.27200    110.78  1.0000      2.12   2.4587  0.5063   123.95    8.37   2.4587   123.95  0.1545  1.0000  0.4213  0.0000   0.0   0.0  1.9524
  2233.42440    110.79  1.0000      2.12   2.4587  0.5063   123.95    8.37   2.4587   123.95  0.1545  1.0000  0.4213  0.0000   0.0   0.0  1.9524
  2233.57680    110.80  1.0000      2.12   2.4587  0.5064   123.95    8.37   2.4587   123.95  0.1545  1.0000  0.4213  0.0000   0.0   0.0  1.9523
  2233.72920    110.82  1.0000      2.12   2.4587  0.5064   123.96    8.37   2.4587   123.96  0.1545  1.0000  0.4213  0.0000   0.0   0.0  1.9523
  2233.88160    110.83  1.0000      2.13   2.4587  0.5064   123.96    8.37   2.4587   123.96  0.1545  1.0000  0.4212  0.0000   0.0   0.0  1.9523
  2234.03400    110.85  1.0000      2.13   2.4587  0.5064   123.96    8.37   2.4587   123.96  0.1545  1.0000  0.4212  0.0000   0.0   0.0  1.9522
  2234.18640    110.86  1.0000      2.13   2.4586  0.5065   123.97    8.37   2.4586   123.97  0.1545  1.0000  0.4212  0.0000   0.0   0.0  1.9522
  2234.33880    110.88  1.0000      2.13   2.4586  0.5065   123.97    8.37   2.4586   123.97  0.1545  1.0000  0.4212  0.0000   0.0   0.0  1.9522
  2234.49120    110.89  1.0000      2.13   2.4586  0.5065   123.97    8.37   2.4586   123.97  0.1545  1.0000  0.4211  0.0000   0.0   0.0  1.9521
  2234.64360    110.90  1.0000      2.13   2.4586  0.5065   123.98    8.37   2.4586   123.98  0.1545  1.0000  0.4211  0.0000   0.0   0.0  1.9521
  2234.79600    110.92  1.0000      2.13   2.4586  0.5065   123.98    8.37   2.4586   123.98  0.1545  1.0000  0.4211  0.0000   0.0   0.0  1.9521
  2234.94840    110.93  1.0000      2.13   2.4586  0.5066   123.99    8.37   2.4586   123.99  0.1545  1.0000  0.4211  0.0000   0.0   0.0  1.9520
  2235.10080    110.95  1.0000      2.13   2.4586  0.5066   123.99    8.37   2.4586   123.99  0.1545  1.0000  0.4210  0.0000   0.0   0.0  1.9520
  2235.25320    110.96  1.0000      2.13   2.4586  0.5066   123.99    8.37   2.4586   123.99  0.1545  1.0000  0.4210  0.0000   0.0   0.0  1.9520
  2235.40560    110.98  1.0000      2.13   2.4586  0.5066   124.00    8.37   2.4586   124.00  0.1545  1.0000  0.4210  0.0000   0.0   0.0  1.9519
  2235.55800    110.99  1.0000      2.13   2.4585  0.5067   124.00    8.37   2.4585   124.00  0.1545  1.0000  0.4209  0.0000   0.0   0.0  1.9519
  2235.71040    111.00  1.0000      2.13   2.4585  0.5067   124.00    8.37   2.4585   124.00  0.1545  1.0000  0.4209  0.0000   0.0   0.0  1.9518
  2235.86280    111.02  1.0000      2.13   2.4585  0.5067   124.01    8.37   2.4585   124.01  0.1545  1.0000  0.4209  0.0000   0.0   0.0  1.9518
  2236.01520    111.03  1.0000      2.13   2.4585  0.5067   124.01    8.37   2.4585   124.01  0.1545  1.0000  0.4209  0.0000   0.0   0.0  1.9518
  2236.16760    111.05  1.0000      2.13   2.4585  0.5068   124.01    8.37   2.4585   124.01  0.1545  1.0000  0.4208  0.0000   0.0   0.0  1.9517
  2236.32000    111.06  1.0000      2.13   2.4585  0.5068   124.02    8.37   2.4585   124.02  0.1545  1.0000  0.4208  0.0000   0.0   0.0  1.9517
  2236.47240    111.07  1.0000      2.13   2.4585  0.5068   124.02    8.36   2.4585   124.02  0.1545  1.0000  0.4208  0.0000   0.0   0.0  1.9517
  2236.62480    111.09  1.0000      2.13   2.4585  0.5068   124.02    8.36   2.4585   124.02  0.1545  1.0000  0.4208  0.0000   0.0   0.0  1.9516
  2236.77720    111.10  1.0000      2.13   2.4584  0.5068   124.03    8.36   2.4584   124.03  0.1544  1.0000  0.4207  0.0000   0.0   0.0  1.9516
  2236.92960    111.12  1.0000      2.13   2.4584  0.5069   124.03    8.36   2.4584   124.03  0.1544  1.0000  0.4207  0.0000   0.0   0.0  1.9516
  2237.08200    111.13  1.0000      2.13   2.4584  0.5069   124.03    8.36   2.4584   124.03  0.1544  1.0000  0.4207  0.0000   0.0   0.0  1.9515
  2237.23440    111.14  1.0000      2.13   2.4584  0.5069   124.04    8.36   2.4584   124.04  0.1544  1.0000  0.4207  0.0000   0.0   0.0  1.9515
  2237.38680    111.16  1.0000      2.13   2.4584  0.5069   124.04    8.36   2.4584   124.04  0.1544  1.0000  0.4206  0.0000   0.0   0.0  1.9515
  2237.53920    111.17  1.0000      2.13   2.4584  0.5070   124.04    8.36   2.4584   124.04  0.1544  1.0000  0.4206  0.0000   0.0   0.0  1.9514
  2237.69160    111.18  1.0000      2.13   2.4584  0.5070   124.05    8.36   2.4584   124.05  0.1544  1.0000  0.4206  0.0000   0.0   0.0  1.9514
  2237.84400    111.20  1.0000      2.13   2.4584  0.5070   124.05    8.36   2.4584   124.05  0.1544  1.0000  0.4205  0.0000   0.0   0.0  1.9514
  2237.99640    111.21  1.0000      2.13   2.4583  0.5070   124.05    8.36   2.4583   124.05  0.1544  1.0000  0.4205  0.0000   0.0   0.0  1.9513
  2238.14880    111.23  1.0000      2.13   2.4583  0.5070   124.06    8.36   2.4583   124.06  0.1544  1.0000  0.4205  0.0000   0.0   0.0  1.9513
  2238.30120    111.24  1.0000      2.13   2.4583  0.5071   124.06    8.36   2.4583   124.06  0.1544  1.0000  0.4205  0.0000   0.0   0.0  1.9513
  2238.45360    111.25  1.0000      2.14   2.4583  0.5071   124.06    8.36   2.4583   124.06  0.1544  1.0000  0.4204  0.0000   0.0   0.0  1.9512
  2238.60600    111.27  1.0000      2.14   2.4583  0.5071   124.07    8.36   2.4583   124.07  0.1544  1.0000  0.4204  0.0000   0.0   0.0  1.9512
  2238.75840    111.28  1.0000      2.14   2.4583  0.5071   124.07    8.36   2.4583   124.07  0.1544  1.0000  0.4204  0.0000   0.0   0.0  1.9512
  2238.91080    111.29  1.0000      2.14   2.4583  0.5071   124.07    8.36   2.4583   124.07  0.1544  1.0000  0.4204  0.0000   0.0   0.0  1.9511
  2239.06320    111.31  1.0000      2.14   2.4583  0.5072   124.07    8.36   2.4583   124.07  0.1544  1.0000  0.4203  0.0000   0.0   0.0  1.9511
  2239.21560    111.32  1.0000      2.14   2.4582  0.5072   124.08    8.36   2.4582   124.08  0.1544  1.0000  0.4203  0.0000   0.0   0.0  1.9511
  2239.36800    111.33  1.0000      2.14   2.4582  0.5072   124.08    8.36   2.4582   124.08  0.1544  1.0000  0.4203  0.0000   0.0   0.0  1.9510
  2239.52040    111.35  1.0000      2.14   2.4582  0.5072   124.08    8.36   2.4582   124.08  0.1544  1.0000  0.4203  0.0000   0.0   0.0  1.9510
  2239.67280    111.36  1.0000      2.14   2.4582  0.5073   124.09    8.36   2.4582   124.09  0.1544  1.0000  0.4202  0.0000   0.0   0.0  1.9510
  2239.82520    111.37  1.0000      2.14   2.4582  0.5073   124.09    8.36   2.4582   124.09  0.1544  1.0000  0.4202  0.0000   0.0   0.0  1.9509
  2239.97760    111.39  1.0000      2.14   2.4582  0.5073   124.09    8.36   2.4582   124.09  0.1544  1.0000  0.4202  0.0000   0.0   0.0  1.9509
  2240.13000    111.40  1.0000      2.14   2.4582  0.5073   124.10    8.36   2.4582   124.10  0.1544  1.0000  0.4201  0.0000   0.0   0.0  1.9509
  2240.28240    111.41  1.0000      2.14   2.4582  0.5073   124.10    8.36   2.4582   124.10  0.1544  1.0000  0.4201  0.0000   0.0   0.0  1.9508
  2240.43480    111.43  1.0000      2.14   2.4581  0.5074   124.10    8.36   2.4581   124.10  0.1544  1.0000  0.4201  0.0000   0.0   0.0  1.9508
  2240.58720    111.44  1.0000      2.14   2.4581  0.5074   124.11    8.36   2.4581   124.11  0.1544  1.0000  0.4201  0.0000   0.0   0.0  1.9508
  2240.73960    111.45  1.0000      2.14   2.4581  0.5074   124.11    8.36   2.4581   124.11  0.1544  1.0000  0.4200  0.0000   0.0   0.0  1.9507
  2240.89200    111.47  1.0000      2.14   2.4581  0.5074   124.11    8.36   2.4581   124.11  0.1544  1.0000  0.4200  0.0000   0.0   0.0  1.9507
  2241.04440    111.48  1.0000      2.14   2.4581  0.5074   124.12    8.36   2.4581   124.12  0.1544  1.0000  0.4200  0.0000   0.0   0.0  1.9506
