~Version --------------------------------------------------
VERS.   2.0 : CWLS log ASCII Standard -VERSION 2.0
WRAP.    NO : One line per depth step
DLM . SPACE : Column Data Section Delimiter
~Well ------------------------------------------------------
STRT.M                   1250.00000 : START DEPTH (mMD)
STOP.                    2600.00000 : STOP DEPTH (mMD)
STEP.                       0.15240 : STEP (m)
NULL.                      -999.25 : NULL VALUE
COMP.  Petroleum Asia Pacific (PAPC)     : COMPANY
WELL.  BOKOR-2                          : WELL
FLD .  BOKOR                            : FIELD
LOC .  Offshore Sarawak, Malaysia Block : LOCATION
PROV.  Sarawak                          : PROVINCE
CNTY.  Sarawak                          : COUNTY
STAT.  Malaysia                        : STATE
CTRY.  Malaysia                        : COUNTRY
SRVC.  Geoquest Malaysia Sdn Bhd       : SERVICE COMPANY
DATE.  2024-04-22                      : LOG DATE
UWI .  BOKOR-2 ST00                     : UNIQUE WELL ID
API .  97MSAW00002B000                  : API NUMBER
EKB .  45.80                           : ELEVATION KELLY BUSHING (m)
EGL .  46.20                           : ELEVATION GROUND LEVEL (m)
TDD .  2640.00                          : TOTAL DEPTH DRILLED (mMD)
TVD .  2431.00                          : TOTAL VERTICAL DEPTH (mTVDSS)
~Curve Information -----------------------------------------
DEPT   .M     : Measured Depth (mMD)
GR     .GAPI  : Gamma Ray (Total)
GR_NSH .V/V   : GR Normalized Shale
RT     .OHMM  : Deep Resistivity (Array Induction AI45)
RHOB   .G/CC  : Bulk Density
NPHI   .V/V   : Neutron Porosity (limestone eq)
DT     .US/F  : Sonic Transit Time (compressional)
CALI   .IN    : Caliper
DEN    .G/CC  : Bulk Density (alias)
AC     .US/F  : Sonic Transit Time (alias)
PHI_E  .V/V   : Effective Porosity (DN average)
VSHALE .V/V   : Shale Volume (GR linear)
SW     .V/V   : Water Saturation (Archie, Rw=0.025)
VHC    .V/V   : Hydrocarbon Volume (PhiE x (1-SW))
NET    .BIN   : Net Reservoir Flag (VSHALE<0.40)
PAY    .BIN   : Pay Flag (NET=1 AND SW<0.60)
CROSS  .V/V   : Neutron-Density Crossover (RHOB-NPHI)
~Params ----------------------------------------------------
FORM .  BOKOR-2                        : Formation / Well ID
RFT  .  1380.0  1420.0  1600.0  1720.0 : RFT sample depths (mMD)
MD_D .  1250.0                         : Measured depth datum (mMD)
TVDSS.  46.20                          : TVD at datum (mTVDSS)
DATUM.  MSL  Mean Sea Level             : Depth datum reference
# Formation Tops (EXPLORATORY_VISUALIZATION — not RFT-confirmed)
# BOKOR-2 is 1.2km NE of BOKOR-1 — slight structural updip
FM_TOP .  1360.0  : Top FMM Formation (Shale) — 45m deeper than BOKOR-1
SS1_TOP.  1520.0  : Top Shallow Sand 1 — downdip vs BOKOR-1
SS1_BOT.  1600.0  : Bottom Shallow Sand 1
SS2_TOP.  1650.0  : Top Deep Sand 2  <-- main gas reservoir (30m deeper than BOKOR-1)
SS2_BOT.  1810.0  : Bottom Deep Sand 2
SS3_TOP.  1920.0  : Top Deep Sand 3
SS3_BOT.  2080.0  : Bottom Deep Sand 3
BASE  .  2130.0  : Base of reservoir section
# Petrophysics cutoffs
RW     .  0.025  : Formation water resistivity (ohm.m)
PHIT  .  0.30   : Total porosity cutoff
VSH_cut .  0.40 : Shale volume cutoff for net pay
SW_cut  .  0.60 : Sw cutoff for pay
CLAIM  .  EXPLORATORY_VISUALIZATION    : Default claim state
~Other -----------------------------------------------------
BOKOR-2 is the second well in the BOKOR field appraisal program.
Drilled April 2024 by PAPC, 1.2km NE of BOKOR-1 on the same structural
closure. Objectives: (1) confirm lateral continuity of SS2 and SS3 fans,
(2) RFT sampling in SS2 gas column. Result: Gas confirmed in SS2 and SS3.
Shows higher porosity in SS2 vs BOKOR-1 due to cleaner sand facies.
Depths are measured from GL (46.2m above MSL). All in mMD.
~ASCII -----------------------------------------------------
  1250.00000    114.08  1.0000      1.50   2.4490  0.4987   120.80    8.47   2.4490   120.80  0.1900  1.0000  0.4077  0.0000   0.0   0.0  1.9503
  1250.15240    114.08  1.0000      1.50   2.4490  0.4987   120.81    8.47   2.4490   120.81  0.1900  1.0000  0.4077  0.0000   0.0   0.0  1.9503
  1250.30480    114.09  1.0000      1.50   2.4491  0.4987   120.81    8.47   2.4491   120.81  0.1900  1.0000  0.4078  0.0000   0.0   0.0  1.9503
  1250.45720    114.10  1.0000      1.50   2.4491  0.4988   120.82    8.47   2.4491   120.82  0.1900  1.0000  0.4078  0.0000   0.0   0.0  1.9503
  1250.60960    114.11  1.0000      1.50   2.4491  0.4988   120.82    8.47   2.4491   120.82  0.1900  1.0000  0.4079  0.0000   0.0   0.0  1.9503
  1250.76200    114.11  1.0000      1.50   2.4491  0.4988   120.82    8.47   2.4491   120.82  0.1900  1.0000  0.4079  0.0000   0.0   0.0  1.9503
  1250.91440    114.12  1.0000      1.50   2.4491  0.4989   120.83    8.47   2.4491   120.83  0.1900  1.0000  0.4079  0.0000   0.0   0.0  1.9503
  1251.06680    114.13  1.0000      1.50   2.4492  0.4989   120.83    8.48   2.4492   120.83  0.1900  1.0000  0.4080  0.0000   0.0   0.0  1.9503
  1251.21920    114.13  1.0000      1.50   2.4492  0.4989   120.84    8.48   2.4492   120.84  0.1900  1.0000  0.4080  0.0000   0.0   0.0  1.9503
  1251.37160    114.14  1.0000      1.50   2.4492  0.4989   120.84    8.48   2.4492   120.84  0.1900  1.0000  0.4081  0.0000   0.0   0.0  1.9503
  1251.52400    114.15  1.0000      1.50   2.4492  0.4990   120.85    8.48   2.4492   120.85  0.1900  1.0000  0.4081  0.0000   0.0   0.0  1.9503
  1251.67640    114.16  1.0000      1.50   2.4493  0.4990   120.85    8.48   2.4493   120.85  0.1900  1.0000  0.4081  0.0000   0.0   0.0  1.9502
  1251.82880    114.16  1.0000      1.50   2.4493  0.4990   120.86    8.48   2.4493   120.86  0.1900  1.0000  0.4082  0.0000   0.0   0.0  1.9502
  1251.98120    114.17  1.0000      1.50   2.4493  0.4991   120.86    8.48   2.4493   120.86  0.1900  1.0000  0.4082  0.0000   0.0   0.0  1.9502
  1252.13360    114.18  1.0000      1.50   2.4493  0.4991   120.87    8.48   2.4493   120.87  0.1900  1.0000  0.4083  0.0000   0.0   0.0  1.9502
  1252.28600    114.18  1.0000      1.50   2.4493  0.4991   120.87    8.48   2.4493   120.87  0.1900  1.0000  0.4083  0.0000   0.0   0.0  1.9502
  1252.43840    114.19  1.0000      1.50   2.4494  0.4992   120.87    8.48   2.4494   120.87  0.1900  1.0000  0.4083  0.0000   0.0   0.0  1.9502
  1252.59080    114.20  1.0000      1.50   2.4494  0.4992   120.88    8.48   2.4494   120.88  0.1900  1.0000  0.4084  0.0000   0.0   0.0  1.9502
  1252.74320    114.20  1.0000      1.50   2.4494  0.4992   120.88    8.48   2.4494   120.88  0.1900  1.0000  0.4084  0.0000   0.0   0.0  1.9502
  1252.89560    114.21  1.0000      1.49   2.4494  0.4993   120.89    8.48   2.4494   120.89  0.1900  1.0000  0.4085  0.0000   0.0   0.0  1.9502
  1253.04800    114.22  1.0000      1.49   2.4495  0.4993   120.89    8.48   2.4495   120.89  0.1900  1.0000  0.4085  0.0000   0.0   0.0  1.9502
  1253.20040    114.22  1.0000      1.49   2.4495  0.4993   120.90    8.48   2.4495   120.90  0.1900  1.0000  0.4085  0.0000   0.0   0.0  1.9502
  1253.35280    114.23  1.0000      1.49   2.4495  0.4993   120.90    8.49   2.4495   120.90  0.1900  1.0000  0.4086  0.0000   0.0   0.0  1.9502
  1253.50520    114.24  1.0000      1.49   2.4495  0.4994   120.91    8.49   2.4495   120.91  0.1900  1.0000  0.4086  0.0000   0.0   0.0  1.9502
  1253.65760    114.24  1.0000      1.49   2.4496  0.4994   120.91    8.49   2.4496   120.91  0.1899  1.0000  0.4087  0.0000   0.0   0.0  1.9501
  1253.81000    114.25  1.0000      1.49   2.4496  0.4994   120.92    8.49   2.4496   120.92  0.1899  1.0000  0.4087  0.0000   0.0   0.0  1.9501
  1253.96240    114.26  1.0000      1.49   2.4496  0.4995   120.92    8.49   2.4496   120.92  0.1899  1.0000  0.4087  0.0000   0.0   0.0  1.9501
  1254.11480    114.26  1.0000      1.49   2.4496  0.4995   120.92    8.49   2.4496   120.92  0.1899  1.0000  0.4088  0.0000   0.0   0.0  1.9501
  1254.26720    114.27  1.0000      1.49   2.4496  0.4995   120.93    8.49   2.4496   120.93  0.1899  1.0000  0.4088  0.0000   0.0   0.0  1.9501
  1254.41960    114.28  1.0000      1.49   2.4497  0.4996   120.93    8.49   2.4497   120.93  0.1899  1.0000  0.4089  0.0000   0.0   0.0  1.9501
  1254.57200    114.28  1.0000      1.49   2.4497  0.4996   120.94    8.49   2.4497   120.94  0.1899  1.0000  0.4089  0.0000   0.0   0.0  1.9501
  1254.72440    114.29  1.0000      1.49   2.4497  0.4996   120.94    8.49   2.4497   120.94  0.1899  1.0000  0.4089  0.0000   0.0   0.0  1.9501
  1254.87680    114.29  1.0000      1.49   2.4497  0.4996   120.95    8.49   2.4497   120.95  0.1899  1.0000  0.4090  0.0000   0.0   0.0  1.9501
  1255.02920    114.30  1.0000      1.49   2.4498  0.4997   120.95    8.49   2.4498   120.95  0.1899  1.0000  0.4090  0.0000   0.0   0.0  1.9501
  1255.18160    114.31  1.0000      1.49   2.4498  0.4997   120.96    8.49   2.4498   120.96  0.1899  1.0000  0.4091  0.0000   0.0   0.0  1.9501
  1255.33400    114.31  1.0000      1.49   2.4498  0.4997   120.96    8.49   2.4498   120.96  0.1899  1.0000  0.4091  0.0000   0.0   0.0  1.9501
  1255.48640    114.32  1.0000      1.49   2.4498  0.4998   120.97    8.49   2.4498   120.97  0.1899  1.0000  0.4091  0.0000   0.0   0.0  1.9501
  1255.63880    114.32  1.0000      1.49   2.4499  0.4998   120.97    8.50   2.4499   120.97  0.1899  1.0000  0.4092  0.0000   0.0   0.0  1.9500
  1255.79120    114.33  1.0000      1.49   2.4499  0.4998   120.97    8.50   2.4499   120.97  0.1899  1.0000  0.4092  0.0000   0.0   0.0  1.9500
  1255.94360    114.34  1.0000      1.49   2.4499  0.4999   120.98    8.50   2.4499   120.98  0.1899  1.0000  0.4093  0.0000   0.0   0.0  1.9500
  1256.09600    114.34  1.0000      1.49   2.4499  0.4999   120.98    8.50   2.4499   120.98  0.1899  1.0000  0.4093  0.0000   0.0   0.0  1.9500
  1256.24840    114.35  1.0000      1.49   2.4499  0.4999   120.99    8.50   2.4499   120.99  0.1899  1.0000  0.4093  0.0000   0.0   0.0  1.9500
  1256.40080    114.35  1.0000      1.49   2.4500  0.5000   120.99    8.50   2.4500   120.99  0.1899  1.0000  0.4094  0.0000   0.0   0.0  1.9500
  1256.55320    114.36  1.0000      1.49   2.4500  0.5000   121.00    8.50   2.4500   121.00  0.1899  1.0000  0.4094  0.0000   0.0   0.0  1.9500
  1256.70560    114.37  1.0000      1.49   2.4500  0.5000   121.00    8.50   2.4500   121.00  0.1899  1.0000  0.4095  0.0000   0.0   0.0  1.9500
  1256.85800    114.37  1.0000      1.49   2.4500  0.5000   121.01    8.50   2.4500   121.01  0.1899  1.0000  0.4095  0.0000   0.0   0.0  1.9500
  1257.01040    114.38  1.0000      1.49   2.4501  0.5001   121.01    8.50   2.4501   121.01  0.1899  1.0000  0.4095  0.0000   0.0   0.0  1.9500
  1257.16280    114.38  1.0000      1.49   2.4501  0.5001   121.02    8.50   2.4501   121.02  0.1899  1.0000  0.4096  0.0000   0.0   0.0  1.9500
  1257.31520    114.39  1.0000      1.49   2.4501  0.5001   121.02    8.50   2.4501   121.02  0.1899  1.0000  0.4096  0.0000   0.0   0.0  1.9500
  1257.46760    114.39  1.0000      1.49   2.4501  0.5002   121.02    8.50   2.4501   121.02  0.1899  1.0000  0.4097  0.0000   0.0   0.0  1.9500
  1257.62000    114.40  1.0000      1.49   2.4501  0.5002   121.03    8.50   2.4501   121.03  0.1899  1.0000  0.4097  0.0000   0.0   0.0  1.9500
  1257.77240    114.41  1.0000      1.49   2.4502  0.5002   121.03    8.51   2.4502   121.03  0.1899  1.0000  0.4097  0.0000   0.0   0.0  1.9499
  1257.92480    114.41  1.0000      1.49   2.4502  0.5003   121.04    8.51   2.4502   121.04  0.1899  1.0000  0.4098  0.0000   0.0   0.0  1.9499
  1258.07720    114.42  1.0000      1.49   2.4502  0.5003   121.04    8.51   2.4502   121.04  0.1899  1.0000  0.4098  0.0000   0.0   0.0  1.9499
  1258.22960    114.42  1.0000      1.49   2.4502  0.5003   121.05    8.51   2.4502   121.05  0.1899  1.0000  0.4099  0.0000   0.0   0.0  1.9499
  1258.38200    114.43  1.0000      1.49   2.4503  0.5003   121.05    8.51   2.4503   121.05  0.1899  1.0000  0.4099  0.0000   0.0   0.0  1.9499
