~Version --------------------------------------------------
VERS.   2.0 : CWLS log ASCII Standard -VERSION 2.0
WRAP.    NO : One line per depth step
DLM . SPACE : Column Data Section Delimiter
~Well ------------------------------------------------------
STRT.M                   1200.00000 : START DEPTH (mMD)
STOP.                    2500.00000 : STOP DEPTH (mMD)
STEP.                       0.15240 : STEP (m)
NULL.                      -999.25 : NULL VALUE
COMP.  Petroleum Asia Pacific (PAPC)     : COMPANY
WELL.  BOKOR-1                          : WELL
FLD .  BOKOR                            : FIELD
LOC .  Offshore Sarawak, Malaysia Block : LOCATION
PROV.  Sarawak                          : PROVINCE
CNTY.  Sarawak                          : COUNTY
STAT.  Malaysia                        : STATE
CTRY.  Malaysia                        : COUNTRY
SRVC.  Geoquest Malaysia Sdn Bhd       : SERVICE COMPANY
DATE.  2024-03-15                      : LOG DATE
UWI .  BOKOR-1 ST00                     : UNIQUE WELL ID
API .  97MSAW00001B000                  : API NUMBER
EKB .  1234.56                          : ELEVATION KELLY BUSHING (m)
EGL .  1235.20                          : ELEVATION GROUND LEVEL (m)
TDD .  2550.00                          : TOTAL DEPTH DRILLED (mMD)
TVD .  2340.15                          : TOTAL VERTICAL DEPTH (mTVDSS)
~Curve Information -----------------------------------------
DEPT   .M     : Measured Depth (mMD)
GR     .GAPI  : Gamma Ray (Total)
GR_NSH .V/V   : GR Normalized Shale
RT     .OHMM  : Deep Resistivity (Array Induction AI45)
RHOB   .G/CC  : Bulk Density
NPHI   .V/V   : Neutron Porosity (limestone eq)
DT     .US/F  : Sonic Transit Time (compressional)
CALI   .IN    : Caliper
DEN    .G/CC  : Bulk Density (alias)
AC     .US/F  : Sonic Transit Time (alias)
PHI_E  .V/V   : Effective Porosity (DN average)
VSHALE .V/V   : Shale Volume (GR linear)
SW     .V/V   : Water Saturation (Archie, Rw=0.025)
VHC    .V/V   : Hydrocarbon Volume (PhiE x (1-SW))
NET    .BIN   : Net Reservoir Flag (VSHALE<0.40)
PAY    .BIN   : Pay Flag (NET=1 AND SW<0.60)
CROSS  .V/V   : Neutron-Density Crossover (RHOB-NPHI)
~Params ----------------------------------------------------
FORM .  BOKOR-1                        : Formation / Well ID
RFT  .  1350.0  1400.0  1550.0         : RFT sample depths (mMD)
MD_D .  1200.0                         : Measured depth datum (mMD)
TVDSS.  1235.2                         : TVD at datum (mTVDSS)
DATUM.  MSL  Mean Sea Level             : Depth datum reference
# Formation Tops (EXPLORATORY_VISUALIZATION — not RFT-confirmed)
FM_TOP .  1315.0  : Top FMM Formation (Shale)
SS1_TOP.  1480.0  : Top Shallow Sand 1
SS1_BOT.  1560.0  : Bottom Shallow Sand 1
SS2_TOP.  1620.0  : Top Deep Sand 2  <-- main gas reservoir
SS2_BOT.  1780.0  : Bottom Deep Sand 2
SS3_TOP.  1890.0  : Top Deep Sand 3
SS3_BOT.  2050.0  : Bottom Deep Sand 3
BASE  .  2100.0  : Base of reservoir section
# Petrophysics cutoffs
RW     .  0.025  : Formation water resistivity (ohm.m)
PHIT  .  0.30   : Total porosity cutoff
VSH_cut .  0.40 : Shale volume cutoff for net pay
SW_cut  .  0.60 : Sw cutoff for pay
CLAIM  .  EXPLORATORY_VISUALIZATION    : Default claim state
~Other -----------------------------------------------------
BOKOR-1 was drilled by PAPC in March 2024 as a wildcat exploration
well to test Miocene turbidite sands in the BOKOR structural closure.
Result: Gas shows in SS2 and SS3. RFT confirmation pending.
Depths are measured from GL (1235.2m above MSL). All in mMD.
~ASCII -----------------------------------------------------
# ...
  1891.28640     17.54  0.0000     15.00   2.3196  0.2013    94.19    8.53   2.3196    94.19  0.3096  0.0000  0.1319  0.2688   1.0   1.0  2.1184
  1891.43880     17.55  0.0000     15.00   2.3196  0.2013    94.19    8.53   2.3196    94.19  0.3096  0.0000  0.1319  0.2688   1.0   1.0  2.1183
  1891.59120     17.56  0.0000     15.00   2.3196  0.2013    94.20    8.53   2.3196    94.20  0.3096  0.0000  0.1319  0.2688   1.0   1.0  2.1183
  1891.74360     17.56  0.0000     15.00   2.3196  0.2014    94.20    8.53   2.3196    94.20  0.3096  0.0000  0.1319  0.2688   1.0   1.0  2.1182
  1891.89600     17.57  0.0000     15.00   2.3195  0.2014    94.21    8.53   2.3195    94.21  0.3096  0.0000  0.1319  0.2688   1.0   1.0  2.1182
  1892.04840     17.58  0.0000     15.00   2.3195  0.2014    94.21    8.53   2.3195    94.21  0.3096  0.0000  0.1319  0.2688   1.0   1.0  2.1181
  1892.20080     17.59  0.0000     15.00   2.3195  0.2014    94.22    8.53   2.3195    94.22  0.3096  0.0000  0.1319  0.2688   1.0   1.0  2.1180
  1892.35320     17.59  0.0000     15.00   2.3195  0.2015    94.22    8.53   2.3195    94.22  0.3096  0.0000  0.1319  0.2688   1.0   1.0  2.1180
  1892.50560     17.60  0.0000     15.00   2.3194  0.2015    94.23    8.53   2.3194    94.23  0.3096  0.0000  0.1319  0.2688   1.0   1.0  2.1179
  1892.65800     17.61  0.0000     15.00   2.3194  0.2015    94.23    8.53   2.3194    94.23  0.3096  0.0000  0.1319  0.2688   1.0   1.0  2.1179
  1892.81040     17.61  0.0000     15.00   2.3194  0.2016    94.23    8.54   2.3194    94.23  0.3096  0.0000  0.1319  0.2688   1.0   1.0  2.1178
  1892.96280     17.62  0.0000     15.00   2.3194  0.2016    94.24    8.54   2.3194    94.24  0.3096  0.0000  0.1319  0.2688   1.0   1.0  2.1178
  1893.11520     17.63  0.0000     15.00   2.3194  0.2016    94.24    8.54   2.3194    94.24  0.3096  0.0000  0.1319  0.2688   1.0   1.0  2.1177
  1893.26760     17.64  0.0000     15.00   2.3193  0.2017    94.25    8.54   2.3193    94.25  0.3096  0.0000  0.1319  0.2688   1.0   1.0  2.1177
  1893.42000     17.64  0.0000     15.00   2.3193  0.2017    94.25    8.54   2.3193    94.25  0.3096  0.0000  0.1319  0.2688   1.0   1.0  2.1176
  1893.57240     17.65  0.0000     15.00   2.3193  0.2017    94.26    8.54   2.3193    94.26  0.3096  0.0000  0.1319  0.2688   1.0   1.0  2.1176
  1893.72480     17.66  0.0000     15.00   2.3193  0.2017    94.26    8.54   2.3193    94.26  0.3096  0.0000  0.1319  0.2688   1.0   1.0  2.1175
  1893.87720     17.67  0.0000     15.00   2.3192  0.2018    94.27    8.54   2.3192    94.27  0.3096  0.0000  0.1319  0.2688   1.0   1.0  2.1175
  1894.02960     17.67  0.0000     15.00   2.3192  0.2018    94.27    8.54   2.3192    94.27  0.3096  0.0000  0.1319  0.2688   1.0   1.0  2.1174
  1894.18200     17.68  0.0000     15.00   2.3192  0.2018    94.28    8.54   2.3192    94.28  0.3096  0.0000  0.1319  0.2688   1.0   1.0  2.1174
  1894.33440     17.69  0.0000     15.00   2.3192  0.2019    94.28    8.54   2.3192    94.28  0.3096  0.0000  0.1319  0.2688   1.0   1.0  2.1173
  1894.48680     17.69  0.0000     15.00   2.3192  0.2019    94.28    8.54   2.3192    94.28  0.3096  0.0000  0.1319  0.2688   1.0   1.0  2.1173
  1894.63920     17.70  0.0000     15.00   2.3191  0.2019    94.29    8.54   2.3191    94.29  0.3096  0.0000  0.1319  0.2688   1.0   1.0  2.1172
  1894.79160     17.71  0.0000     15.00   2.3191  0.2020    94.29    8.54   2.3191    94.29  0.3096  0.0000  0.1319  0.2688   1.0   1.0  2.1172
  1894.94400     17.72  0.0000     15.00   2.3191  0.2020    94.30    8.54   2.3191    94.30  0.3096  0.0000  0.1319  0.2688   1.0   1.0  2.1171
  1895.09640     17.72  0.0000     15.00   2.3191  0.2020    94.30    8.54   2.3191    94.30  0.3096  0.0000  0.1319  0.2687   1.0   1.0  2.1170
  1895.24880     17.73  0.0000     15.00   2.3190  0.2020    94.31    8.55   2.3190    94.31  0.3096  0.0000  0.1319  0.2687   1.0   1.0  2.1170
  1895.40120     17.74  0.0000     15.00   2.3190  0.2021    94.31    8.55   2.3190    94.31  0.3096  0.0000  0.1319  0.2687   1.0   1.0  2.1169
  1895.55360     17.74  0.0000     15.00   2.3190  0.2021    94.32    8.55   2.3190    94.32  0.3096  0.0000  0.1319  0.2687   1.0   1.0  2.1169
  1895.70600     17.75  0.0000     15.00   2.3190  0.2021    94.32    8.55   2.3190    94.32  0.3096  0.0000  0.1319  0.2687   1.0   1.0  2.1168
  1895.85840     17.76  0.0000     15.00   2.3189  0.2022    94.32    8.55   2.3189    94.32  0.3096  0.0000  0.1319  0.2687   1.0   1.0  2.1168
  1896.01080     17.77  0.0000     15.00   2.3189  0.2022    94.33    8.55   2.3189    94.33  0.3096  0.0000  0.1319  0.2687   1.0   1.0  2.1167
  1896.16320     17.77  0.0000     15.00   2.3189  0.2022    94.33    8.55   2.3189    94.33  0.3096  0.0000  0.1319  0.2687   1.0   1.0  2.1167
  1896.31560     17.78  0.0000     15.00   2.3189  0.2023    94.34    8.55   2.3189    94.34  0.3096  0.0000  0.1319  0.2687   1.0   1.0  2.1166
  1896.46800     17.79  0.0000     15.00   2.3189  0.2023    94.34    8.55   2.3189    94.34  0.3096  0.0000  0.1319  0.2687   1.0   1.0  2.1166
  1896.62040     17.79  0.0000     15.00   2.3188  0.2023    94.35    8.55   2.3188    94.35  0.3096  0.0000  0.1319  0.2687   1.0   1.0  2.1165
  1896.77280     17.80  0.0000     15.00   2.3188  0.2023    94.35    8.55   2.3188    94.35  0.3095  0.0000  0.1319  0.2687   1.0   1.0  2.1165
  1896.92520     17.81  0.0000     15.00   2.3188  0.2024    94.36    8.55   2.3188    94.36  0.3095  0.0000  0.1319  0.2687   1.0   1.0  2.1164
  1897.07760     17.82  0.0000     15.00   2.3188  0.2024    94.36    8.55   2.3188    94.36  0.3095  0.0000  0.1319  0.2687   1.0   1.0  2.1164
  1897.23000     17.82  0.0000     15.00   2.3187  0.2024    94.36    8.55   2.3187    94.36  0.3095  0.0000  0.1319  0.2687   1.0   1.0  2.1163
  1897.38240     17.83  0.0000     15.00   2.3187  0.2025    94.37    8.55   2.3187    94.37  0.3095  0.0000  0.1319  0.2687   1.0   1.0  2.1163
  1897.53480     17.84  0.0000     15.00   2.3187  0.2025    94.37    8.56   2.3187    94.37  0.3095  0.0000  0.1319  0.2687   1.0   1.0  2.1162
  1897.68720     17.84  0.0000     15.00   2.3187  0.2025    94.38    8.56   2.3187    94.38  0.3095  0.0000  0.1319  0.2687   1.0   1.0  2.1162
  1897.83960     17.85  0.0000     15.00   2.3187  0.2025    94.38    8.56   2.3187    94.38  0.3095  0.0000  0.1319  0.2687   1.0   1.0  2.1161
  1897.99200     17.86  0.0000     15.00   2.3186  0.2026    94.39    8.56   2.3186    94.39  0.3095  0.0000  0.1319  0.2687   1.0   1.0  2.1161
  1898.14440     17.87  0.0000     15.00   2.3186  0.2026    94.39    8.56   2.3186    94.39  0.3095  0.0000  0.1319  0.2687   1.0   1.0  2.1160
  1898.29680     17.87  0.0000     15.00   2.3186  0.2026    94.40    8.56   2.3186    94.40  0.3095  0.0000  0.1319  0.2687   1.0   1.0  2.1159
  1898.44920     17.88  0.0000     15.00   2.3186  0.2027    94.40    8.56   2.3186    94.40  0.3095  0.0000  0.1319  0.2687   1.0   1.0  2.1159
  1898.60160     17.89  0.0000     15.00   2.3185  0.2027    94.40    8.56   2.3185    94.40  0.3095  0.0000  0.1319  0.2687   1.0   1.0  2.1158
  1898.75400     17.89  0.0000     15.00   2.3185  0.2027    94.41    8.56   2.3185    94.41  0.3095  0.0000  0.1319  0.2687   1.0   1.0  2.1158
  1898.90640     17.90  0.0000     15.00   2.3185  0.2028    94.41    8.56   2.3185    94.41  0.3095  0.0000  0.1319  0.2687   1.0   1.0  2.1157
  1899.05880     17.91  0.0000     15.00   2.3185  0.2028    94.42    8.56   2.3185    94.42  0.3095  0.0000  0.1319  0.2687   1.0   1.0  2.1157
  1899.21120     17.92  0.0000     15.00   2.3184  0.2028    94.42    8.56   2.3184    94.42  0.3095  0.0000  0.1319  0.2687   1.0   1.0  2.1156
  1899.36360     17.92  0.0000     15.00   2.3184  0.2028    94.43    8.56   2.3184    94.43  0.3095  0.0000  0.1319  0.2687   1.0   1.0  2.1156
  1899.51600     17.93  0.0000     15.00   2.3184  0.2029    94.43    8.56   2.3184    94.43  0.3095  0.0000  0.1319  0.2687   1.0   1.0  2.1155
  1899.66840     17.94  0.0000     15.00   2.3184  0.2029    94.44    8.56   2.3184    94.44  0.3095  0.0000  0.1319  0.2687   1.0   1.0  2.1155
