~Version --------------------------------------------------
VERS.   2.0 : CWLS log ASCII Standard -VERSION 2.0
WRAP.    NO : One line per depth step
DLM . SPACE : Column Data Section Delimiter
~Well ------------------------------------------------------
STRT.M                   1200.00000 : START DEPTH (mMD)
STOP.                    2500.00000 : STOP DEPTH (mMD)
STEP.                       0.15240 : STEP (m)
NULL.                      -999.25 : NULL VALUE
COMP.  Petroleum Asia Pacific (PAPC)     : COMPANY
WELL.  BOKOR-1                          : WELL
FLD .  BOKOR                            : FIELD
LOC .  Offshore Sarawak, Malaysia Block : LOCATION
PROV.  Sarawak                          : PROVINCE
CNTY.  Sarawak                          : COUNTY
STAT.  Malaysia                        : STATE
CTRY.  Malaysia                        : COUNTRY
SRVC.  Geoquest Malaysia Sdn Bhd       : SERVICE COMPANY
DATE.  2024-03-15                      : LOG DATE
UWI .  BOKOR-1 ST00                     : UNIQUE WELL ID
API .  97MSAW00001B000                  : API NUMBER
EKB .  1234.56                          : ELEVATION KELLY BUSHING (m)
EGL .  1235.20                          : ELEVATION GROUND LEVEL (m)
TDD .  2550.00                          : TOTAL DEPTH DRILLED (mMD)
TVD .  2340.15                          : TOTAL VERTICAL DEPTH (mTVDSS)
~Curve Information -----------------------------------------
DEPT   .M     : Measured Depth (mMD)
GR     .GAPI  : Gamma Ray (Total)
GR_NSH .V/V   : GR Normalized Shale
RT     .OHMM  : Deep Resistivity (Array Induction AI45)
RHOB   .G/CC  : Bulk Density
NPHI   .V/V   : Neutron Porosity (limestone eq)
DT     .US/F  : Sonic Transit Time (compressional)
CALI   .IN    : Caliper
DEN    .G/CC  : Bulk Density (alias)
AC     .US/F  : Sonic Transit Time (alias)
PHI_E  .V/V   : Effective Porosity (DN average)
VSHALE .V/V   : Shale Volume (GR linear)
SW     .V/V   : Water Saturation (Archie, Rw=0.025)
VHC    .V/V   : Hydrocarbon Volume (PhiE x (1-SW))
NET    .BIN   : Net Reservoir Flag (VSHALE<0.40)
PAY    .BIN   : Pay Flag (NET=1 AND SW<0.60)
CROSS  .V/V   : Neutron-Density Crossover (RHOB-NPHI)
~Params ----------------------------------------------------
FORM .  BOKOR-1                        : Formation / Well ID
RFT  .  1350.0  1400.0  1550.0         : RFT sample depths (mMD)
MD_D .  1200.0                         : Measured depth datum (mMD)
TVDSS.  1235.2                         : TVD at datum (mTVDSS)
DATUM.  MSL  Mean Sea Level             : Depth datum reference
# Formation Tops (EXPLORATORY_VISUALIZATION — not RFT-confirmed)
FM_TOP .  1315.0  : Top FMM Formation (Shale)
SS1_TOP.  1480.0  : Top Shallow Sand 1
SS1_BOT.  1560.0  : Bottom Shallow Sand 1
SS2_TOP.  1620.0  : Top Deep Sand 2  <-- main gas reservoir
SS2_BOT.  1780.0  : Bottom Deep Sand 2
SS3_TOP.  1890.0  : Top Deep Sand 3
SS3_BOT.  2050.0  : Bottom Deep Sand 3
BASE  .  2100.0  : Base of reservoir section
# Petrophysics cutoffs
RW     .  0.025  : Formation water resistivity (ohm.m)
PHIT  .  0.30   : Total porosity cutoff
VSH_cut .  0.40 : Shale volume cutoff for net pay
SW_cut  .  0.60 : Sw cutoff for pay
CLAIM  .  EXPLORATORY_VISUALIZATION    : Default claim state
~Other -----------------------------------------------------
BOKOR-1 was drilled by PAPC in March 2024 as a wildcat exploration
well to test Miocene turbidite sands in the BOKOR structural closure.
Result: Gas shows in SS2 and SS3. RFT confirmation pending.
Depths are measured from GL (1235.2m above MSL). All in mMD.
~ASCII -----------------------------------------------------
# ...
  2488.69440    106.99  1.0000      2.54   2.4464  0.4953   122.29    8.40   2.4464   122.29  0.1507  1.0000  0.3950  0.0000   0.0   0.0  1.9511
  2488.84680    106.99  1.0000      2.54   2.4464  0.4953   122.30    8.40   2.4464   122.30  0.1507  1.0000  0.3950  0.0000   0.0   0.0  1.9511
  2488.99920    106.99  1.0000      2.54   2.4464  0.4953   122.30    8.40   2.4464   122.30  0.1507  1.0000  0.3950  0.0000   0.0   0.0  1.9511
  2489.15160    106.99  1.0000      2.54   2.4465  0.4954   122.30    8.40   2.4465   122.30  0.1507  1.0000  0.3950  0.0000   0.0   0.0  1.9511
  2489.30400    106.99  1.0000      2.54   2.4465  0.4954   122.31    8.40   2.4465   122.31  0.1507  1.0000  0.3950  0.0000   0.0   0.0  1.9511
  2489.45640    106.99  1.0000      2.54   2.4465  0.4954   122.31    8.40   2.4465   122.31  0.1507  1.0000  0.3950  0.0000   0.0   0.0  1.9511
  2489.60880    106.99  1.0000      2.54   2.4465  0.4954   122.32    8.40   2.4465   122.32  0.1507  1.0000  0.3950  0.0000   0.0   0.0  1.9511
  2489.76120    106.99  1.0000      2.54   2.4465  0.4955   122.32    8.40   2.4465   122.32  0.1507  1.0000  0.3950  0.0000   0.0   0.0  1.9511
  2489.91360    106.99  1.0000      2.54   2.4466  0.4955   122.32    8.40   2.4466   122.32  0.1507  1.0000  0.3950  0.0000   0.0   0.0  1.9511
  2490.06600    106.99  1.0000      2.54   2.4466  0.4955   122.33    8.40   2.4466   122.33  0.1506  1.0000  0.3950  0.0000   0.0   0.0  1.9511
  2490.21840    106.99  1.0000      2.54   2.4466  0.4956   122.33    8.40   2.4466   122.33  0.1506  1.0000  0.3950  0.0000   0.0   0.0  1.9511
  2490.37080    106.99  1.0000      2.54   2.4466  0.4956   122.34    8.40   2.4466   122.34  0.1506  1.0000  0.3950  0.0000   0.0   0.0  1.9511
  2490.52320    106.99  1.0000      2.54   2.4467  0.4956   122.34    8.41   2.4467   122.34  0.1506  1.0000  0.3950  0.0000   0.0   0.0  1.9510
  2490.67560    106.99  1.0000      2.54   2.4467  0.4956   122.34    8.41   2.4467   122.34  0.1506  1.0000  0.3950  0.0000   0.0   0.0  1.9510
  2490.82800    106.99  1.0000      2.54   2.4467  0.4957   122.35    8.41   2.4467   122.35  0.1506  1.0000  0.3950  0.0000   0.0   0.0  1.9510
  2490.98040    106.99  1.0000      2.54   2.4467  0.4957   122.35    8.41   2.4467   122.35  0.1506  1.0000  0.3950  0.0000   0.0   0.0  1.9510
  2491.13280    106.99  1.0000      2.54   2.4467  0.4957   122.36    8.41   2.4467   122.36  0.1506  1.0000  0.3950  0.0000   0.0   0.0  1.9510
  2491.28520    106.99  1.0000      2.54   2.4468  0.4957   122.36    8.41   2.4468   122.36  0.1506  1.0000  0.3950  0.0000   0.0   0.0  1.9510
  2491.43760    106.99  1.0000      2.54   2.4468  0.4958   122.37    8.41   2.4468   122.37  0.1506  1.0000  0.3949  0.0000   0.0   0.0  1.9510
  2491.59000    106.99  1.0000      2.54   2.4468  0.4958   122.37    8.41   2.4468   122.37  0.1506  1.0000  0.3949  0.0000   0.0   0.0  1.9510
  2491.74240    106.99  1.0000      2.54   2.4468  0.4958   122.37    8.41   2.4468   122.37  0.1506  1.0000  0.3949  0.0000   0.0   0.0  1.9510
  2491.89480    106.99  1.0000      2.54   2.4468  0.4959   122.38    8.41   2.4468   122.38  0.1506  1.0000  0.3949  0.0000   0.0   0.0  1.9510
  2492.04720    106.99  1.0000      2.54   2.4469  0.4959   122.38    8.41   2.4469   122.38  0.1506  1.0000  0.3949  0.0000   0.0   0.0  1.9510
  2492.19960    106.99  1.0000      2.54   2.4469  0.4959   122.39    8.41   2.4469   122.39  0.1506  1.0000  0.3949  0.0000   0.0   0.0  1.9510
  2492.35200    106.99  1.0000      2.54   2.4469  0.4959   122.39    8.41   2.4469   122.39  0.1506  1.0000  0.3949  0.0000   0.0   0.0  1.9510
  2492.50440    106.99  1.0000      2.54   2.4469  0.4960   122.39    8.41   2.4469   122.39  0.1506  1.0000  0.3949  0.0000   0.0   0.0  1.9510
  2492.65680    107.00  1.0000      2.54   2.4470  0.4960   122.40    8.41   2.4470   122.40  0.1506  1.0000  0.3949  0.0000   0.0   0.0  1.9510
  2492.80920    107.00  1.0000      2.54   2.4470  0.4960   122.40    8.41   2.4470   122.40  0.1506  1.0000  0.3949  0.0000   0.0   0.0  1.9510
  2492.96160    107.00  1.0000      2.54   2.4470  0.4960   122.41    8.41   2.4470   122.41  0.1506  1.0000  0.3949  0.0000   0.0   0.0  1.9510
  2493.11400    107.00  1.0000      2.54   2.4470  0.4961   122.41    8.41   2.4470   122.41  0.1506  1.0000  0.3949  0.0000   0.0   0.0  1.9509
  2493.26640    107.00  1.0000      2.54   2.4470  0.4961   122.42    8.42   2.4470   122.42  0.1506  1.0000  0.3949  0.0000   0.0   0.0  1.9509
  2493.41880    107.00  1.0000      2.54   2.4471  0.4961   122.42    8.42   2.4471   122.42  0.1506  1.0000  0.3949  0.0000   0.0   0.0  1.9509
  2493.57120    107.00  1.0000      2.54   2.4471  0.4962   122.42    8.42   2.4471   122.42  0.1506  1.0000  0.3949  0.0000   0.0   0.0  1.9509
  2493.72360    107.00  1.0000      2.55   2.4471  0.4962   122.43    8.42   2.4471   122.43  0.1506  1.0000  0.3949  0.0000   0.0   0.0  1.9509
  2493.87600    107.00  1.0000      2.55   2.4471  0.4962   122.43    8.42   2.4471   122.43  0.1506  1.0000  0.3949  0.0000   0.0   0.0  1.9509
  2494.02840    107.00  1.0000      2.55   2.4472  0.4962   122.44    8.42   2.4472   122.44  0.1506  1.0000  0.3949  0.0000   0.0   0.0  1.9509
  2494.18080    107.00  1.0000      2.55   2.4472  0.4963   122.44    8.42   2.4472   122.44  0.1506  1.0000  0.3949  0.0000   0.0   0.0  1.9509
  2494.33320    107.00  1.0000      2.55   2.4472  0.4963   122.45    8.42   2.4472   122.45  0.1506  1.0000  0.3949  0.0000   0.0   0.0  1.9509
  2494.48560    107.00  1.0000      2.55   2.4472  0.4963   122.45    8.42   2.4472   122.45  0.1506  1.0000  0.3949  0.0000   0.0   0.0  1.9509
  2494.63800    107.00  1.0000      2.55   2.4472  0.4964   122.45    8.42   2.4472   122.45  0.1506  1.0000  0.3949  0.0000   0.0   0.0  1.9509
  2494.79040    107.00  1.0000      2.55   2.4473  0.4964   122.46    8.42   2.4473   122.46  0.1506  1.0000  0.3949  0.0000   0.0   0.0  1.9509
  2494.94280    107.00  1.0000      2.55   2.4473  0.4964   122.46    8.42   2.4473   122.46  0.1506  1.0000  0.3948  0.0000   0.0   0.0  1.9509
  2495.09520    107.00  1.0000      2.55   2.4473  0.4964   122.47    8.42   2.4473   122.47  0.1506  1.0000  0.3948  0.0000   0.0   0.0  1.9509
  2495.24760    107.00  1.0000      2.55   2.4473  0.4965   122.47    8.42   2.4473   122.47  0.1506  1.0000  0.3948  0.0000   0.0   0.0  1.9509
  2495.40000    107.00  1.0000      2.55   2.4474  0.4965   122.48    8.42   2.4474   122.48  0.1506  1.0000  0.3948  0.0000   0.0   0.0  1.9509
  2495.55240    107.00  1.0000      2.55   2.4474  0.4965   122.48    8.42   2.4474   122.48  0.1506  1.0000  0.3948  0.0000   0.0   0.0  1.9508
  2495.70480    107.00  1.0000      2.55   2.4474  0.4966   122.48    8.42   2.4474   122.48  0.1506  1.0000  0.3948  0.0000   0.0   0.0  1.9508
  2495.85720    107.00  1.0000      2.55   2.4474  0.4966   122.49    8.43   2.4474   122.49  0.1506  1.0000  0.3948  0.0000   0.0   0.0  1.9508
  2496.00960    107.00  1.0000      2.55   2.4474  0.4966   122.49    8.43   2.4474   122.49  0.1506  1.0000  0.3948  0.0000   0.0   0.0  1.9508
  2496.16200    107.00  1.0000      2.55   2.4475  0.4966   122.50    8.43   2.4475   122.50  0.1506  1.0000  0.3948  0.0000   0.0   0.0  1.9508
  2496.31440    107.00  1.0000      2.55   2.4475  0.4967   122.50    8.43   2.4475   122.50  0.1506  1.0000  0.3948  0.0000   0.0   0.0  1.9508
  2496.46680    107.01  1.0000      2.55   2.4475  0.4967   122.51    8.43   2.4475   122.51  0.1506  1.0000  0.3948  0.0000   0.0   0.0  1.9508
  2496.61920    107.01  1.0000      2.55   2.4475  0.4967   122.51    8.43   2.4475   122.51  0.1506  1.0000  0.3948  0.0000   0.0   0.0  1.9508
  2496.77160    107.01  1.0000      2.55   2.4475  0.4968   122.51    8.43   2.4475   122.51  0.1505  1.0000  0.3948  0.0000   0.0   0.0  1.9508
  2496.92400    107.01  1.0000      2.55   2.4476  0.4968   122.52    8.43   2.4476   122.52  0.1505  1.0000  0.3948  0.0000   0.0   0.0  1.9508
  2497.07640    107.01  1.0000      2.55   2.4476  0.4968   122.52    8.43   2.4476   122.52  0.1505  1.0000  0.3948  0.0000   0.0   0.0  1.9508
