~Version --------------------------------------------------
VERS.   2.0 : CWLS log ASCII Standard -VERSION 2.0
WRAP.    NO : One line per depth step
DLM . SPACE : Column Data Section Delimiter
~Well ------------------------------------------------------
STRT.M                   1200.00000 : START DEPTH (mMD)
STOP.                    2500.00000 : STOP DEPTH (mMD)
STEP.                       0.15240 : STEP (m)
NULL.                      -999.25 : NULL VALUE
COMP.  Petroleum Asia Pacific (PAPC)     : COMPANY
WELL.  BOKOR-1                          : WELL
FLD .  BOKOR                            : FIELD
LOC .  Offshore Sarawak, Malaysia Block : LOCATION
PROV.  Sarawak                          : PROVINCE
CNTY.  Sarawak                          : COUNTY
STAT.  Malaysia                        : STATE
CTRY.  Malaysia                        : COUNTRY
SRVC.  Geoquest Malaysia Sdn Bhd       : SERVICE COMPANY
DATE.  2024-03-15                      : LOG DATE
UWI .  BOKOR-1 ST00                     : UNIQUE WELL ID
API .  97MSAW00001B000                  : API NUMBER
EKB .  1234.56                          : ELEVATION KELLY BUSHING (m)
EGL .  1235.20                          : ELEVATION GROUND LEVEL (m)
TDD .  2550.00                          : TOTAL DEPTH DRILLED (mMD)
TVD .  2340.15                          : TOTAL VERTICAL DEPTH (mTVDSS)
~Curve Information -----------------------------------------
DEPT   .M     : Measured Depth (mMD)
GR     .GAPI  : Gamma Ray (Total)
GR_NSH .V/V   : GR Normalized Shale
RT     .OHMM  : Deep Resistivity (Array Induction AI45)
RHOB   .G/CC  : Bulk Density
NPHI   .V/V   : Neutron Porosity (limestone eq)
DT     .US/F  : Sonic Transit Time (compressional)
CALI   .IN    : Caliper
DEN    .G/CC  : Bulk Density (alias)
AC     .US/F  : Sonic Transit Time (alias)
PHI_E  .V/V   : Effective Porosity (DN average)
VSHALE .V/V   : Shale Volume (GR linear)
SW     .V/V   : Water Saturation (Archie, Rw=0.025)
VHC    .V/V   : Hydrocarbon Volume (PhiE x (1-SW))
NET    .BIN   : Net Reservoir Flag (VSHALE<0.40)
PAY    .BIN   : Pay Flag (NET=1 AND SW<0.60)
CROSS  .V/V   : Neutron-Density Crossover (RHOB-NPHI)
~Params ----------------------------------------------------
FORM .  BOKOR-1                        : Formation / Well ID
RFT  .  1350.0  1400.0  1550.0         : RFT sample depths (mMD)
MD_D .  1200.0                         : Measured depth datum (mMD)
TVDSS.  1235.2                         : TVD at datum (mTVDSS)
DATUM.  MSL  Mean Sea Level             : Depth datum reference
# Formation Tops (EXPLORATORY_VISUALIZATION — not RFT-confirmed)
FM_TOP .  1315.0  : Top FMM Formation (Shale)
SS1_TOP.  1480.0  : Top Shallow Sand 1
SS1_BOT.  1560.0  : Bottom Shallow Sand 1
SS2_TOP.  1620.0  : Top Deep Sand 2  <-- main gas reservoir
SS2_BOT.  1780.0  : Bottom Deep Sand 2
SS3_TOP.  1890.0  : Top Deep Sand 3
SS3_BOT.  2050.0  : Bottom Deep Sand 3
BASE  .  2100.0  : Base of reservoir section
# Petrophysics cutoffs
RW     .  0.025  : Formation water resistivity (ohm.m)
PHIT  .  0.30   : Total porosity cutoff
VSH_cut .  0.40 : Shale volume cutoff for net pay
SW_cut  .  0.60 : Sw cutoff for pay
CLAIM  .  EXPLORATORY_VISUALIZATION    : Default claim state
~Other -----------------------------------------------------
BOKOR-1 was drilled by PAPC in March 2024 as a wildcat exploration
well to test Miocene turbidite sands in the BOKOR structural closure.
Result: Gas shows in SS2 and SS3. RFT confirmation pending.
Depths are measured from GL (1235.2m above MSL). All in mMD.
~ASCII -----------------------------------------------------
# ...
  1976.63040     18.40  0.0000     15.00   2.3107  0.2097    95.45    8.56   2.3107    95.45  0.3084  0.0000  0.1324  0.2675   1.0   1.0  2.1010
  1976.78280     18.40  0.0000     15.00   2.3107  0.2096    95.45    8.56   2.3107    95.45  0.3083  0.0000  0.1324  0.2675   1.0   1.0  2.1010
  1976.93520     18.39  0.0000     15.00   2.3107  0.2096    95.45    8.56   2.3107    95.45  0.3083  0.0000  0.1324  0.2675   1.0   1.0  2.1010
  1977.08760     18.39  0.0000     15.00   2.3107  0.2096    95.44    8.56   2.3107    95.44  0.3083  0.0000  0.1324  0.2675   1.0   1.0  2.1010
  1977.24000     18.38  0.0000     15.00   2.3107  0.2096    95.44    8.55   2.3107    95.44  0.3083  0.0000  0.1324  0.2675   1.0   1.0  2.1010
  1977.39240     18.38  0.0000     15.00   2.3107  0.2096    95.44    8.55   2.3107    95.44  0.3083  0.0000  0.1324  0.2675   1.0   1.0  2.1011
  1977.54480     18.37  0.0000     15.00   2.3107  0.2096    95.44    8.55   2.3107    95.44  0.3083  0.0000  0.1324  0.2675   1.0   1.0  2.1011
  1977.69720     18.37  0.0000     15.00   2.3107  0.2096    95.44    8.55   2.3107    95.44  0.3083  0.0000  0.1324  0.2675   1.0   1.0  2.1011
  1977.84960     18.36  0.0000     15.00   2.3107  0.2096    95.44    8.55   2.3107    95.44  0.3083  0.0000  0.1324  0.2675   1.0   1.0  2.1011
  1978.00200     18.36  0.0000     15.00   2.3107  0.2096    95.44    8.55   2.3107    95.44  0.3083  0.0000  0.1324  0.2675   1.0   1.0  2.1011
  1978.15440     18.35  0.0000     15.00   2.3106  0.2096    95.44    8.55   2.3106    95.44  0.3083  0.0000  0.1324  0.2675   1.0   1.0  2.1011
  1978.30680     18.34  0.0000     15.00   2.3106  0.2096    95.43    8.55   2.3106    95.43  0.3083  0.0000  0.1324  0.2675   1.0   1.0  2.1011
  1978.45920     18.34  0.0000     15.00   2.3106  0.2096    95.43    8.55   2.3106    95.43  0.3083  0.0000  0.1324  0.2675   1.0   1.0  2.1011
  1978.61160     18.33  0.0000     15.00   2.3106  0.2095    95.43    8.55   2.3106    95.43  0.3083  0.0000  0.1324  0.2675   1.0   1.0  2.1011
  1978.76400     18.33  0.0000     15.00   2.3106  0.2095    95.43    8.55   2.3106    95.43  0.3083  0.0000  0.1324  0.2675   1.0   1.0  2.1011
  1978.91640     18.32  0.0000     15.00   2.3106  0.2095    95.43    8.55   2.3106    95.43  0.3083  0.0000  0.1324  0.2675   1.0   1.0  2.1011
  1979.06880     18.32  0.0000     15.00   2.3106  0.2095    95.43    8.55   2.3106    95.43  0.3083  0.0000  0.1324  0.2675   1.0   1.0  2.1011
  1979.22120     18.31  0.0000     15.00   2.3106  0.2095    95.43    8.55   2.3106    95.43  0.3083  0.0000  0.1324  0.2675   1.0   1.0  2.1011
  1979.37360     18.31  0.0000     15.00   2.3106  0.2095    95.42    8.55   2.3106    95.42  0.3083  0.0000  0.1324  0.2675   1.0   1.0  2.1011
  1979.52600     18.30  0.0000     15.00   2.3106  0.2095    95.42    8.54   2.3106    95.42  0.3083  0.0000  0.1324  0.2675   1.0   1.0  2.1011
  1979.67840     18.30  0.0000     15.00   2.3106  0.2095    95.42    8.54   2.3106    95.42  0.3083  0.0000  0.1324  0.2675   1.0   1.0  2.1011
  1979.83080     18.29  0.0000     15.00   2.3106  0.2095    95.42    8.54   2.3106    95.42  0.3083  0.0000  0.1324  0.2675   1.0   1.0  2.1011
  1979.98320     18.29  0.0000     15.00   2.3106  0.2095    95.42    8.54   2.3106    95.42  0.3083  0.0000  0.1324  0.2675   1.0   1.0  2.1011
  1980.13560     18.28  0.0000     15.00   2.3106  0.2095    95.42    8.54   2.3106    95.42  0.3083  0.0000  0.1324  0.2675   1.0   1.0  2.1011
  1980.28800     18.28  0.0000     15.00   2.3106  0.2094    95.42    8.54   2.3106    95.42  0.3083  0.0000  0.1324  0.2675   1.0   1.0  2.1012
  1980.44040     18.27  0.0000     15.00   2.3106  0.2094    95.41    8.54   2.3106    95.41  0.3083  0.0000  0.1324  0.2675   1.0   1.0  2.1012
  1980.59280     18.27  0.0000     15.00   2.3106  0.2094    95.41    8.54   2.3106    95.41  0.3083  0.0000  0.1324  0.2675   1.0   1.0  2.1012
  1980.74520     18.26  0.0000     15.00   2.3106  0.2094    95.41    8.54   2.3106    95.41  0.3083  0.0000  0.1324  0.2675   1.0   1.0  2.1012
  1980.89760     18.26  0.0000     15.00   2.3106  0.2094    95.41    8.54   2.3106    95.41  0.3083  0.0000  0.1324  0.2675   1.0   1.0  2.1012
  1981.05000     18.25  0.0000     15.00   2.3106  0.2094    95.41    8.54   2.3106    95.41  0.3083  0.0000  0.1324  0.2675   1.0   1.0  2.1012
  1981.20240     18.25  0.0000     15.00   2.3106  0.2094    95.41    8.54   2.3106    95.41  0.3083  0.0000  0.1324  0.2675   1.0   1.0  2.1012
  1981.35480     18.24  0.0000     15.00   2.3106  0.2094    95.41    8.54   2.3106    95.41  0.3083  0.0000  0.1324  0.2675   1.0   1.0  2.1012
  1981.50720     18.24  0.0000     15.00   2.3106  0.2094    95.40    8.54   2.3106    95.40  0.3083  0.0000  0.1324  0.2675   1.0   1.0  2.1012
  1981.65960     18.23  0.0000     15.00   2.3106  0.2093    95.40    8.54   2.3106    95.40  0.3083  0.0000  0.1324  0.2675   1.0   1.0  2.1012
  1981.81200     18.22  0.0000     15.00   2.3106  0.2093    95.40    8.54   2.3106    95.40  0.3083  0.0000  0.1324  0.2674   1.0   1.0  2.1012
  1981.96440     18.22  0.0000     15.00   2.3106  0.2093    95.40    8.53   2.3106    95.40  0.3083  0.0000  0.1324  0.2674   1.0   1.0  2.1012
  1982.11680     18.21  0.0000     15.00   2.3106  0.2093    95.40    8.53   2.3106    95.40  0.3083  0.0000  0.1324  0.2674   1.0   1.0  2.1012
  1982.26920     18.21  0.0000     15.00   2.3106  0.2093    95.40    8.53   2.3106    95.40  0.3083  0.0000  0.1324  0.2674   1.0   1.0  2.1013
  1982.42160     18.20  0.0000     15.00   2.3106  0.2093    95.39    8.53   2.3106    95.39  0.3083  0.0000  0.1324  0.2674   1.0   1.0  2.1013
  1982.57400     18.20  0.0000     15.00   2.3106  0.2093    95.39    8.53   2.3106    95.39  0.3083  0.0000  0.1324  0.2674   1.0   1.0  2.1013
  1982.72640     18.19  0.0000     15.00   2.3105  0.2093    95.39    8.53   2.3105    95.39  0.3083  0.0000  0.1324  0.2674   1.0   1.0  2.1013
  1982.87880     18.19  0.0000     15.00   2.3105  0.2093    95.39    8.53   2.3105    95.39  0.3083  0.0000  0.1324  0.2674   1.0   1.0  2.1013
  1983.03120     18.18  0.0000     15.00   2.3105  0.2092    95.39    8.53   2.3105    95.39  0.3083  0.0000  0.1324  0.2674   1.0   1.0  2.1013
  1983.18360     18.18  0.0000     15.00   2.3105  0.2092    95.39    8.53   2.3105    95.39  0.3083  0.0000  0.1324  0.2674   1.0   1.0  2.1013
  1983.33600     18.17  0.0000     15.00   2.3105  0.2092    95.38    8.53   2.3105    95.38  0.3082  0.0000  0.1324  0.2674   1.0   1.0  2.1013
  1983.48840     18.17  0.0000     15.00   2.3105  0.2092    95.38    8.53   2.3105    95.38  0.3082  0.0000  0.1324  0.2674   1.0   1.0  2.1013
  1983.64080     18.16  0.0000     15.00   2.3105  0.2092    95.38    8.53   2.3105    95.38  0.3082  0.0000  0.1324  0.2674   1.0   1.0  2.1013
  1983.79320     18.16  0.0000     15.00   2.3105  0.2092    95.38    8.53   2.3105    95.38  0.3082  0.0000  0.1324  0.2674   1.0   1.0  2.1013
  1983.94560     18.15  0.0000     15.00   2.3105  0.2092    95.38    8.53   2.3105    95.38  0.3082  0.0000  0.1324  0.2674   1.0   1.0  2.1014
  1984.09800     18.15  0.0000     15.00   2.3105  0.2092    95.37    8.52   2.3105    95.37  0.3082  0.0000  0.1324  0.2674   1.0   1.0  2.1014
  1984.25040     18.14  0.0000     15.00   2.3105  0.2092    95.37    8.52   2.3105    95.37  0.3082  0.0000  0.1324  0.2674   1.0   1.0  2.1014
  1984.40280     18.14  0.0000     15.00   2.3105  0.2091    95.37    8.52   2.3105    95.37  0.3082  0.0000  0.1324  0.2674   1.0   1.0  2.1014
  1984.55520     18.13  0.0000     15.00   2.3105  0.2091    95.37    8.52   2.3105    95.37  0.3082  0.0000  0.1324  0.2674   1.0   1.0  2.1014
  1984.70760     18.12  0.0000     15.00   2.3105  0.2091    95.37    8.52   2.3105    95.37  0.3082  0.0000  0.1324  0.2674   1.0   1.0  2.1014
  1984.86000     18.12  0.0000     15.00   2.3105  0.2091    95.37    8.52   2.3105    95.37  0.3082  0.0000  0.1325  0.2674   1.0   1.0  2.1014
  1985.01240     18.11  0.0000     15.00   2.3105  0.2091    95.36    8.52   2.3105    95.36  0.3082  0.0000  0.1325  0.2674   1.0   1.0  2.1014
