~Version --------------------------------------------------
VERS.   2.0 : CWLS log ASCII Standard -VERSION 2.0
WRAP.    NO : One line per depth step
DLM . SPACE : Column Data Section Delimiter
~Well ------------------------------------------------------
STRT.M                   1250.00000 : START DEPTH (mMD)
STOP.                    2600.00000 : STOP DEPTH (mMD)
STEP.                       0.15240 : STEP (m)
NULL.                      -999.25 : NULL VALUE
COMP.  Petroleum Asia Pacific (PAPC)     : COMPANY
WELL.  BOKOR-2                          : WELL
FLD .  BOKOR                            : FIELD
LOC .  Offshore Sarawak, Malaysia Block : LOCATION
PROV.  Sarawak                          : PROVINCE
CNTY.  Sarawak                          : COUNTY
STAT.  Malaysia                        : STATE
CTRY.  Malaysia                        : COUNTRY
SRVC.  Geoquest Malaysia Sdn Bhd       : SERVICE COMPANY
DATE.  2024-04-22                      : LOG DATE
UWI .  BOKOR-2 ST00                     : UNIQUE WELL ID
API .  97MSAW00002B000                  : API NUMBER
EKB .  45.80                           : ELEVATION KELLY BUSHING (m)
EGL .  46.20                           : ELEVATION GROUND LEVEL (m)
TDD .  2640.00                          : TOTAL DEPTH DRILLED (mMD)
TVD .  2431.00                          : TOTAL VERTICAL DEPTH (mTVDSS)
~Curve Information -----------------------------------------
DEPT   .M     : Measured Depth (mMD)
GR     .GAPI  : Gamma Ray (Total)
GR_NSH .V/V   : GR Normalized Shale
RT     .OHMM  : Deep Resistivity (Array Induction AI45)
RHOB   .G/CC  : Bulk Density
NPHI   .V/V   : Neutron Porosity (limestone eq)
DT     .US/F  : Sonic Transit Time (compressional)
CALI   .IN    : Caliper
DEN    .G/CC  : Bulk Density (alias)
AC     .US/F  : Sonic Transit Time (alias)
PHI_E  .V/V   : Effective Porosity (DN average)
VSHALE .V/V   : Shale Volume (GR linear)
SW     .V/V   : Water Saturation (Archie, Rw=0.025)
VHC    .V/V   : Hydrocarbon Volume (PhiE x (1-SW))
NET    .BIN   : Net Reservoir Flag (VSHALE<0.40)
PAY    .BIN   : Pay Flag (NET=1 AND SW<0.60)
CROSS  .V/V   : Neutron-Density Crossover (RHOB-NPHI)
~Params ----------------------------------------------------
FORM .  BOKOR-2                        : Formation / Well ID
RFT  .  1380.0  1420.0  1600.0  1720.0 : RFT sample depths (mMD)
MD_D .  1250.0                         : Measured depth datum (mMD)
TVDSS.  46.20                          : TVD at datum (mTVDSS)
DATUM.  MSL  Mean Sea Level             : Depth datum reference
# Formation Tops (EXPLORATORY_VISUALIZATION — not RFT-confirmed)
# BOKOR-2 is 1.2km NE of BOKOR-1 — slight structural updip
FM_TOP .  1360.0  : Top FMM Formation (Shale) — 45m deeper than BOKOR-1
SS1_TOP.  1520.0  : Top Shallow Sand 1 — downdip vs BOKOR-1
SS1_BOT.  1600.0  : Bottom Shallow Sand 1
SS2_TOP.  1650.0  : Top Deep Sand 2  <-- main gas reservoir (30m deeper than BOKOR-1)
SS2_BOT.  1810.0  : Bottom Deep Sand 2
SS3_TOP.  1920.0  : Top Deep Sand 3
SS3_BOT.  2080.0  : Bottom Deep Sand 3
BASE  .  2130.0  : Base of reservoir section
# Petrophysics cutoffs
RW     .  0.025  : Formation water resistivity (ohm.m)
PHIT  .  0.30   : Total porosity cutoff
VSH_cut .  0.40 : Shale volume cutoff for net pay
SW_cut  .  0.60 : Sw cutoff for pay
CLAIM  .  EXPLORATORY_VISUALIZATION    : Default claim state
~Other -----------------------------------------------------
BOKOR-2 is the second well in the BOKOR field appraisal program.
Drilled April 2024 by PAPC, 1.2km NE of BOKOR-1 on the same structural
closure. Objectives: (1) confirm lateral continuity of SS2 and SS3 fans,
(2) RFT sampling in SS2 gas column. Result: Gas confirmed in SS2 and SS3.
Shows higher porosity in SS2 vs BOKOR-1 due to cleaner sand facies.
Depths are measured from GL (46.2m above MSL). All in mMD.
~ASCII -----------------------------------------------------
# ...
  1873.01120     95.29  1.0000      1.47   2.4518  0.4976   120.65    8.45   2.4518   120.65  0.1813  1.0000  0.4319  0.0000   0.0   0.0  1.9541
  1873.16360     95.29  1.0000      1.47   2.4518  0.4977   120.65    8.45   2.4518   120.65  0.1813  1.0000  0.4318  0.0000   0.0   0.0  1.9541
  1873.31600     95.29  1.0000      1.47   2.4517  0.4977   120.65    8.45   2.4517   120.65  0.1813  1.0000  0.4318  0.0000   0.0   0.0  1.9540
  1873.46840     95.29  1.0000      1.47   2.4517  0.4977   120.66    8.45   2.4517   120.66  0.1813  1.0000  0.4318  0.0000   0.0   0.0  1.9540
  1873.62080     95.29  1.0000      1.47   2.4517  0.4978   120.66    8.45   2.4517   120.66  0.1813  1.0000  0.4317  0.0000   0.0   0.0  1.9539
  1873.77320     95.29  1.0000      1.47   2.4517  0.4978   120.67    8.45   2.4517   120.67  0.1813  1.0000  0.4317  0.0000   0.0   0.0  1.9539
  1873.92560     95.30  1.0000      1.47   2.4516  0.4978   120.67    8.45   2.4516   120.67  0.1813  1.0000  0.4317  0.0000   0.0   0.0  1.9538
  1874.07800     95.30  1.0000      1.47   2.4516  0.4978   120.68    8.45   2.4516   120.68  0.1813  1.0000  0.4316  0.0000   0.0   0.0  1.9538
  1874.23040     95.30  1.0000      1.47   2.4516  0.4979   120.68    8.45   2.4516   120.68  0.1813  1.0000  0.4316  0.0000   0.0   0.0  1.9537
  1874.38280     95.30  1.0000      1.47   2.4516  0.4979   120.69    8.45   2.4516   120.69  0.1813  1.0000  0.4316  0.0000   0.0   0.0  1.9537
  1874.53520     95.30  1.0000      1.47   2.4516  0.4979   120.69    8.45   2.4516   120.69  0.1813  1.0000  0.4315  0.0000   0.0   0.0  1.9536
  1874.68760     95.30  1.0000      1.47   2.4515  0.4980   120.69    8.45   2.4515   120.69  0.1813  1.0000  0.4315  0.0000   0.0   0.0  1.9536
  1874.84000     95.30  1.0000      1.47   2.4515  0.4980   120.70    8.46   2.4515   120.70  0.1813  1.0000  0.4315  0.0000   0.0   0.0  1.9535
  1874.99240     95.31  1.0000      1.47   2.4515  0.4980   120.70    8.46   2.4515   120.70  0.1813  1.0000  0.4314  0.0000   0.0   0.0  1.9535
  1875.14480     95.31  1.0000      1.47   2.4515  0.4981   120.71    8.46   2.4515   120.71  0.1812  1.0000  0.4314  0.0000   0.0   0.0  1.9534
  1875.29720     95.31  1.0000      1.47   2.4514  0.4981   120.71    8.46   2.4514   120.71  0.1812  1.0000  0.4314  0.0000   0.0   0.0  1.9534
  1875.44960     95.31  1.0000      1.47   2.4514  0.4981   120.72    8.46   2.4514   120.72  0.1812  1.0000  0.4313  0.0000   0.0   0.0  1.9533
  1875.60200     95.31  1.0000      1.47   2.4514  0.4981   120.72    8.46   2.4514   120.72  0.1812  1.0000  0.4313  0.0000   0.0   0.0  1.9533
  1875.75440     95.31  1.0000      1.47   2.4514  0.4982   120.73    8.46   2.4514   120.73  0.1812  1.0000  0.4313  0.0000   0.0   0.0  1.9532
  1875.90680     95.31  1.0000      1.47   2.4514  0.4982   120.73    8.46   2.4514   120.73  0.1812  1.0000  0.4312  0.0000   0.0   0.0  1.9532
  1876.05920     95.31  1.0000      1.47   2.4513  0.4982   120.73    8.46   2.4513   120.73  0.1812  1.0000  0.4312  0.0000   0.0   0.0  1.9531
  1876.21160     95.31  1.0000      1.47   2.4513  0.4983   120.74    8.46   2.4513   120.74  0.1812  1.0000  0.4312  0.0000   0.0   0.0  1.9530
  1876.36400     95.32  1.0000      1.47   2.4513  0.4983   120.74    8.46   2.4513   120.74  0.1812  1.0000  0.4311  0.0000   0.0   0.0  1.9530
  1876.51640     95.32  1.0000      1.47   2.4513  0.4983   120.75    8.46   2.4513   120.75  0.1812  1.0000  0.4311  0.0000   0.0   0.0  1.9529
  1876.66880     95.32  1.0000      1.47   2.4512  0.4984   120.75    8.46   2.4512   120.75  0.1812  1.0000  0.4311  0.0000   0.0   0.0  1.9529
  1876.82120     95.32  1.0000      1.47   2.4512  0.4984   120.76    8.46   2.4512   120.76  0.1812  1.0000  0.4311  0.0000   0.0   0.0  1.9528
  1876.97360     95.32  1.0000      1.48   2.4512  0.4984   120.76    8.46   2.4512   120.76  0.1812  1.0000  0.4310  0.0000   0.0   0.0  1.9528
  1877.12600     95.32  1.0000      1.48   2.4512  0.4984   120.77    8.47   2.4512   120.77  0.1812  1.0000  0.4310  0.0000   0.0   0.0  1.9527
  1877.27840     95.32  1.0000      1.48   2.4511  0.4985   120.77    8.47   2.4511   120.77  0.1812  1.0000  0.4310  0.0000   0.0   0.0  1.9527
  1877.43080     95.32  1.0000      1.48   2.4511  0.4985   120.78    8.47   2.4511   120.78  0.1812  1.0000  0.4309  0.0000   0.0   0.0  1.9526
  1877.58320     95.32  1.0000      1.48   2.4511  0.4985   120.78    8.47   2.4511   120.78  0.1812  1.0000  0.4309  0.0000   0.0   0.0  1.9526
  1877.73560     95.32  1.0000      1.48   2.4511  0.4986   120.78    8.47   2.4511   120.78  0.1812  1.0000  0.4309  0.0000   0.0   0.0  1.9525
  1877.88800     95.33  1.0000      1.48   2.4511  0.4986   120.79    8.47   2.4511   120.79  0.1812  1.0000  0.4308  0.0000   0.0   0.0  1.9525
  1878.04040     95.33  1.0000      1.48   2.4510  0.4986   120.79    8.47   2.4510   120.79  0.1812  1.0000  0.4308  0.0000   0.0   0.0  1.9524
  1878.19280     95.33  1.0000      1.48   2.4510  0.4987   120.80    8.47   2.4510   120.80  0.1812  1.0000  0.4308  0.0000   0.0   0.0  1.9524
  1878.34520     95.33  1.0000      1.48   2.4510  0.4987   120.80    8.47   2.4510   120.80  0.1812  1.0000  0.4307  0.0000   0.0   0.0  1.9523
  1878.49760     95.33  1.0000      1.48   2.4510  0.4987   120.81    8.47   2.4510   120.81  0.1812  1.0000  0.4307  0.0000   0.0   0.0  1.9523
  1878.65000     95.33  1.0000      1.48   2.4509  0.4987   120.81    8.47   2.4509   120.81  0.1812  1.0000  0.4307  0.0000   0.0   0.0  1.9522
  1878.80240     95.33  1.0000      1.48   2.4509  0.4988   120.82    8.47   2.4509   120.82  0.1812  1.0000  0.4306  0.0000   0.0   0.0  1.9521
  1878.95480     95.33  1.0000      1.48   2.4509  0.4988   120.82    8.47   2.4509   120.82  0.1812  1.0000  0.4306  0.0000   0.0   0.0  1.9521
  1879.10720     95.33  1.0000      1.48   2.4509  0.4988   120.82    8.47   2.4509   120.82  0.1812  1.0000  0.4306  0.0000   0.0   0.0  1.9520
  1879.25960     95.33  1.0000      1.48   2.4509  0.4989   120.83    8.47   2.4509   120.83  0.1812  1.0000  0.4305  0.0000   0.0   0.0  1.9520
  1879.41200     95.33  1.0000      1.48   2.4508  0.4989   120.83    8.48   2.4508   120.83  0.1812  1.0000  0.4305  0.0000   0.0   0.0  1.9519
  1879.56440     95.33  1.0000      1.48   2.4508  0.4989   120.84    8.48   2.4508   120.84  0.1812  1.0000  0.4305  0.0000   0.0   0.0  1.9519
  1879.71680     95.33  1.0000      1.48   2.4508  0.4990   120.84    8.48   2.4508   120.84  0.1812  1.0000  0.4304  0.0000   0.0   0.0  1.9518
  1879.86920     95.34  1.0000      1.48   2.4508  0.4990   120.85    8.48   2.4508   120.85  0.1812  1.0000  0.4304  0.0000   0.0   0.0  1.9518
  1880.02160     95.34  1.0000      1.48   2.4507  0.4990   120.85    8.48   2.4507   120.85  0.1812  1.0000  0.4304  0.0000   0.0   0.0  1.9517
  1880.17400     95.34  1.0000      1.48   2.4507  0.4990   120.86    8.48   2.4507   120.86  0.1812  1.0000  0.4303  0.0000   0.0   0.0  1.9517
  1880.32640     95.34  1.0000      1.48   2.4507  0.4991   120.86    8.48   2.4507   120.86  0.1812  1.0000  0.4303  0.0000   0.0   0.0  1.9516
  1880.47880     95.34  1.0000      1.48   2.4507  0.4991   120.87    8.48   2.4507   120.87  0.1812  1.0000  0.4303  0.0000   0.0   0.0  1.9516
  1880.63120     95.34  1.0000      1.48   2.4506  0.4991   120.87    8.48   2.4506   120.87  0.1812  1.0000  0.4302  0.0000   0.0   0.0  1.9515
  1880.78360     95.34  1.0000      1.48   2.4506  0.4992   120.87    8.48   2.4506   120.87  0.1812  1.0000  0.4302  0.0000   0.0   0.0  1.9515
  1880.93600     95.34  1.0000      1.48   2.4506  0.4992   120.88    8.48   2.4506   120.88  0.1812  1.0000  0.4302  0.0000   0.0   0.0  1.9514
  1881.08840     95.34  1.0000      1.48   2.4506  0.4992   120.88    8.48   2.4506   120.88  0.1812  1.0000  0.4302  0.0000   0.0   0.0  1.9514
  1881.24080     95.34  1.0000      1.48   2.4506  0.4993   120.89    8.48   2.4506   120.89  0.1812  1.0000  0.4301  0.0000   0.0   0.0  1.9513
  1881.39320     95.34  1.0000      1.48   2.4505  0.4993   120.89    8.48   2.4505   120.89  0.1812  1.0000  0.4301  0.0000   0.0   0.0  1.9512
