~Version --------------------------------------------------
VERS.   2.0 : CWLS log ASCII Standard -VERSION 2.0
WRAP.    NO : One line per depth step
DLM . SPACE : Column Data Section Delimiter
~Well ------------------------------------------------------
STRT.M                   1250.00000 : START DEPTH (mMD)
STOP.                    2600.00000 : STOP DEPTH (mMD)
STEP.                       0.15240 : STEP (m)
NULL.                      -999.25 : NULL VALUE
COMP.  Petroleum Asia Pacific (PAPC)     : COMPANY
WELL.  BOKOR-2                          : WELL
FLD .  BOKOR                            : FIELD
LOC .  Offshore Sarawak, Malaysia Block : LOCATION
PROV.  Sarawak                          : PROVINCE
CNTY.  Sarawak                          : COUNTY
STAT.  Malaysia                        : STATE
CTRY.  Malaysia                        : COUNTRY
SRVC.  Geoquest Malaysia Sdn Bhd       : SERVICE COMPANY
DATE.  2024-04-22                      : LOG DATE
UWI .  BOKOR-2 ST00                     : UNIQUE WELL ID
API .  97MSAW00002B000                  : API NUMBER
EKB .  45.80                           : ELEVATION KELLY BUSHING (m)
EGL .  46.20                           : ELEVATION GROUND LEVEL (m)
TDD .  2640.00                          : TOTAL DEPTH DRILLED (mMD)
TVD .  2431.00                          : TOTAL VERTICAL DEPTH (mTVDSS)
~Curve Information -----------------------------------------
DEPT   .M     : Measured Depth (mMD)
GR     .GAPI  : Gamma Ray (Total)
GR_NSH .V/V   : GR Normalized Shale
RT     .OHMM  : Deep Resistivity (Array Induction AI45)
RHOB   .G/CC  : Bulk Density
NPHI   .V/V   : Neutron Porosity (limestone eq)
DT     .US/F  : Sonic Transit Time (compressional)
CALI   .IN    : Caliper
DEN    .G/CC  : Bulk Density (alias)
AC     .US/F  : Sonic Transit Time (alias)
PHI_E  .V/V   : Effective Porosity (DN average)
VSHALE .V/V   : Shale Volume (GR linear)
SW     .V/V   : Water Saturation (Archie, Rw=0.025)
VHC    .V/V   : Hydrocarbon Volume (PhiE x (1-SW))
NET    .BIN   : Net Reservoir Flag (VSHALE<0.40)
PAY    .BIN   : Pay Flag (NET=1 AND SW<0.60)
CROSS  .V/V   : Neutron-Density Crossover (RHOB-NPHI)
~Params ----------------------------------------------------
FORM .  BOKOR-2                        : Formation / Well ID
RFT  .  1380.0  1420.0  1600.0  1720.0 : RFT sample depths (mMD)
MD_D .  1250.0                         : Measured depth datum (mMD)
TVDSS.  46.20                          : TVD at datum (mTVDSS)
DATUM.  MSL  Mean Sea Level             : Depth datum reference
# Formation Tops (EXPLORATORY_VISUALIZATION — not RFT-confirmed)
# BOKOR-2 is 1.2km NE of BOKOR-1 — slight structural updip
FM_TOP .  1360.0  : Top FMM Formation (Shale) — 45m deeper than BOKOR-1
SS1_TOP.  1520.0  : Top Shallow Sand 1 — downdip vs BOKOR-1
SS1_BOT.  1600.0  : Bottom Shallow Sand 1
SS2_TOP.  1650.0  : Top Deep Sand 2  <-- main gas reservoir (30m deeper than BOKOR-1)
SS2_BOT.  1810.0  : Bottom Deep Sand 2
SS3_TOP.  1920.0  : Top Deep Sand 3
SS3_BOT.  2080.0  : Bottom Deep Sand 3
BASE  .  2130.0  : Base of reservoir section
# Petrophysics cutoffs
RW     .  0.025  : Formation water resistivity (ohm.m)
PHIT  .  0.30   : Total porosity cutoff
VSH_cut .  0.40 : Shale volume cutoff for net pay
SW_cut  .  0.60 : Sw cutoff for pay
CLAIM  .  EXPLORATORY_VISUALIZATION    : Default claim state
~Other -----------------------------------------------------
BOKOR-2 is the second well in the BOKOR field appraisal program.
Drilled April 2024 by PAPC, 1.2km NE of BOKOR-1 on the same structural
closure. Objectives: (1) confirm lateral continuity of SS2 and SS3 fans,
(2) RFT sampling in SS2 gas column. Result: Gas confirmed in SS2 and SS3.
Shows higher porosity in SS2 vs BOKOR-1 due to cleaner sand facies.
Depths are measured from GL (46.2m above MSL). All in mMD.
~ASCII -----------------------------------------------------
# ...
  1966.88960     14.52  0.0000     18.00   2.3066  0.2050    94.00    8.59   2.3066    94.00  0.3200  0.0000  0.1165  0.2827   1.0   1.0  2.1016
  1967.04200     14.52  0.0000     18.00   2.3066  0.2050    94.00    8.59   2.3066    94.00  0.3200  0.0000  0.1165  0.2827   1.0   1.0  2.1016
  1967.19440     14.52  0.0000     18.00   2.3066  0.2050    94.00    8.59   2.3066    94.00  0.3200  0.0000  0.1165  0.2827   1.0   1.0  2.1016
  1967.34680     14.52  0.0000     18.00   2.3066  0.2050    94.00    8.59   2.3066    94.00  0.3200  0.0000  0.1165  0.2827   1.0   1.0  2.1016
  1967.49920     14.52  0.0000     18.00   2.3065  0.2050    94.00    8.59   2.3065    94.00  0.3200  0.0000  0.1165  0.2827   1.0   1.0  2.1016
  1967.65160     14.52  0.0000     18.00   2.3065  0.2050    93.99    8.59   2.3065    93.99  0.3200  0.0000  0.1165  0.2827   1.0   1.0  2.1016
  1967.80400     14.53  0.0000     18.00   2.3065  0.2050    93.99    8.59   2.3065    93.99  0.3200  0.0000  0.1165  0.2827   1.0   1.0  2.1016
  1967.95640     14.53  0.0000     18.00   2.3065  0.2050    93.99    8.59   2.3065    93.99  0.3199  0.0000  0.1165  0.2827   1.0   1.0  2.1016
  1968.10880     14.53  0.0000     18.00   2.3065  0.2050    93.99    8.59   2.3065    93.99  0.3199  0.0000  0.1165  0.2827   1.0   1.0  2.1016
  1968.26120     14.53  0.0000     18.00   2.3065  0.2050    93.99    8.59   2.3065    93.99  0.3199  0.0000  0.1165  0.2827   1.0   1.0  2.1016
  1968.41360     14.53  0.0000     18.00   2.3065  0.2050    93.99    8.59   2.3065    93.99  0.3199  0.0000  0.1165  0.2827   1.0   1.0  2.1015
  1968.56600     14.53  0.0000     18.00   2.3065  0.2049    93.99    8.59   2.3065    93.99  0.3199  0.0000  0.1165  0.2827   1.0   1.0  2.1015
  1968.71840     14.53  0.0000     18.00   2.3065  0.2049    93.99    8.59   2.3065    93.99  0.3199  0.0000  0.1165  0.2827   1.0   1.0  2.1015
  1968.87080     14.53  0.0000     18.00   2.3065  0.2049    93.99    8.59   2.3065    93.99  0.3199  0.0000  0.1165  0.2827   1.0   1.0  2.1015
  1969.02320     14.53  0.0000     18.00   2.3065  0.2049    93.99    8.59   2.3065    93.99  0.3199  0.0000  0.1165  0.2827   1.0   1.0  2.1015
  1969.17560     14.53  0.0000     18.00   2.3065  0.2049    93.99    8.59   2.3065    93.99  0.3199  0.0000  0.1165  0.2827   1.0   1.0  2.1015
  1969.32800     14.53  0.0000     18.00   2.3065  0.2049    93.99    8.59   2.3065    93.99  0.3199  0.0000  0.1165  0.2827   1.0   1.0  2.1015
  1969.48040     14.53  0.0000     18.00   2.3065  0.2049    93.99    8.59   2.3065    93.99  0.3199  0.0000  0.1165  0.2827   1.0   1.0  2.1015
  1969.63280     14.53  0.0000     18.00   2.3064  0.2049    93.99    8.58   2.3064    93.99  0.3199  0.0000  0.1165  0.2827   1.0   1.0  2.1015
  1969.78520     14.54  0.0000     18.00   2.3064  0.2049    93.99    8.58   2.3064    93.99  0.3199  0.0000  0.1165  0.2827   1.0   1.0  2.1015
  1969.93760     14.54  0.0000     18.00   2.3064  0.2049    93.99    8.58   2.3064    93.99  0.3199  0.0000  0.1165  0.2827   1.0   1.0  2.1015
  1970.09000     14.54  0.0000     18.00   2.3064  0.2049    93.99    8.58   2.3064    93.99  0.3199  0.0000  0.1165  0.2827   1.0   1.0  2.1015
  1970.24240     14.54  0.0000     18.00   2.3064  0.2049    93.99    8.58   2.3064    93.99  0.3199  0.0000  0.1165  0.2826   1.0   1.0  2.1015
  1970.39480     14.54  0.0000     18.00   2.3064  0.2049    93.99    8.58   2.3064    93.99  0.3199  0.0000  0.1165  0.2826   1.0   1.0  2.1015
  1970.54720     14.54  0.0000     18.00   2.3064  0.2049    93.99    8.58   2.3064    93.99  0.3199  0.0000  0.1165  0.2826   1.0   1.0  2.1015
  1970.69960     14.54  0.0000     18.00   2.3064  0.2049    93.98    8.58   2.3064    93.98  0.3199  0.0000  0.1165  0.2826   1.0   1.0  2.1015
  1970.85200     14.54  0.0000     18.00   2.3064  0.2049    93.98    8.58   2.3064    93.98  0.3199  0.0000  0.1165  0.2826   1.0   1.0  2.1015
  1971.00440     14.55  0.0000     18.00   2.3064  0.2049    93.98    8.58   2.3064    93.98  0.3199  0.0000  0.1165  0.2826   1.0   1.0  2.1015
  1971.15680     14.55  0.0000     18.00   2.3064  0.2049    93.98    8.58   2.3064    93.98  0.3199  0.0000  0.1165  0.2826   1.0   1.0  2.1015
  1971.30920     14.55  0.0000     18.00   2.3064  0.2049    93.98    8.58   2.3064    93.98  0.3199  0.0000  0.1165  0.2826   1.0   1.0  2.1015
  1971.46160     14.55  0.0000     18.00   2.3064  0.2049    93.98    8.58   2.3064    93.98  0.3199  0.0000  0.1165  0.2826   1.0   1.0  2.1015
  1971.61400     14.55  0.0000     18.00   2.3064  0.2049    93.98    8.58   2.3064    93.98  0.3199  0.0000  0.1165  0.2826   1.0   1.0  2.1015
  1971.76640     14.55  0.0000     18.00   2.3064  0.2049    93.98    8.58   2.3064    93.98  0.3199  0.0000  0.1165  0.2826   1.0   1.0  2.1015
  1971.91880     14.56  0.0000     18.00   2.3063  0.2049    93.98    8.58   2.3063    93.98  0.3199  0.0000  0.1165  0.2826   1.0   1.0  2.1015
  1972.07120     14.56  0.0000     18.00   2.3063  0.2049    93.98    8.58   2.3063    93.98  0.3199  0.0000  0.1165  0.2826   1.0   1.0  2.1015
  1972.22360     14.56  0.0000     18.00   2.3063  0.2048    93.98    8.57   2.3063    93.98  0.3199  0.0000  0.1165  0.2826   1.0   1.0  2.1015
  1972.37600     14.56  0.0000     18.00   2.3063  0.2048    93.98    8.57   2.3063    93.98  0.3199  0.0000  0.1165  0.2826   1.0   1.0  2.1015
  1972.52840     14.56  0.0000     18.00   2.3063  0.2048    93.98    8.57   2.3063    93.98  0.3199  0.0000  0.1165  0.2826   1.0   1.0  2.1015
  1972.68080     14.57  0.0000     18.00   2.3063  0.2048    93.97    8.57   2.3063    93.97  0.3199  0.0000  0.1165  0.2826   1.0   1.0  2.1015
  1972.83320     14.57  0.0000     18.00   2.3063  0.2048    93.97    8.57   2.3063    93.97  0.3199  0.0000  0.1165  0.2826   1.0   1.0  2.1015
  1972.98560     14.57  0.0000     18.00   2.3063  0.2048    93.97    8.57   2.3063    93.97  0.3199  0.0000  0.1165  0.2826   1.0   1.0  2.1015
  1973.13800     14.57  0.0000     18.00   2.3063  0.2048    93.97    8.57   2.3063    93.97  0.3199  0.0000  0.1165  0.2826   1.0   1.0  2.1015
  1973.29040     14.57  0.0000     18.00   2.3063  0.2048    93.97    8.57   2.3063    93.97  0.3199  0.0000  0.1165  0.2826   1.0   1.0  2.1015
  1973.44280     14.58  0.0000     18.00   2.3063  0.2048    93.97    8.57   2.3063    93.97  0.3199  0.0000  0.1165  0.2826   1.0   1.0  2.1015
  1973.59520     14.58  0.0000     18.00   2.3063  0.2048    93.97    8.57   2.3063    93.97  0.3199  0.0000  0.1165  0.2826   1.0   1.0  2.1015
  1973.74760     14.58  0.0000     18.00   2.3063  0.2048    93.97    8.57   2.3063    93.97  0.3199  0.0000  0.1165  0.2826   1.0   1.0  2.1015
  1973.90000     14.58  0.0000     18.00   2.3063  0.2048    93.97    8.57   2.3063    93.97  0.3199  0.0000  0.1165  0.2826   1.0   1.0  2.1015
  1974.05240     14.59  0.0000     18.00   2.3063  0.2048    93.97    8.57   2.3063    93.97  0.3199  0.0000  0.1165  0.2826   1.0   1.0  2.1015
  1974.20480     14.59  0.0000     18.00   2.3063  0.2048    93.97    8.57   2.3063    93.97  0.3199  0.0000  0.1165  0.2826   1.0   1.0  2.1015
  1974.35720     14.59  0.0000     18.00   2.3063  0.2048    93.96    8.57   2.3063    93.96  0.3199  0.0000  0.1165  0.2826   1.0   1.0  2.1015
  1974.50960     14.60  0.0000     18.00   2.3063  0.2048    93.96    8.57   2.3063    93.96  0.3199  0.0000  0.1165  0.2826   1.0   1.0  2.1015
  1974.66200     14.60  0.0000     18.00   2.3062  0.2048    93.96    8.57   2.3062    93.96  0.3199  0.0000  0.1165  0.2826   1.0   1.0  2.1015
  1974.81440     14.60  0.0000     18.00   2.3062  0.2047    93.96    8.56   2.3062    93.96  0.3199  0.0000  0.1165  0.2826   1.0   1.0  2.1015
  1974.96680     14.60  0.0000     18.00   2.3062  0.2047    93.96    8.56   2.3062    93.96  0.3199  0.0000  0.1165  0.2826   1.0   1.0  2.1015
  1975.11920     14.61  0.0000     18.00   2.3062  0.2047    93.96    8.56   2.3062    93.96  0.3198  0.0000  0.1165  0.2826   1.0   1.0  2.1015
  1975.27160     14.61  0.0000     18.00   2.3062  0.2047    93.96    8.56   2.3062    93.96  0.3198  0.0000  0.1165  0.2826   1.0   1.0  2.1015
