~Version ---------------------------------------------------
VERS.   2.0 : CWLS log ASCII Standard -VERSION 2.0
WRAP.    NO : One line per depth step
DLM . SPACE : Column Data Section Delimiter
~Well ------------------------------------------------------
STRT.M                  3615.43400 : START DEPTH
STOP.M                  4636.51400 : STOP DEPTH
STEP.M                     0.15240 : STEP
NULL.                      -999.25 : NULL VALUE
COMP.                              : COMPANY
WELL.                      15/9-19 : WELL
FLD .         Q15 North Sea Danish : FIELD
LOC .      Danish North Sea Sector : LOCATION
PROV.                              : PROVINCE
CNTY.                              : COUNTY
STAT.                              : STATE
CTRY.                              : COUNTRY
SRVC. GEOX Full Petrophysics + DAK : SERVICE COMPANY
DATE.                   2026-04-02 : DATE
UWI .                              : UNIQUE WELL ID
API .                              : API NUMBER
~Curve Information -----------------------------------------
DEPT   .M     : Measured Depth MD
AC     .US/F  : Sonic Transit Time
CALI   .IN    : Caliper
DEN    .G/CC  : Bulk Density
GR     .GAPI  : Gamma Ray
NEU    .PCT   : Neutron Porosity
RDEP   .OHMM  : Deep Induction
RMED   .OHMM  : Medium Induction
PHI_DN .V/V   : Avg DN Porosity
PHI_RH .V/V   : RHOB Porosity
VSHALE .V/V   : Shale Volume GR
VSAND  .V/V   : Sand Volume
SW     .V/V   : Sw Archie Rw002
VBW    .V/V   : Bulk Volume Water
VHC    .V/V   : Hydrocarbon Vol
CROSS  .V/V   : DN Crossover Gas
NET    .BIN   : Net Sand
PAY    .BIN   : Pay Sw<60pct
DIP_ANG.DEG   : Structural Dip Angle
DIP_AZI.DEG   : Structural Dip Azimuth
DAK_MRS.OHMM  : DAK Micro-Res Short
DAK_MRL.OHMM  : DAK Micro-Res Long
FRA_IDX.V/V   : Fracture Index
~Params ----------------------------------------------------
~Other -----------------------------------------------------
~ASCII -----------------------------------------------------
# ...
 4615.17800   40.00000    6.00000    2.52600   62.00420   14.11330    2.38570    2.04990    0.10814    0.07515    0.88214    0.11786    1.00000    0.10814    0.00000    0.06598    0.00000    0.00000    2.98175  109.31430    1.34196    3.38335    0.81243
 4615.33040   40.00000    6.00000    2.52290   61.18540   14.13830    2.26580    1.90740    0.10921    0.07703    0.86897    0.13103    1.00000    0.10921    0.00000    0.06435    0.00000    0.00000    0.57897  105.52867    1.70249    3.21374    0.20002
 4615.48280   40.00000    6.00000    2.51910   60.15850   14.15690    2.17520    1.80480    0.11045    0.07933    0.85245    0.14755    1.00000    0.11045    0.00000    0.06224    0.00000    0.00000    7.37803  131.25853    1.63403    3.08565    0.03948
 4615.63520   40.00000    6.00000    2.51560   59.10110   14.37210    2.16390    1.76090    0.11259    0.08145    0.83544    0.16456    1.00000    0.11259    0.00000    0.06227    0.00000    0.00000    7.01501  106.62799    1.46112    3.07002    0.11076
 4615.78760   40.00000    6.00000    2.50820   57.18790   14.91270    2.22100    1.71980    0.11753    0.08594    0.80466    0.19534    1.00000    0.11753    0.00000    0.06319    0.00000    0.00000    6.84462  117.36668    2.14971    3.15145    0.30608
 4615.94000   40.00000    6.00000    2.50280   55.14050   15.44040    2.31050    1.81240    0.12181    0.08921    0.77173    0.22827    1.00000    0.12181    0.00000    0.06519    0.00000    0.00000    1.18675  125.25002    1.70754    3.27888    0.24462
 4616.09240   40.00000    6.00000    2.50190   55.92320   15.54660    2.36110    1.89880    0.12261    0.08976    0.78432    0.21568    1.00000    0.12261    0.00000    0.06571    0.00000    0.00000    0.33115   99.23479    2.11163    3.35112    0.18271
 4616.24480   40.00000    6.00000    2.50220   60.85320   15.23450    2.53020    1.96890    0.12096    0.08958    0.86362    0.13638    1.00000    0.12096    0.00000    0.06277    0.00000    0.00000    1.30427   82.85098    1.50441    3.59160    0.37847
 4616.39720   40.00000    6.00000    2.50670   66.49760   14.85880    2.60140    2.03220    0.11772    0.08685    0.95442    0.04558    1.00000    0.11772    0.00000    0.06174    0.00000    0.00000    3.82973  134.04344    2.28267    3.69315    0.32663
 4616.54960   40.00000    6.00000    2.51000   69.63980   14.73230    2.56200    2.04100    0.11609    0.08485    1.00000    0.00000    1.00000    0.11609    0.00000    0.06247    0.00000    0.00000    5.57660  113.95494    1.44933    3.63768    0.53787
 4616.70200   40.00000    6.00000    2.51870   71.54070   14.79880    2.56970    2.06340    0.11378    0.07958    1.00000    0.00000    1.00000    0.11378    0.00000    0.06841    0.00000    0.00000    1.00805  128.49801    1.44960    3.64908    0.00017
 4616.85440   40.00000    6.00000    2.53240   73.38420   14.81430    2.62160    2.09670    0.10971    0.07127    1.00000    0.00000    1.00000    0.10971    0.00000    0.07687    0.00000    0.00000    1.37506  122.95975    2.38122    3.72326    0.37547
 4617.00680   40.00000    6.00000    2.53850   75.43840   14.75790    2.66850    2.10850    0.10758    0.06758    1.00000    0.00000    1.00000    0.10758    0.00000    0.08000    0.00000    0.00000    1.09343   91.48316    2.39816    3.79035    0.00678
 4617.15920   40.00000    6.00000    2.54200   80.19540   14.91680    2.70260    2.13010    0.10731    0.06545    1.00000    0.00000    1.00000    0.10731    0.00000    0.08371    0.00000    0.00000    5.31988  119.89376    1.60310    3.83928    0.46683
 4617.31160   40.00000    6.00000    2.55470   87.19580   15.40800    2.67870    2.13380    0.10592    0.05776    1.00000    0.00000    1.00000    0.10592    0.00000    0.09632    0.00000    0.00000    5.79746  107.20135    1.70264    3.80581    0.05522
 4617.46400   40.00000    6.00000    2.56620   90.90710   15.87770    2.62390    2.08650    0.10478    0.05079    1.00000    0.00000    1.00000    0.10478    0.00000    0.10799    0.00000    0.00000    4.54007  112.06443    2.49922    3.72842    0.30647
 4617.61640   40.00000    6.00000    2.57020   86.21900   15.85760    2.58980    2.04610    0.10347    0.04836    1.00000    0.00000    1.00000    0.10347    0.00000    0.11021    0.00000    0.00000    9.78013  107.59612    1.93490    3.68043    0.27732
 4617.76880   40.00000    6.00000    2.56740   74.87910   15.37270    2.56940    1.99250    0.10189    0.05006    1.00000    0.00000    1.00000    0.10189    0.00000    0.10367    0.00000    0.00000    4.70047  115.68246    1.94652    3.65189    0.00568
 4617.92120   40.00000    6.00000    2.55520   64.86740   14.89430    2.54560    1.99970    0.10320    0.05745    0.92820    0.07180    1.00000    0.10320    0.00000    0.09149    0.00000    0.00000    1.25030  120.85923    1.52284    3.61851    0.26107
 4618.07360 -999.25000 -999.25000 -999.25000 -999.25000 -999.25000 -999.25000 -999.25000 -999.25000 -999.25000 -999.25000 -999.25000 -999.25000 -999.25000 -999.25000 -999.25000    0.00000    0.00000 -999.25000 -999.25000 -999.25000 -999.25000 -999.25000
 4618.22600 -999.25000 -999.25000 -999.25000 -999.25000 -999.25000 -999.25000 -999.25000 -999.25000 -999.25000 -999.25000 -999.25000 -999.25000 -999.25000 -999.25000 -999.25000    0.00000    0.00000 -999.25000 -999.25000 -999.25000 -999.25000 -999.25000
 4618.37840 -999.25000 -999.25000 -999.25000 -999.25000 -999.25000 -999.25000 -999.25000 -999.25000 -999.25000 -999.25000 -999.25000 -999.25000 -999.25000 -999.25000 -999.25000    0.00000    0.00000 -999.25000 -999.25000 -999.25000 -999.25000 -999.25000
 4618.53080 -999.25000 -999.25000 -999.25000 -999.25000 -999.25000 -999.25000 -999.25000 -999.25000 -999.25000 -999.25000 -999.25000 -999.25000 -999.25000 -999.25000 -999.25000    0.00000    0.00000 -999.25000 -999.25000 -999.25000 -999.25000 -999.25000
 4618.68320 -999.25000 -999.25000 -999.25000 -999.25000 -999.25000 -999.25000 -999.25000 -999.25000 -999.25000 -999.25000 -999.25000 -999.25000 -999.25000 -999.25000 -999.25000    0.00000    0.00000 -999.25000 -999.25000 -999.25000 -999.25000 -999.25000
 4618.83560 -999.25000 -999.25000 -999.25000 -999.25000 -999.25000 -999.25000 -999.25000 -999.25000 -999.25000 -999.25000 -999.25000 -999.25000 -999.25000 -999.25000 -999.25000    0.00000    0.00000 -999.25000 -999.25000 -999.25000 -999.25000 -999.25000
 4618.98800 -999.25000 -999.25000 -999.25000 -999.25000 -999.25000 -999.25000 -999.25000 -999.25000 -999.25000 -999.25000 -999.25000 -999.25000 -999.25000 -999.25000 -999.25000    0.00000    0.00000 -999.25000 -999.25000 -999.25000 -999.25000 -999.25000
 4619.14040 -999.25000 -999.25000 -999.25000 -999.25000 -999.25000 -999.25000 -999.25000 -999.25000 -999.25000 -999.25000 -999.25000 -999.25000 -999.25000 -999.25000 -999.25000    0.00000    0.00000 -999.25000 -999.25000 -999.25000 -999.25000 -999.25000
 4619.29280 -999.25000 -999.25000 -999.25000 -999.25000 -999.25000 -999.25000 -999.25000 -999.25000 -999.25000 -999.25000 -999.25000 -999.25000 -999.25000 -999.25000 -999.25000    0.00000    0.00000 -999.25000 -999.25000 -999.25000 -999.25000 -999.25000
 4619.44520 -999.25000 -999.25000 -999.25000 -999.25000 -999.25000 -999.25000 -999.25000 -999.25000 -999.25000 -999.25000 -999.25000 -999.25000 -999.25000 -999.25000 -999.25000    0.00000    0.00000 -999.25000 -999.25000 -999.25000 -999.25000 -999.25000
 4619.59760 -999.25000 -999.25000 -999.25000 -999.25000 -999.25000 -999.25000 -999.25000 -999.25000 -999.25000 -999.25000 -999.25000 -999.25000 -999.25000 -999.25000 -999.25000    0.00000    0.00000 -999.25000 -999.25000 -999.25000 -999.25000 -999.25000
 4619.75000 -999.25000 -999.25000 -999.25000 -999.25000 -999.25000 -999.25000 -999.25000 -999.25000 -999.25000 -999.25000 -999.25000 -999.25000 -999.25000 -999.25000 -999.25000    0.00000    0.00000 -999.25000 -999.25000 -999.25000 -999.25000 -999.25000
 4619.90240 -999.25000 -999.25000 -999.25000 -999.25000 -999.25000 -999.25000 -999.25000 -999.25000 -999.25000 -999.25000 -999.25000 -999.25000 -999.25000 -999.25000 -999.25000    0.00000    0.00000 -999.25000 -999.25000 -999.25000 -999.25000 -999.25000
