~Version ---------------------------------------------------
VERS.   2.0 : CWLS log ASCII Standard -VERSION 2.0
WRAP.    NO : One line per depth step
DLM . SPACE : Column Data Section Delimiter
~Well ------------------------------------------------------
STRT.M                  3615.43400 : START DEPTH
STOP.M                  4636.51400 : STOP DEPTH
STEP.M                     0.15240 : STEP
NULL.                      -999.25 : NULL VALUE
COMP.                              : COMPANY
WELL.                      15/9-19 : WELL
FLD .         Q15 North Sea Danish : FIELD
LOC .      Danish North Sea Sector : LOCATION
PROV.                              : PROVINCE
CNTY.                              : COUNTY
STAT.                              : STATE
CTRY.                              : COUNTRY
SRVC. GEOX Full Petrophysics + DAK : SERVICE COMPANY
DATE.                   2026-04-02 : DATE
UWI .                              : UNIQUE WELL ID
API .                              : API NUMBER
~Curve Information -----------------------------------------
DEPT   .M     : Measured Depth MD
AC     .US/F  : Sonic Transit Time
CALI   .IN    : Caliper
DEN    .G/CC  : Bulk Density
GR     .GAPI  : Gamma Ray
NEU    .PCT   : Neutron Porosity
RDEP   .OHMM  : Deep Induction
RMED   .OHMM  : Medium Induction
PHI_DN .V/V   : Avg DN Porosity
PHI_RH .V/V   : RHOB Porosity
VSHALE .V/V   : Shale Volume GR
VSAND  .V/V   : Sand Volume
SW     .V/V   : Sw Archie Rw002
VBW    .V/V   : Bulk Volume Water
VHC    .V/V   : Hydrocarbon Vol
CROSS  .V/V   : DN Crossover Gas
NET    .BIN   : Net Sand
PAY    .BIN   : Pay Sw<60pct
DIP_ANG.DEG   : Structural Dip Angle
DIP_AZI.DEG   : Structural Dip Azimuth
DAK_MRS.OHMM  : DAK Micro-Res Short
DAK_MRL.OHMM  : DAK Micro-Res Long
FRA_IDX.V/V   : Fracture Index
~Params ----------------------------------------------------
~Other -----------------------------------------------------
~ASCII -----------------------------------------------------
# ...
 3947.05640   57.32890    9.71430    2.67270    6.41160    4.20040    8.26000    8.56000    0.01412   -0.01376    0.00000    1.00000    1.00000    0.01412    0.00000    0.05576    0.00000    0.00000   28.98858   32.17369    5.13818    8.32610    0.11357
 3947.20880   57.37620    9.80240    2.65730    9.43930    4.20210    8.13200    8.16300    0.01880   -0.00442    0.03656    0.96344    1.00000    0.01880    0.00000    0.04645    0.00000    0.00000   28.36915   49.45108    7.24734    8.19931    0.28706
 3947.36120   57.34410    9.90480    2.65620    7.20610    4.10180    7.97670    7.83630    0.01863   -0.00376    0.00064    0.99936    1.00000    0.01863    0.00000    0.04478    0.00000    0.00000   38.08749   10.97387    8.08017    8.04492    0.10181
 3947.51360   56.38640    9.76390    2.64290    6.28320    3.93900    7.55640    7.71640    0.02185    0.00430    0.00000    1.00000    1.00000    0.02185    0.00000    0.03509    0.00000    0.00000   29.96628   66.24382    6.43125    7.62311    0.25247
 3947.66600   56.70530    9.42860    2.62590    6.27770    4.47490    6.94750    7.51060    0.02968    0.01461    0.00000    1.00000    1.00000    0.02968    0.00000    0.03014    0.00000    0.00000   36.00201   56.10503    6.62602    7.01076    0.02896
 3947.81840   56.85430    9.42860    2.62640    5.76030    5.51010    6.30510    6.72290    0.03470    0.01430    0.00000    1.00000    1.00000    0.03470    0.00000    0.04080    0.00000    0.00000   31.48613   41.47307    6.36424    6.36426    0.04050
 3947.97080   59.58110    9.54210    2.63090    5.47770    4.53810    6.23990    6.04620    0.02848    0.01158    0.00000    1.00000    1.00000    0.02848    0.00000    0.03381    0.00000    0.00000   23.52122   77.16419    5.33950    6.30018    0.18839
 3948.12320   60.49640   10.00000    2.62630    9.05330    5.47040    6.20210    5.93560    0.03453    0.01436    0.03035    0.96965    1.00000    0.03453    0.00000    0.04034    0.00000    0.00000   26.05687   89.81640    5.92964    6.26375    0.09787
 3948.27560   61.40320    9.89170    2.63020    8.12330    6.35190    6.20920    5.97740    0.03776    0.01200    0.01539    0.98461    1.00000    0.03776    0.00000    0.05152    0.00000    0.00000   29.20099   69.60623    3.82225    6.27265    0.53729
 3948.42800   62.87520    9.60310    2.63450    8.95790    6.85410    6.28210    6.10350    0.03897    0.00939    0.02882    0.97118    1.00000    0.03897    0.00000    0.05915    0.00000    0.00000   32.31698   70.78910    5.37540    6.34806    0.28366
 3948.58040   62.68520    9.61900    2.63950    7.16630    6.35320    6.47200    6.31880    0.03495    0.00636    0.00000    1.00000    1.00000    0.03495    0.00000    0.05717    0.00000    0.00000   26.73231   47.78623    4.41105    6.54177    0.21377
 3948.73280   60.61420    9.67750    2.64410    8.26590    4.43260    6.84600    6.87530    0.02395    0.00358    0.01769    0.98231    1.00000    0.02395    0.00000    0.04075    0.00000    0.00000   23.72557   34.78978    4.48682    6.92173    0.01652
 3948.88520   60.25510    9.82180    2.64300    9.94120    4.82210    7.06210    7.57680    0.02623    0.00424    0.04464    0.95536    1.00000    0.02623    0.00000    0.04398    0.00000    0.00000   25.72971   24.45324    4.64420    7.14221    0.03317
 3949.03760   59.87690    9.90480    2.64090    5.05590    5.38670    7.16000    7.80680    0.02969    0.00552    0.00000    1.00000    1.00000    0.02969    0.00000    0.04835    0.00000    0.00000   28.20199   62.72681    6.63934    7.24325    0.29604
 3949.19000   58.30820    9.90480    2.64300    8.81530    5.31670    7.17750    7.84690    0.02870    0.00424    0.02653    0.97347    1.00000    0.02870    0.00000    0.04892    0.00000    0.00000   26.39789   18.86649    4.21005    7.26299    0.56363
 3949.34240   57.84630    9.96900    2.65160    9.27020    4.76870    7.18200    7.83410    0.02336   -0.00097    0.03384    0.96616    1.00000    0.02336    0.00000    0.04866    0.00000    0.00000   27.91251   44.08634    4.66733    7.26959    0.09592
 3949.49480   58.29690    9.90980    2.66030    9.34460    5.14220    7.36080    7.80950    0.02259   -0.00624    0.03504    0.96496    1.00000    0.02259    0.00000    0.05766    0.00000    0.00000   40.15103   72.64836    7.49352    7.45266    0.37218
 3949.64720   64.77030    9.45670    2.64820    8.42860    4.81290    7.53010    7.73220    0.02461    0.00109    0.02031    0.97969    1.00000    0.02461    0.00000    0.04704    0.00000    0.00000   32.24596   52.40511    6.27482    7.62623    0.19117
 3949.79960   57.22250    9.52380    2.63620    7.97380    5.34390    7.54150    7.53280    0.03090    0.00836    0.01299    0.98701    1.00000    0.03090    0.00000    0.04508    0.00000    0.00000   26.76729   28.19289    4.22328    7.63993    0.47453
 3949.95200   57.15940    9.52380    2.64150    7.77040    5.43320    7.47980    7.34130    0.02974    0.00515    0.00972    0.99028    1.00000    0.02974    0.00000    0.04918    0.00000    0.00000   30.81157   34.17956    4.23177    7.57958    0.00196
 3950.10440   57.24610    9.54760    2.64130    5.59870    5.02600    7.32730    7.28330    0.02777    0.00527    0.00000    1.00000    1.00000    0.02777    0.00000    0.04499    0.00000    0.00000   38.76176   66.19973    4.38017    7.42715    0.03312
 3950.25680   58.00770    9.61900    2.62510    6.27050    5.96550    7.05750    7.27720    0.03737    0.01509    0.00000    1.00000    1.00000    0.03737    0.00000    0.04456    0.00000    0.00000   34.11744   31.23671    6.84038    7.15571    0.35448
 3950.40920   57.83640    9.61900    2.62250    6.77270    5.40650    6.88950    7.22510    0.03537    0.01667    0.00000    1.00000    1.00000    0.03537    0.00000    0.03740    0.00000    0.00000   30.38035   40.21122    7.11620    6.98736    0.03822
 3950.56160   58.13180    9.54330    2.63290    6.63750    5.50590    6.59530    6.72950    0.03271    0.01036    0.00000    1.00000    1.00000    0.03271    0.00000    0.04470    0.00000    0.00000   24.11723   26.00542    6.62877    6.69089    0.07244
 3950.71400   59.66050    9.42860    2.64050    8.06210    6.40060    6.02780    6.21740    0.03488    0.00576    0.01441    0.98559    1.00000    0.03488    0.00000    0.05825    0.00000    0.00000   22.40665   46.12676    4.05832    6.11692    0.61815
 3950.86640   60.02430    9.42860    2.64850    8.80150    5.94840    5.85970    6.06270    0.03020    0.00091    0.02630    0.97370    1.00000    0.03020    0.00000    0.05857    0.00000    0.00000   29.20465   37.72962    3.36394    5.94804    0.20046
 3951.01880   60.66310    9.55620    2.64090    8.65280    5.87710    5.98340    6.04160    0.03214    0.00552    0.02391    0.97609    1.00000    0.03214    0.00000    0.05326    0.00000    0.00000   30.38726   62.41801    4.06101    6.07535    0.16752
 3951.17120   61.53830    9.61900    2.63240    9.59520    5.18570    6.05190    6.03900    0.03126    0.01067    0.03907    0.96093    1.00000    0.03126    0.00000    0.04119    0.00000    0.00000   22.80473   32.22154    3.39291    6.14667    0.19127
 3951.32360   60.02250    9.61900    2.63300    7.59930    5.07780    6.11910    6.09660    0.03054    0.01030    0.00697    0.99303    1.00000    0.03054    0.00000    0.04047    0.00000    0.00000   24.24615   40.55952    4.96655    6.21672    0.31059
 3951.47600   59.95810    9.61900    2.63990    9.06000    5.20930    6.12640    6.17760    0.02911    0.00612    0.03046    0.96954    1.00000    0.02911    0.00000    0.04597    0.00000    0.00000   30.73387   11.46744    3.74750    6.22593    0.31684
 3951.62840   59.58330    9.58080    2.64910    9.49440    4.83680    6.45200    6.57820    0.02446    0.00055    0.03745    0.96255    1.00000    0.02446    0.00000    0.04782    0.00000    0.00000   19.86169   66.67170    6.44547    6.55872    0.41219
 3951.78080   58.28680    9.43650    2.65560    8.13710    4.67420    6.58060    7.28880    0.02167   -0.00339    0.01562    0.98438    1.00000    0.02167    0.00000    0.05014    0.00000    0.00000   22.33764   65.18653    3.73150    6.69139    0.70833
