~Version ---------------------------------------------------
VERS.   2.0 : CWLS log ASCII Standard -VERSION 2.0
WRAP.    NO : One line per depth step
DLM . SPACE : Column Data Section Delimiter
~Well ------------------------------------------------------
STRT.M                  3615.43400 : START DEPTH
STOP.M                  4636.51400 : STOP DEPTH
STEP.M                     0.15240 : STEP
NULL.                      -999.25 : NULL VALUE
COMP.                              : COMPANY
WELL.                      15/9-19 : WELL
FLD .         Q15 North Sea Danish : FIELD
LOC .      Danish North Sea Sector : LOCATION
PROV.                              : PROVINCE
CNTY.                              : COUNTY
STAT.                              : STATE
CTRY.                              : COUNTRY
SRVC. GEOX Full Petrophysics + DAK : SERVICE COMPANY
DATE.                   2026-04-02 : DATE
UWI .                              : UNIQUE WELL ID
API .                              : API NUMBER
~Curve Information -----------------------------------------
DEPT   .M     : Measured Depth MD
AC     .US/F  : Sonic Transit Time
CALI   .IN    : Caliper
DEN    .G/CC  : Bulk Density
GR     .GAPI  : Gamma Ray
NEU    .PCT   : Neutron Porosity
RDEP   .OHMM  : Deep Induction
RMED   .OHMM  : Medium Induction
PHI_DN .V/V   : Avg DN Porosity
PHI_RH .V/V   : RHOB Porosity
VSHALE .V/V   : Shale Volume GR
VSAND  .V/V   : Sand Volume
SW     .V/V   : Sw Archie Rw002
VBW    .V/V   : Bulk Volume Water
VHC    .V/V   : Hydrocarbon Vol
CROSS  .V/V   : DN Crossover Gas
NET    .BIN   : Net Sand
PAY    .BIN   : Pay Sw<60pct
DIP_ANG.DEG   : Structural Dip Angle
DIP_AZI.DEG   : Structural Dip Azimuth
DAK_MRS.OHMM  : DAK Micro-Res Short
DAK_MRL.OHMM  : DAK Micro-Res Long
FRA_IDX.V/V   : Fracture Index
~Params ----------------------------------------------------
~Other -----------------------------------------------------
~ASCII -----------------------------------------------------
# ...
 4546.90280   76.74950    9.80950    2.49070   50.47040   16.33200    0.76560    0.97940    0.12993    0.09655    0.69660    0.30340    1.00000    0.12993    0.00000    0.06677    0.00000    0.00000    5.45660  106.10900    0.77709    0.97084    0.23301
 4547.05520   76.20680    9.90290    2.48560   42.17210   14.52130    0.77540    0.97940    0.12242    0.09964    0.56311    0.43689    1.00000    0.12242    0.00000    0.04558    0.00000    0.00000    5.83119  128.56111    0.77053    0.98361    0.00753
 4547.20760   75.65820    9.90480    2.49820   50.15020   15.98220    0.78210    0.97800    0.12591    0.09200    0.69145    0.30855    1.00000    0.12591    0.00000    0.06782    0.00000    0.00000    3.01357   99.66608    0.53590    0.99245    0.36898
 4547.36000   74.92990    9.81050    2.50870   51.05040   14.10740    0.78930    0.97660    0.11336    0.08564    0.70593    0.29407    1.00000    0.11336    0.00000    0.05544    0.00000    0.00000    4.72290  117.25273    0.48715    1.00193    0.08303
 4547.51240   74.11100    9.90480    2.50930   46.39210   13.26090    0.79640    0.97400    0.10894    0.08527    0.63100    0.36900    1.00000    0.10894    0.00000    0.04734    0.00000    0.00000    1.19522   99.23241    0.82455    1.01129    0.36493
 4547.66480   74.32940    9.90480    2.51250   45.75880   13.48890    0.81020    0.97670    0.10911    0.08333    0.62081    0.37919    1.00000    0.10911    0.00000    0.05156    0.00000    0.00000    0.94230  103.41654    0.62064    1.02917    0.28294
 4547.81720   74.42900    9.85170    2.51890   46.47960   14.36910    0.82610    0.97520    0.11157    0.07945    0.63241    0.36759    1.00000    0.11157    0.00000    0.06424    0.00000    0.00000    6.82957   88.30940    0.48504    1.04973    0.23179
 4547.96960   74.35720    9.80950    2.52730   45.94070   16.39150    0.84130    0.97430    0.11914    0.07436    0.62374    0.37626    1.00000    0.11914    0.00000    0.08955    0.00000    0.00000    1.10828  110.73246    0.85238    1.06941    0.38571
 4548.12200   73.51700    9.80950    2.53440   47.16540   15.51820    0.84800    0.97940    0.11262    0.07006    0.64344    0.35656    1.00000    0.11262    0.00000    0.08512    0.00000    0.00000    5.90392  101.10324    0.47886    1.07830    0.64528
 4548.27440   72.42220    9.80950    2.54370   51.50090   15.01650    0.84850    0.97400    0.10729    0.06442    0.71318    0.28682    1.00000    0.10729    0.00000    0.08574    0.00000    0.00000    9.04685  102.10020    0.72508    1.07931    0.29843
 4548.42680   71.18470    9.80950    2.55800   49.68830   14.76420    0.85170    0.97400    0.10170    0.05576    0.68402    0.31598    1.00000    0.10170    0.00000    0.09188    0.00000    0.00000    4.82870  136.17782    0.77758    1.08375    0.05982
 4548.57920   68.01280    9.90480    2.56520   52.83150   12.87760    0.86430    0.97700    0.09008    0.05139    0.73458    0.26542    1.00000    0.09008    0.00000    0.07738    0.00000    0.00000    3.49956   96.76479    0.76269    1.10016    0.01727
 4548.73160   68.95270    9.90480    2.56470   57.53700   13.51850    0.89160    0.98110    0.09344    0.05170    0.81028    0.18972    1.00000    0.09344    0.00000    0.08349    0.00000    0.00000    9.22020  126.37630    0.61155    1.13529    0.21241
 4548.88400   66.85460    9.80950    2.55490   60.62330   11.31840    0.89570    0.99210    0.08541    0.05764    0.85993    0.14007    1.00000    0.08541    0.00000    0.05555    0.00000    0.00000    5.73339  105.50746    0.52543    1.14091    0.13769
 4549.03640   69.99460    9.80950    2.53240   57.90970   12.51860    0.89890    1.01110    0.09823    0.07127    0.81627    0.18373    1.00000    0.09823    0.00000    0.05391    0.00000    0.00000    8.53022  105.67968    0.59285    1.14537    0.09731
 4549.18880   68.77610    9.80950    2.51500   52.33460   12.30530    0.90680    1.03640    0.10244    0.08182    0.72659    0.27341    1.00000    0.10244    0.00000    0.04123    0.00000    0.00000    9.15788  112.49840    0.94306    1.15583    0.33575
 4549.34120   71.31250    9.87690    2.50610   52.69760   12.70270    0.92840    1.05760    0.10712    0.08721    0.73243    0.26757    1.00000    0.10712    0.00000    0.03981    0.00000    0.00000    0.61565  103.14066    0.54780    1.18377    0.61017
 4549.49360   70.48100    9.88360    2.51810   50.66110   10.88570    0.94900    1.07860    0.09440    0.07994    0.69967    0.30033    1.00000    0.09440    0.00000    0.02892    0.00000    0.00000   10.81386  149.30441    0.86720    1.21045    0.33024
 4549.64600   70.47440    9.87970    2.54170   52.57080   12.65650    0.96910    1.11960    0.09610    0.06564    0.73039    0.26961    1.00000    0.09610    0.00000    0.06093    0.00000    0.00000    7.69761   95.98232    0.78735    1.23650    0.08999
 4549.79840   69.69640    9.88070    2.55590   57.78370   12.82860    0.99490    1.15540    0.09266    0.05703    0.81425    0.18575    1.00000    0.09266    0.00000    0.07126    0.00000    0.00000    5.93532  104.54721    0.63510    1.26985    0.20712
 4549.95080   68.52860    9.80950    2.56710   59.12210   12.82230    1.01920    1.16410    0.08923    0.05024    0.83578    0.16422    1.00000    0.08923    0.00000    0.07798    0.00000    0.00000    2.48224  110.97254    1.05994    1.30131    0.36626
 4550.10320   67.06570    9.80950    2.57160   62.73680   13.17790    1.05060    1.17190    0.08965    0.04752    0.89392    0.10608    1.00000    0.08965    0.00000    0.08426    0.00000    0.00000    0.88520  126.36742    0.81318    1.34186    0.27022
 4550.25560   67.02130    9.73350    2.58550   54.46210   12.94820    1.08580    1.20630    0.08429    0.03909    0.76082    0.23918    1.00000    0.08429    0.00000    0.09039    0.00000    0.00000    2.91444  120.14799    0.66735    1.38729    0.19004
 4550.40800   66.89500    9.80950    2.60250   53.46660   14.72840    1.13160    1.27080    0.08804    0.02879    0.74480    0.25520    1.00000    0.08804    0.00000    0.11850    0.00000    0.00000    6.24732  118.05509    1.04962    1.44629    0.33252
 4550.56040   66.36130    9.80950    2.59660   53.59340   15.67780    1.17810    1.34330    0.09457    0.03236    0.74684    0.25316    1.00000    0.09457    0.00000    0.12441    0.00000    0.00000    3.31682  104.88054    1.14798    1.50623    0.07882
 4550.71280   85.64700    9.84230    2.59150   54.39130   13.78590    1.23300    1.40560    0.08666    0.03545    0.75968    0.24032    1.00000    0.08666    0.00000    0.10240    0.00000    0.00000    2.98350  112.08484    1.11227    1.57696    0.02945
 4550.86520   86.63080    9.90480    2.59670   58.86840   13.38970    1.29500    1.45270    0.08310    0.03230    0.83170    0.16830    1.00000    0.08310    0.00000    0.10159    0.00000    0.00000    1.75995  128.54452    0.77621    1.65681    0.38355
 4551.01760   87.43580    9.80950    2.58380   64.27820   14.29450    1.35400    1.48180    0.09153    0.04012    0.91872    0.08128    1.00000    0.09153    0.00000    0.10282    0.00000    0.00000    2.65564  131.32660    1.09532    1.73288    0.26697
 4551.17000   84.65720    9.80950    2.56780   61.70980   14.85850    1.38270    1.48790    0.09920    0.04982    0.87740    0.12260    1.00000    0.09920    0.00000    0.09877    0.00000    0.00000    7.91920   96.25164    1.38468    1.77021    0.19490
 4551.32240   73.94950    9.80950    2.54930   61.46660   13.78620    1.39360    1.47370    0.09945    0.06103    0.87349    0.12651    1.00000    0.09945    0.00000    0.07683    0.00000    0.00000    1.63063   75.85506    0.91142    1.78476    0.46791
 4551.47480   70.25040    9.89700    2.54010   59.48520   14.67410    1.40530    1.45180    0.10667    0.06661    0.84162    0.15838    1.00000    0.10667    0.00000    0.08013    0.00000    0.00000    9.35970  126.05616    1.45873    1.80035    0.35113
 4551.62720   70.40020    9.86340    2.54120   56.35520   14.56490    1.40930    1.43660    0.10579    0.06594    0.79127    0.20873    1.00000    0.10579    0.00000    0.07971    0.00000    0.00000    0.94300  113.00570    1.37640    1.80608    0.05577
