~Version ---------------------------------------------------
VERS.   2.0 : CWLS log ASCII Standard -VERSION 2.0
WRAP.    NO : One line per depth step
DLM . SPACE : Column Data Section Delimiter
~Well ------------------------------------------------------
STRT.M                  3615.43400 : START DEPTH
STOP.M                  4636.51400 : STOP DEPTH
STEP.M                     0.15240 : STEP
NULL.                      -999.25 : NULL VALUE
COMP.                              : COMPANY
WELL.                      15/9-19 : WELL
FLD .         Q15 North Sea Danish : FIELD
LOC .      Danish North Sea Sector : LOCATION
PROV.                              : PROVINCE
CNTY.                              : COUNTY
STAT.                              : STATE
CTRY.                              : COUNTRY
SRVC. GEOX Full Petrophysics + DAK : SERVICE COMPANY
DATE.                   2026-04-02 : DATE
UWI .                              : UNIQUE WELL ID
API .                              : API NUMBER
~Curve Information -----------------------------------------
DEPT   .M     : Measured Depth MD
AC     .US/F  : Sonic Transit Time
CALI   .IN    : Caliper
DEN    .G/CC  : Bulk Density
GR     .GAPI  : Gamma Ray
NEU    .PCT   : Neutron Porosity
RDEP   .OHMM  : Deep Induction
RMED   .OHMM  : Medium Induction
PHI_DN .V/V   : Avg DN Porosity
PHI_RH .V/V   : RHOB Porosity
VSHALE .V/V   : Shale Volume GR
VSAND  .V/V   : Sand Volume
SW     .V/V   : Sw Archie Rw002
VBW    .V/V   : Bulk Volume Water
VHC    .V/V   : Hydrocarbon Vol
CROSS  .V/V   : DN Crossover Gas
NET    .BIN   : Net Sand
PAY    .BIN   : Pay Sw<60pct
DIP_ANG.DEG   : Structural Dip Angle
DIP_AZI.DEG   : Structural Dip Azimuth
DAK_MRS.OHMM  : DAK Micro-Res Short
DAK_MRL.OHMM  : DAK Micro-Res Long
FRA_IDX.V/V   : Fracture Index
~Params ----------------------------------------------------
~Other -----------------------------------------------------
~ASCII -----------------------------------------------------
# ...
 4083.60680   69.18020    9.90480    2.51380   20.16580   14.01720    1.99400    2.04580    0.11136    0.08255    0.20911    0.79089    0.97786    0.10889    0.00247    0.05763    1.00000    0.00000   32.34646   46.60601    1.76376    2.72923    0.28170
 4083.75920   69.20220    9.90480    2.51990   18.82160   15.88670    1.99490    2.04580    0.11886    0.07885    0.18749    0.81251    0.90899    0.10804    0.01082    0.08002    1.00000    0.00000   31.58104   42.26166    1.11801    2.73111    0.53017
 4083.91160   69.22370    9.90480    2.52930   16.40680   14.60790    1.99520    2.04580    0.10962    0.07315    0.14865    0.85135    0.95577    0.10477    0.00485    0.07293    1.00000    0.00000   39.46608   66.26535    1.19253    2.73216    0.05765
 4084.06400   69.26170    9.90480    2.53060   19.55870   17.58160    1.99480    2.04580    0.12409    0.07236    0.19935    0.80065    0.88018    0.10922    0.01487    0.10345    1.00000    0.00000   34.38958   36.52628    1.27064    2.73226    0.05699
 4084.21640   69.15450    9.90480    2.52300   18.11880   13.73780    1.99620    2.04500    0.10717    0.07697    0.17619    0.82381    0.99152    0.10626    0.00091    0.06041    1.00000    0.00000   32.87537   76.46464    1.27969    2.73482    0.00656
 4084.36880   69.21430    9.90480    2.52330   16.05990   12.68970    1.99560    2.04580    0.10184    0.07679    0.14307    0.85693    1.00000    0.10184    0.00000    0.05011    1.00000    0.00000   39.14381   40.41480    1.38005    2.73465    0.06780
 4084.52120   69.19290    9.90480    2.52140   15.22840   14.12490    1.99520    2.04500    0.10959    0.07794    0.12969    0.87031    0.94520    0.10359    0.00601    0.06331    1.00000    0.00000   34.84818   44.76078    1.70119    2.73474    0.17829
 4084.67360   69.25000    9.90480    2.51860   17.45870   13.30870    2.00790    2.04580    0.10636    0.07964    0.16557    0.83443    0.98908    0.10520    0.00116    0.05345    1.00000    0.00000   31.47397   55.85693    1.90275    2.75279    0.10064
 4084.82600   69.20180    9.90480    2.51670   15.09550   12.60690    2.05820    2.04580    0.10343    0.08079    0.12755    0.87245    0.97953    0.10131    0.00212    0.04528    1.00000    0.00000   39.26929   29.67480    1.88166    2.82241    0.01064
 4084.97840   69.19580    9.90480    2.52240   15.41300   14.40900    2.06510    2.04760    0.11071    0.07733    0.13266    0.86734    0.92215    0.10209    0.00862    0.06676    1.00000    0.00000   33.15568   57.15254    1.24165    2.83253    0.47703
 4085.13080   69.27020    9.90480    2.52300   14.80940   13.03140    2.06370    2.05200    0.10364    0.07697    0.12295    0.87705    0.97378    0.10092    0.00272    0.05334    1.00000    0.00000   39.53567   54.83574    1.20751    2.83127    0.02612
 4085.28320   69.29390    9.92020    2.51700   11.93660   12.87940    2.06530    2.05440    0.10470    0.08061    0.07674    0.92326    0.93907    0.09832    0.00638    0.04819    1.00000    0.00000   31.60068   75.98970    2.08759    2.83413    0.40231
 4085.43560   69.29580    9.87090    2.51470   14.04400   12.76670    2.06540    2.05350    0.10483    0.08200    0.11064    0.88936    0.95648    0.10027    0.00456    0.04567    1.00000    0.00000   36.54753   66.46483    1.91581    2.83492    0.08522
 4085.58800   69.29990    9.80950    2.51990   15.22840   12.78480    2.06560    2.08000    0.10335    0.07885    0.12969    0.87031    0.97968    0.10125    0.00210    0.04900    1.00000    0.00000   41.07922   17.53166    1.17473    2.83585    0.58136
 4085.74040   69.35680    9.80950    2.52790   16.49690   17.17910    2.06580    2.15200    0.12290    0.07400    0.15009    0.84991    0.84647    0.10403    0.01887    0.09779    1.00000    0.00000   37.20853   60.88077    1.21587    2.83678    0.03126
 4085.89280   69.29860    9.80950    2.53320   13.23700   16.87430    2.06840    2.13580    0.11977    0.07079    0.09766    0.90234    0.83954    0.10055    0.01922    0.09796    1.00000    0.00000   37.43128   39.59851    1.68230    2.84100    0.26171
 4086.04520   69.22690    9.80950    2.52720   17.83180   14.80300    2.08580    2.13700    0.11123    0.07442    0.17157    0.82843    0.93532    0.10403    0.00719    0.07361    1.00000    0.00000   37.17391   40.02479    1.86434    2.86556    0.09267
 4086.19760   69.17940    9.73840    2.52120   15.22840   17.65030    2.08540    2.13540    0.12728    0.07806    0.12969    0.87031    0.80541    0.10251    0.02477    0.09844    1.00000    0.00000   39.20319   42.10433    1.92083    2.86567    0.02795
 4086.35000   69.21750    9.80950    2.51960   15.91690   13.77550    2.07920    2.13540    0.10839    0.07903    0.14076    0.85924    0.94142    0.10204    0.00635    0.05872    1.00000    0.00000   35.35686   86.33481    1.16876    2.85780    0.59276
 4086.50240   69.19640    9.80950    2.51660   14.33260   14.29220    2.08360    2.13540    0.11189    0.08085    0.11528    0.88472    0.89993    0.10069    0.01120    0.06207    1.00000    0.00000   37.17152   48.47515    1.33519    2.86450    0.11596
 4086.65480   69.16880    9.80950    2.51280   14.33260   13.40800    2.08420    2.13420    0.10862    0.08315    0.11528    0.88472    0.92451    0.10042    0.00820    0.05093    1.00000    0.00000   33.81846   55.34153    1.60664    2.86598    0.15905
 4086.80720   69.10450    9.80950    2.51360   13.94730   14.28210    2.08200    2.13390    0.11274    0.08267    0.10908    0.89092    0.89073    0.10042    0.01232    0.06015    1.00000    0.00000   44.51876   69.22164    1.24554    2.86361    0.26836
 4086.95960   69.17150    9.80950    2.52050   14.79190   15.13070    2.08270    2.13910    0.11490    0.07848    0.12267    0.87733    0.88232    0.10138    0.01352    0.07282    1.00000    0.00000   30.61215   83.59234    1.92279    2.86522    0.33481
 4087.11200   69.28660    9.80950    2.52330   15.22840   15.05670    2.08310    2.12980    0.11368    0.07679    0.12969    0.87031    0.89465    0.10170    0.01198    0.07378    1.00000    0.00000   39.04017   49.23745    2.00612    2.86642    0.03956
 4087.26440   69.22970    9.80950    2.52860   15.99830   12.80610    2.08280    2.13390    0.10082    0.07358    0.14207    0.85793    1.00000    0.10082    0.00000    0.05449    1.00000    0.00000   30.09730   57.47004    1.28325    2.86665    0.52259
 4087.41680   69.29100    9.80950    2.53360   14.44330   14.88730    2.08230    2.13600    0.10971    0.07055    0.11706    0.88294    0.91748    0.10066    0.00905    0.07833    1.00000    0.00000   37.62000   59.30183    1.16715    2.86661    0.09163
 4087.56920   69.29520    9.80950    2.53390   16.12420   12.42890    2.08440    2.13840    0.09733    0.07036    0.14410    0.85590    1.00000    0.09733    0.00000    0.05393    0.00000    0.00000   41.46218   56.57649    2.01812    2.87014    0.40176
 4087.72160   69.25040    9.80950    2.52830   18.08640   13.49160    2.08280    2.13860    0.10434    0.07376    0.17566    0.82434    0.99409    0.10372    0.00062    0.06116    1.00000    0.00000   29.54051   51.99223    1.90504    2.86858    0.05640
 4087.87400   69.34000    9.80950    2.53200   20.31620   12.27420    2.08280    2.14000    0.09713    0.07152    0.21153    0.78847    1.00000    0.09713    0.00000    0.05123    0.00000    0.00000   43.64676   37.65662    2.13506    2.86922    0.10292
 4088.02640   71.40390    9.80950    2.54050   20.60320   14.96170    2.08070    2.14010    0.10799    0.06636    0.21615    0.78385    0.98846    0.10674    0.00125    0.08325    1.00000    0.00000   30.20050   47.24016    1.19399    2.86697    0.72727
 4088.17880   72.17190    9.80950    2.53690   13.79380   12.88820    2.21280    2.14010    0.09871    0.06855    0.10661    0.89339    0.97325    0.09607    0.00264    0.06034    0.00000    0.00000   30.89306   42.83125    1.43021    3.04967    0.15438
 4088.33120   72.17190    9.80950    2.53270   13.43680   14.24500    2.34980    2.13930    0.10677    0.07109    0.10087    0.89913    0.87699    0.09364    0.01313    0.07136    1.00000    0.00000   36.54873   39.79556    1.38918    3.23920    0.02755
