~Version ---------------------------------------------------
VERS.   2.0 : CWLS log ASCII Standard -VERSION 2.0
WRAP.    NO : One line per depth step
DLM . SPACE : Column Data Section Delimiter
~Well ------------------------------------------------------
STRT.M                  3615.43400 : START DEPTH
STOP.M                  4636.51400 : STOP DEPTH
STEP.M                     0.15240 : STEP
NULL.                      -999.25 : NULL VALUE
COMP.                              : COMPANY
WELL.                      15/9-19 : WELL
FLD .         Q15 North Sea Danish : FIELD
LOC .      Danish North Sea Sector : LOCATION
PROV.                              : PROVINCE
CNTY.                              : COUNTY
STAT.                              : STATE
CTRY.                              : COUNTRY
SRVC. GEOX Full Petrophysics + DAK : SERVICE COMPANY
DATE.                   2026-04-02 : DATE
UWI .                              : UNIQUE WELL ID
API .                              : API NUMBER
~Curve Information -----------------------------------------
DEPT   .M     : Measured Depth MD
AC     .US/F  : Sonic Transit Time
CALI   .IN    : Caliper
DEN    .G/CC  : Bulk Density
GR     .GAPI  : Gamma Ray
NEU    .PCT   : Neutron Porosity
RDEP   .OHMM  : Deep Induction
RMED   .OHMM  : Medium Induction
PHI_DN .V/V   : Avg DN Porosity
PHI_RH .V/V   : RHOB Porosity
VSHALE .V/V   : Shale Volume GR
VSAND  .V/V   : Sand Volume
SW     .V/V   : Sw Archie Rw002
VBW    .V/V   : Bulk Volume Water
VHC    .V/V   : Hydrocarbon Vol
CROSS  .V/V   : DN Crossover Gas
NET    .BIN   : Net Sand
PAY    .BIN   : Pay Sw<60pct
DIP_ANG.DEG   : Structural Dip Angle
DIP_AZI.DEG   : Structural Dip Azimuth
DAK_MRS.OHMM  : DAK Micro-Res Short
DAK_MRL.OHMM  : DAK Micro-Res Long
FRA_IDX.V/V   : Fracture Index
~Params ----------------------------------------------------
~Other -----------------------------------------------------
~ASCII -----------------------------------------------------
# ...
 4283.55560   76.42050    9.90480    2.58770   53.45830   13.80130    2.96320    3.00470    0.08789    0.03776    0.74467    0.25533    1.00000    0.08789    0.00000    0.10026    0.00000    0.00000   25.06704   86.82478    1.68960    3.45845    0.62904
 4283.70800   75.58570    9.90480    2.58990   56.43480   12.51660    2.99410    3.02240    0.08080    0.03642    0.79255    0.20745    1.00000    0.08080    0.00000    0.08874    0.00000    0.00000   29.27634   71.32910    2.96051    3.49316    0.41526
 4283.86040   75.83010    9.90480    2.59610   49.50900   15.05710    3.01010    3.05050    0.09162    0.03267    0.68114    0.31886    1.00000    0.09162    0.00000    0.11790    0.00000    0.00000   20.77071   71.56425    1.68609    3.51047    0.71352
 4284.01280   75.35600    9.90480    2.59030   57.05240   14.75170    3.03460    3.08440    0.09185    0.03618    0.80248    0.19752    1.00000    0.09185    0.00000    0.11134    0.00000    0.00000   25.62647   54.64248    1.70438    3.53767    0.01013
 4284.16520   75.31540    9.90480    2.57520   60.35470   13.31590    3.05130    3.10470    0.08925    0.04533    0.85561    0.14439    1.00000    0.08925    0.00000    0.08783    0.00000    0.00000   15.49333   87.22986    3.17030    3.55575    0.44825
 4284.31760   75.51460    9.90480    2.56410   61.15250   13.31590    3.07360    3.12260    0.09261    0.05206    0.86844    0.13156    1.00000    0.09261    0.00000    0.08110    0.00000    0.00000   22.30014  100.14593    3.18755    3.58035    0.00525
 4284.47000   76.15680    9.90480    2.56540   57.71240   15.56360    3.07870    3.13570    0.10345    0.05127    0.81310    0.18690    1.00000    0.10345    0.00000    0.10436    0.00000    0.00000   24.93130   76.60540    1.82028    3.58490    0.71201
 4284.62240   76.19570    9.90480    2.56160   60.75620   14.84700    3.08100    3.16390    0.10102    0.05358    0.86206    0.13794    1.00000    0.10102    0.00000    0.09489    0.00000    0.00000   18.64319   54.54471    2.70959    3.58618    0.31653
 4284.77480   75.50100    9.95650    2.55260   56.66830   15.09560    3.09440    3.19080    0.10499    0.05903    0.79630    0.20370    1.00000    0.10499    0.00000    0.09193    0.00000    0.00000   19.96751   55.04564    1.86367    3.60038    0.43079
 4284.92720   74.66190    9.90480    2.55440   57.22910   16.47960    3.07960    3.22000    0.11137    0.05794    0.80533    0.19467    1.00000    0.11137    0.00000    0.10686    0.00000    0.00000   30.40503   74.26322    1.75738    3.58177    0.05723
 4285.07960   74.52900    9.85840    2.56190   59.12210   14.44730    3.14710    3.22930    0.09893    0.05339    0.83578    0.16422    1.00000    0.09893    0.00000    0.09108    0.00000    0.00000   28.22472   55.97220    2.83991    3.65886    0.36822
 4285.23200   74.06210    9.90480    2.56260   51.95580   16.34330    3.14350    3.20420    0.10820    0.05297    0.72050    0.27950    1.00000    0.10820    0.00000    0.11046    0.00000    0.00000   31.17057   66.85712    2.37394    3.65325    0.18835
 4285.38440   73.92350    9.90480    2.57560   51.49260   14.61310    3.14310    3.19440    0.09561    0.04509    0.71305    0.28695    1.00000    0.09561    0.00000    0.10104    0.00000    0.00000   31.56631   57.56423    1.82812    3.65137    0.28309
 4285.53680   74.21930    9.99690    2.57730   55.65450   14.98060    3.16650    3.19090    0.09693    0.04406    0.78000    0.22000    1.00000    0.09693    0.00000    0.10575    0.00000    0.00000   28.92838   77.23846    2.06176    3.67712    0.10808
 4285.68920   73.74850    9.90480    2.57640   55.19960   15.54270    3.17900    3.19360    0.10002    0.04461    0.77268    0.22732    1.00000    0.10002    0.00000    0.11082    0.00000    0.00000   29.70249   57.67614    2.03828    3.69020    0.01098
 4285.84160   75.07420    9.90480    2.56840   48.82060   13.60040    3.12350    3.33220    0.09273    0.04945    0.67006    0.32994    1.00000    0.09273    0.00000    0.08655    0.00000    0.00000   27.18925   89.38296    2.18557    3.62437    0.06444
 4285.99400   75.40340    9.90480    2.56410   55.53900   14.90170    3.14280    3.15820    0.10054    0.05206    0.77814    0.22186    1.00000    0.10054    0.00000    0.09696    0.00000    0.00000   32.12499   98.22986    1.85479    3.64535    0.16921
 4286.14640   75.05930    9.90480    2.56890   58.62350   14.41830    3.12880    3.20940    0.09667    0.04915    0.82776    0.17224    1.00000    0.09667    0.00000    0.09503    0.00000    0.00000   18.05872   97.74598    3.21289    3.62770    0.40994
 4286.29880   75.03650    9.90480    2.57120   54.83650   14.89110    3.11570    3.23870    0.09833    0.04776    0.76684    0.23316    1.00000    0.09833    0.00000    0.10115    0.00000    0.00000   24.82689   52.46158    2.64929    3.61111    0.20500
 4286.45120   75.01490    9.91650    2.57320   56.76540   18.05820    3.07710    3.18510    0.11356    0.04655    0.79787    0.20213    1.00000    0.11356    0.00000    0.13404    0.00000    0.00000   30.86439   94.12170    2.75641    3.56498    0.03750
 4286.60360   74.86510   10.00000    2.58060   56.26370   14.29350    3.09900    3.17350    0.09250    0.04206    0.78980    0.21020    1.00000    0.09250    0.00000    0.10087    0.00000    0.00000   29.89631   81.71090    3.02679    3.58896    0.08647
 4286.75600   75.11440    9.98540    2.58410   60.57340   11.94200    3.14590    3.18310    0.07968    0.03994    0.85912    0.14088    1.00000    0.07968    0.00000    0.07948    0.00000    0.00000   26.00935   84.89720    3.15626    3.64186    0.03976
 4286.90840   75.06840    9.90480    2.57380   53.14860   13.63740    3.12590    3.18360    0.09128    0.04618    0.73969    0.26031    1.00000    0.09128    0.00000    0.09019    0.00000    0.00000   24.01516   83.40283    1.86754    3.61730    0.65499
 4287.06080   74.76820    9.90480    2.57600   57.00160   14.75580    3.11870    3.19440    0.09620    0.04485    0.80167    0.19833    1.00000    0.09620    0.00000    0.10271    0.00000    0.00000   29.85065   86.52114    1.75839    3.60757    0.05873
 4287.21320   73.79730    9.90480    2.58500   51.78350   15.13490    3.10860    3.18980    0.09537    0.03939    0.71773    0.28227    1.00000    0.09537    0.00000    0.11196    0.00000    0.00000   24.79733   82.69862    2.82086    3.59449    0.36375
 4287.36560   73.71560    9.90480    2.58730   54.26000   13.41590    3.08800    3.16620    0.08608    0.03800    0.75756    0.24244    1.00000    0.08608    0.00000    0.09616    0.00000    0.00000   20.01283   79.19717    2.80167    3.56928    0.00661
 4287.51800   72.92650    9.90480    2.58660   54.81070   12.44000    3.07540    3.13000    0.08141    0.03842    0.76642    0.23358    1.00000    0.08141    0.00000    0.08598    0.00000    0.00000   31.43893   75.06338    1.88699    3.55333    0.46033
 4287.67040   73.37310   10.00000    2.58290   54.22680   15.06830    3.05530    3.10860    0.09567    0.04067    0.75703    0.24297    1.00000    0.09567    0.00000    0.11002    0.00000    0.00000   23.70531   66.68949    3.14167    3.52874    0.38705
 4287.82280   74.39960   10.00000    2.57680   52.20470   15.73450    3.04120    3.06240    0.10085    0.04436    0.72450    0.27550    1.00000    0.10085    0.00000    0.11298    0.00000    0.00000   26.51115   92.22275    2.83318    3.51109    0.10517
 4287.97520   74.67550    9.97390    2.57220   57.41800   14.04180    2.98440    3.01480    0.09378    0.04715    0.80836    0.19164    1.00000    0.09378    0.00000    0.09327    0.00000    0.00000   17.46124   74.51125    1.73419    3.44417    0.59917
 4288.12760   74.94170    9.90480    2.56610   55.07010   16.28850    2.88690    2.97320    0.10687    0.05085    0.77060    0.22940    1.00000    0.10687    0.00000    0.11204    0.00000    0.00000   12.74395   70.74660    2.22548    3.33035    0.21126
 4288.28000   76.47410    9.90480    2.55620   58.96560   14.88040    2.86230    2.92680    0.10283    0.05685    0.83326    0.16674    1.00000    0.10283    0.00000    0.09196    0.00000    0.00000   27.80441   89.10528    2.33676    3.30069    0.04567
