~Version ---------------------------------------------------
VERS.   2.0 : CWLS log ASCII Standard -VERSION 2.0
WRAP.    NO : One line per depth step
DLM . SPACE : Column Data Section Delimiter
~Well ------------------------------------------------------
STRT.M                  3615.43400 : START DEPTH
STOP.M                  4636.51400 : STOP DEPTH
STEP.M                     0.15240 : STEP
NULL.                      -999.25 : NULL VALUE
COMP.                              : COMPANY
WELL.                      15/9-19 : WELL
FLD .         Q15 North Sea Danish : FIELD
LOC .      Danish North Sea Sector : LOCATION
PROV.                              : PROVINCE
CNTY.                              : COUNTY
STAT.                              : STATE
CTRY.                              : COUNTRY
SRVC. GEOX Full Petrophysics + DAK : SERVICE COMPANY
DATE.                   2026-04-02 : DATE
UWI .                              : UNIQUE WELL ID
API .                              : API NUMBER
~Curve Information -----------------------------------------
DEPT   .M     : Measured Depth MD
AC     .US/F  : Sonic Transit Time
CALI   .IN    : Caliper
DEN    .G/CC  : Bulk Density
GR     .GAPI  : Gamma Ray
NEU    .PCT   : Neutron Porosity
RDEP   .OHMM  : Deep Induction
RMED   .OHMM  : Medium Induction
PHI_DN .V/V   : Avg DN Porosity
PHI_RH .V/V   : RHOB Porosity
VSHALE .V/V   : Shale Volume GR
VSAND  .V/V   : Sand Volume
SW     .V/V   : Sw Archie Rw002
VBW    .V/V   : Bulk Volume Water
VHC    .V/V   : Hydrocarbon Vol
CROSS  .V/V   : DN Crossover Gas
NET    .BIN   : Net Sand
PAY    .BIN   : Pay Sw<60pct
DIP_ANG.DEG   : Structural Dip Angle
DIP_AZI.DEG   : Structural Dip Azimuth
DAK_MRS.OHMM  : DAK Micro-Res Short
DAK_MRL.OHMM  : DAK Micro-Res Long
FRA_IDX.V/V   : Fracture Index
~Params ----------------------------------------------------
~Other -----------------------------------------------------
~ASCII -----------------------------------------------------
# ...
 3683.70920   97.30830    8.85710    2.19200   32.98090   23.80870    0.42690    0.48300    0.25783    0.27758    0.41526    0.58474    1.00000    0.25783    0.00000   -0.03949    0.00000    0.00000   11.94486   37.20650    0.27671    0.60252    0.37900
 3683.86160   97.41670    8.85710    2.19270   29.85760   21.34940    0.41860    0.48120    0.24532    0.27715    0.36502    0.63498    1.00000    0.24532    0.00000   -0.06366    1.00000    0.00000    7.31585   20.33323    0.26339    0.59072    0.03667
 3684.01400   97.33530    8.85710    2.20110   32.24840   26.60420    0.41050    0.47430    0.26905    0.27206    0.40348    0.59652    1.00000    0.26905    0.00000   -0.00602    0.00000    0.00000    3.66652   58.10832    0.31399    0.57920    0.12223
 3684.16640   96.93310    8.82260    2.20740   31.59800   25.69040    0.40480    0.46490    0.26257    0.26824    0.39302    0.60698    1.00000    0.26257    0.00000   -0.01134    1.00000    0.00000    1.74486   46.74944    0.28140    0.57107    0.08545
 3684.31880   97.21340    8.76190    2.20940   28.88380   25.04010    0.39510    0.45810    0.25872    0.26703    0.34935    0.65065    1.00000    0.25872    0.00000   -0.01663    1.00000    0.00000    6.15971   42.55766    0.23307    0.55730    0.14509
 3684.47120   98.48350    8.76190    2.20300   32.11810   25.35190    0.38830    0.45240    0.26221    0.27091    0.40138    0.59862    1.00000    0.26221    0.00000   -0.01739    0.00000    0.00000    3.09419   36.91324    0.32826    0.54762    0.22227
 3684.62360   99.45640    8.76190    2.19730   30.21050   25.93890    0.38470    0.44740    0.26688    0.27436    0.37070    0.62930    1.00000    0.26688    0.00000   -0.01497    1.00000    0.00000    3.52252   65.99031    0.39820    0.54246    0.14038
 3684.77600   98.24110    8.85710    2.18890   30.97330   24.10250    0.38380    0.44280    0.26024    0.27945    0.38297    0.61703    1.00000    0.26024    0.00000   -0.03843    1.00000    0.00000   10.15057   47.33812    0.31949    0.54110    0.18762
 3684.92840   98.74840    8.85710    2.17870   29.61610   24.41020    0.38110    0.44910    0.26487    0.28564    0.36113    0.63887    1.00000    0.26487    0.00000   -0.04153    1.00000    0.00000   16.26479   30.68275    0.39614    0.53721    0.15450
 3685.08080   98.69600    8.99560    2.17040   29.55310   27.35470    0.38540    0.44030    0.28211    0.29067    0.36012    0.63988    1.00000    0.28211    0.00000   -0.01712    1.00000    0.00000    7.35011   35.23571    0.30502    0.54319    0.22497
 3685.23320   98.65720    9.04760    2.16770   34.06790   25.55920    0.38490    0.43570    0.27395    0.29230    0.43275    0.56725    1.00000    0.27395    0.00000   -0.03671    0.00000    0.00000    5.23068   43.13700    0.32363    0.54240    0.04392
 3685.38560   98.51610    9.14290    2.16730   32.68200   29.11480    0.38230    0.44800    0.29185    0.29255    0.41045    0.58955    1.00000    0.29185    0.00000   -0.00140    0.00000    0.00000    8.35710   28.53527    0.27757    0.53865    0.12199
 3685.53800   98.18780    9.04770    2.16870   26.87980   30.39570    0.37840    0.45080    0.29783    0.29170    0.31712    0.68288    0.94397    0.28114    0.01669    0.01226    1.00000    0.00000    6.83440   42.13813    0.22511    0.53307    0.16137
 3685.69040   97.56930    9.09660    2.17020   34.85970   28.31390    0.37790    0.45110    0.28696    0.29079    0.44548    0.55452    1.00000    0.28696    0.00000   -0.00765    0.00000    0.00000    5.09896   66.32051    0.21607    0.53228    0.02860
 3685.84280   97.90330    9.04760    2.17220   39.38850   26.16450    0.38120    0.45270    0.27561    0.28958    0.51834    0.48166    1.00000    0.27561    0.00000   -0.02793    0.00000    0.00000    0.07121   61.99584    0.21690    0.53684    0.00262
 3685.99520  100.21530    9.04760    2.16980   34.61740   26.95540    0.38730    0.46200    0.28029    0.29103    0.44159    0.55841    1.00000    0.28029    0.00000   -0.02148    0.00000    0.00000    2.13910   64.17528    0.25183    0.54534    0.09927
 3686.14760  100.80860    9.14290    2.16400   29.82790   26.85610    0.39290    0.46630    0.28155    0.29455    0.36454    0.63546    1.00000    0.28155    0.00000   -0.02598    1.00000    0.00000   10.49129   63.90141    0.23112    0.55314    0.06253
 3686.30000   99.73670    9.14290    2.16460   32.49560   31.35010    0.39010    0.47550    0.30384    0.29418    0.40746    0.59254    0.97587    0.29651    0.00733    0.01932    0.00000    0.00000   12.25912   51.86844    0.22068    0.54910    0.03258
 3686.45240   99.46620    9.15140    2.17760   33.95950   30.36270    0.38560    0.47480    0.29497    0.28630    0.43100    0.56900    1.00000    0.29497    0.00000    0.01732    0.00000    0.00000    7.37761   55.05309    0.34997    0.54268    0.28734
 3686.60480   96.27630    9.23810    2.19160   33.68620   21.92380    0.38750    0.47420    0.24853    0.27782    0.42661    0.57339    1.00000    0.24853    0.00000   -0.05858    0.00000    0.00000    2.72731   24.43571    0.37655    0.54527    0.05577
 3686.75720   93.21190    9.23810    2.20140   29.56110   20.18030    0.39210    0.47270    0.23684    0.27188    0.36025    0.63975    1.00000    0.23684    0.00000   -0.07008    1.00000    0.00000    7.40067   60.58799    0.31766    0.55165    0.14099
 3686.90960   91.42020    9.23810    2.21070   28.42320   19.07960    0.39240    0.46990    0.22852    0.26624    0.34195    0.65805    1.00000    0.22852    0.00000   -0.07545    1.00000    0.00000    5.73586   58.74236    0.22765    0.55198    0.27473
 3687.06200   90.63280    9.23810    2.22080   35.15860   13.80080    0.39810    0.49130    0.19906    0.26012    0.45029    0.54971    1.00000    0.19906    0.00000   -0.12211    0.00000    0.00000    9.67803   53.05029    0.22305    0.55990    0.01423
 3687.21440   87.32890    9.23810    2.24220   33.14080    7.71300    0.41980    0.55180    0.16214    0.24715    0.41783    0.58217    1.00000    0.16214    0.00000   -0.17002    0.00000    0.00000    7.55545   52.91424    0.25135    0.59033    0.08055
 3687.36680   79.00480    9.23810    2.30670   29.31220    6.09370    0.45220    0.65520    0.13450    0.20806    0.35625    0.64375    1.00000    0.13450    0.00000   -0.14712    1.00000    0.00000    3.86897   33.93620    0.43903    0.63578    0.34818
 3687.51920   69.12550    9.17180    2.42770   28.50930    5.84450    0.48860    0.79480    0.09659    0.13473    0.34333    0.65667    1.00000    0.09659    0.00000   -0.07628    0.00000    0.00000    7.94524   42.72263    0.37172    0.68684    0.14271
 3687.67160   59.42000    9.12280    2.53570   24.70440    6.21280    0.53960    0.84750    0.06570    0.06927    0.28212    0.71788    1.00000    0.06570    0.00000   -0.00714    0.00000    0.00000    1.10882   26.71827    0.32787    0.75841    0.10248
 3687.82400   54.15350    9.04760    2.57880   26.54200    5.79200    0.59750    0.84750    0.05054    0.04315    0.31168    0.68832    1.00000    0.05054    0.00000    0.01477    0.00000    0.00000   11.11988   42.56955    0.55242    0.83965    0.34418
 3687.97640   53.30250    8.95240    2.58360   26.65780    6.68390    0.64660    0.85660    0.05354    0.04024    0.31355    0.68645    1.00000    0.05354    0.00000    0.02660    0.00000    0.00000   12.94547   45.83901    0.37722    0.90849    0.36712
 3688.12880   53.51710    8.95240    2.58730   27.33250    7.88380    0.70540    0.90300    0.05842    0.03800    0.32440    0.67560    1.00000    0.05842    0.00000    0.04084    0.00000    0.00000    1.15526   40.16869    0.55580    0.99094    0.27231
 3688.28120   55.25750    8.97820    2.58170   28.42230    9.19740    0.64310    0.84280    0.06668    0.04139    0.34193    0.65807    1.00000    0.06668    0.00000    0.05058    0.00000    0.00000    9.16700   66.38719    0.48412    0.90327    0.12272
 3688.43360   57.64890    9.12250    2.56250   23.54290   12.49460    0.52240    0.71040    0.08899    0.05303    0.26344    0.73656    1.00000    0.08899    0.00000    0.07192    0.00000    0.00000    2.11944   37.41334    0.39464    0.73361    0.18090
