~Version ---------------------------------------------------
VERS.   2.0 : CWLS log ASCII Standard -VERSION 2.0
WRAP.    NO : One line per depth step
DLM . SPACE : Column Data Section Delimiter
~Well ------------------------------------------------------
STRT.M                  3615.43400 : START DEPTH
STOP.M                  4636.51400 : STOP DEPTH
STEP.M                     0.15240 : STEP
NULL.                      -999.25 : NULL VALUE
COMP.                              : COMPANY
WELL.                      15/9-19 : WELL
FLD .         Q15 North Sea Danish : FIELD
LOC .      Danish North Sea Sector : LOCATION
PROV.                              : PROVINCE
CNTY.                              : COUNTY
STAT.                              : STATE
CTRY.                              : COUNTRY
SRVC. GEOX Full Petrophysics + DAK : SERVICE COMPANY
DATE.                   2026-04-02 : DATE
UWI .                              : UNIQUE WELL ID
API .                              : API NUMBER
~Curve Information -----------------------------------------
DEPT   .M     : Measured Depth MD
AC     .US/F  : Sonic Transit Time
CALI   .IN    : Caliper
DEN    .G/CC  : Bulk Density
GR     .GAPI  : Gamma Ray
NEU    .PCT   : Neutron Porosity
RDEP   .OHMM  : Deep Induction
RMED   .OHMM  : Medium Induction
PHI_DN .V/V   : Avg DN Porosity
PHI_RH .V/V   : RHOB Porosity
VSHALE .V/V   : Shale Volume GR
VSAND  .V/V   : Sand Volume
SW     .V/V   : Sw Archie Rw002
VBW    .V/V   : Bulk Volume Water
VHC    .V/V   : Hydrocarbon Vol
CROSS  .V/V   : DN Crossover Gas
NET    .BIN   : Net Sand
PAY    .BIN   : Pay Sw<60pct
DIP_ANG.DEG   : Structural Dip Angle
DIP_AZI.DEG   : Structural Dip Azimuth
DAK_MRS.OHMM  : DAK Micro-Res Short
DAK_MRL.OHMM  : DAK Micro-Res Long
FRA_IDX.V/V   : Fracture Index
~Params ----------------------------------------------------
~Other -----------------------------------------------------
~ASCII -----------------------------------------------------
# ...
 4147.00520   81.75160    8.95240    2.63880   13.68790    5.24250    7.77790    9.54510    0.02961    0.00679    0.10491    0.89509    1.00000    0.02961    0.00000    0.04564    0.00000    0.00000   34.51491   87.57424    5.80423   11.20017    0.12010
 4147.15760   80.18230    8.98110    2.64620   14.06230    3.89300    9.34100   10.38950    0.02062    0.00230    0.11093    0.88907    1.00000    0.02062    0.00000    0.03663    0.00000    0.00000   30.88113   56.67114    9.25659   13.45103    0.36898
 4147.31000   75.66570    9.04760    2.65400    9.77800    3.79130    9.95470   10.68400    0.01774   -0.00242    0.04201    0.95799    1.00000    0.01774    0.00000    0.04034    0.00000    0.00000   33.70281   87.04966    6.76923   14.33474    0.36210
 4147.46240   85.65630    9.04760    2.65530   11.05040    3.09150   10.69230   10.71630    0.01385   -0.00321    0.06248    0.93752    1.00000    0.01385    0.00000    0.03413    0.00000    0.00000   34.34899   72.44364   10.90111   15.39685    0.37559
 4147.61480   85.65630    9.04760    2.65330    9.09480    2.48640   11.06070   10.89200    0.01143   -0.00200    0.03102    0.96898    1.00000    0.01143    0.00000    0.02686    0.00000    0.00000   34.86138   78.78330    6.53242   15.92730    0.65869
 4147.76720   65.76290    9.01310    2.65890    8.95790    2.98560   11.26140   11.20250    0.01223   -0.00539    0.02882    0.97118    1.00000    0.01223    0.00000    0.03525    0.00000    0.00000   41.77401   67.09932    7.40518   16.21626    0.11629
 4147.91960   65.70310    8.86880    2.65570    7.38590    3.29180   11.40850   11.51530    0.01473   -0.00345    0.00353    0.99647    1.00000    0.01473    0.00000    0.03637    0.00000    0.00000   44.09526   75.93865   11.83210   16.42802    0.37101
 4148.07200   65.70310    8.89450    2.64820    6.97390    2.95620   11.42910   11.86440    0.01533    0.00109    0.00000    1.00000    1.00000    0.01533    0.00000    0.02847    0.00000    0.00000   36.78208   34.67702   11.81512   16.45761    0.00142
 4148.22440   69.46160    8.95240    2.64470    8.87520    2.94490   11.45810   12.40110    0.01633    0.00321    0.02749    0.97251    1.00000    0.01633    0.00000    0.02624    0.00000    0.00000   39.10858   58.57581   11.11021   16.49929    0.06288
 4148.37680   69.57290    8.99270    2.64570    8.71730    2.74530   12.09420   12.71810    0.01503    0.00261    0.02495    0.97505    1.00000    0.01503    0.00000    0.02485    0.00000    0.00000   30.66587   53.93037   11.80019   17.41515    0.05798
 4148.52920   69.20310    9.04760    2.65290    8.00660    2.41000   12.27900   12.71070    0.01117   -0.00176    0.01352    0.98648    1.00000    0.01117    0.00000    0.02586    0.00000    0.00000   24.18226   62.03461   11.52945   17.68115    0.02328
 4148.68160   68.62960    9.00450    2.65790    9.85370    3.17970   12.05270   12.30680    0.01350   -0.00479    0.04323    0.95677    1.00000    0.01350    0.00000    0.03658    0.00000    0.00000   33.61721   54.46128    8.87499   17.35517    0.29576
 4148.83400   69.05710    8.95240    2.66650    7.25160    2.84740   12.01340   11.89650    0.00924   -0.01000    0.00137    0.99863    1.00000    0.00924    0.00000    0.03847    0.00000    0.00000   35.36284   42.31583    6.85291   17.29846    0.29082
 4148.98640   69.27040    8.95240    2.66910   10.28670    3.01390   12.18650   11.32150    0.00928   -0.01158    0.05020    0.94980    1.00000    0.00928    0.00000    0.04171    0.00000    0.00000   41.14566   66.69078    7.96669   17.54757    0.13807
 4149.13880   58.23540    9.04750    2.66330    8.06600    2.61930   12.19690   11.28280    0.00907   -0.00806    0.01447    0.98553    1.00000    0.00907    0.00000    0.03425    0.00000    0.00000   46.23504   65.33030    8.33165   17.56239    0.04328
 4149.29120   54.13900    9.09650    2.65980    9.00690    2.63860   11.55970   11.28270    0.01022   -0.00594    0.02961    0.97039    1.00000    0.01022    0.00000    0.03233    0.00000    0.00000   35.46948   60.42520    6.58154   16.64473    0.26193
 4149.44360   53.83910    9.14560    2.67250    9.80210    2.17830   11.08150   11.24680    0.00407   -0.01364    0.04240    0.95760    1.00000    0.00407    0.00000    0.03542    0.00000    0.00000   40.67197   74.59121   11.33384   15.95602    0.41563
 4149.59600   53.24970    9.18630    2.67490    8.06210    2.60150   12.03710   11.62920    0.00546   -0.01509    0.01441    0.98559    1.00000    0.00546    0.00000    0.04111    0.00000    0.00000   39.71061   55.22736    9.91440   17.33179    0.14174
 4149.74840   53.04160    9.13720    2.67040    6.48220    3.08870   13.07680   11.97300    0.00926   -0.01236    0.00000    1.00000    1.00000    0.00926    0.00000    0.04325    0.00000    0.00000   35.23149   74.52757    9.68378   18.82861    0.02357
 4149.90080   53.72880    9.04760    2.66440    8.31060    5.22410   13.87260   11.96070    0.02176   -0.00873    0.01841    0.98159    0.99267    0.02160    0.00016    0.06097    0.00000    0.00000   38.29542   72.14441   12.67191   19.97421    0.23396
 4150.05320   54.86320    9.04760    2.66830   11.80540    8.05980   15.64480   12.25220    0.03475   -0.01109    0.07463    0.92537    0.77982    0.02710    0.00765    0.09169    0.00000    0.00000   36.07982   47.58398    9.18600   22.52560    0.37539
 4150.20560   59.87650    9.04760    2.67160   20.47630    8.54440   15.73580   12.97540    0.03618   -0.01309    0.21411    0.78589    0.79833    0.02888    0.00730    0.09853    0.00000    0.00000   41.92722   72.97464   16.25500   22.65633    0.43222
 4150.35800   61.26720    9.14290    2.65430   41.84930    9.95550    8.64340    9.63120    0.04847   -0.00261    0.55792    0.44208    1.00000    0.04847    0.00000    0.10216    0.00000    0.00000   28.88406   56.58282    6.86689   12.44456    1.34753
 4150.51040   68.68210    9.14290    2.62620   47.14970   14.10650    6.20080    6.11380    0.07774    0.01442    0.64319    0.35681    0.99167    0.07710    0.00065    0.12664    0.00000    0.00000   22.57434   66.02701    3.52016    8.92764    0.92447
 4150.66280   68.91880    9.22380    2.60820   38.07200    7.71410    6.35570    4.85010    0.05124    0.02533    0.49716    0.50284    1.00000    0.05124    0.00000    0.05181    0.00000    0.00000   34.83419   54.80107    3.78414    9.15052    0.06796
 4150.81520   70.51540    9.14290    2.63690   22.71230    5.15000    6.75320    4.98200    0.02972    0.00794    0.25008    0.74992    1.00000    0.02972    0.00000    0.04356    0.00000    0.00000   38.79367   80.39790    5.99441    9.72267    0.36267
 4150.96760   70.93950    9.12570    2.67890   19.06180    4.18520    6.57900    5.59090    0.01217   -0.01752    0.19135    0.80865    1.00000    0.01217    0.00000    0.05937    0.00000    0.00000   39.42836   67.90263    6.22780    9.47172    0.03688
 4151.12000   73.29660    9.11380    2.68860   16.74710    4.63820    5.74320    6.09420    0.01149   -0.02339    0.15412    0.84588    1.00000    0.01149    0.00000    0.06978    0.00000    0.00000   31.33436   21.57704    4.28236    8.26829    0.44393
 4151.27240   73.02390    9.14290    2.67300   15.03990    3.73960    6.53800    7.27510    0.01173   -0.01394    0.12666    0.87334    1.00000    0.01173    0.00000    0.05134    0.00000    0.00000   36.89455   46.68307    4.91767    9.41238    0.12661
 4151.42480   61.18820    9.14290    2.65070   16.93250    5.52950   10.07420   10.25470    0.02744   -0.00042    0.15710    0.84290    1.00000    0.02744    0.00000    0.05572    0.00000    0.00000   30.90086   42.02039   10.07661   14.50299    0.50694
 4151.57720   56.25870    9.23810    2.64430   18.77660    5.09050   11.50080   10.91580    0.02718    0.00345    0.18677    0.81323    1.00000    0.02718    0.00000    0.04745    0.00000    0.00000   37.58250   56.68251    8.91714   16.55644    0.12858
 4151.72960   56.03410    9.23810    2.65400   23.52890    5.10030   11.78430   10.40870    0.02429   -0.00242    0.26321    0.73679    1.00000    0.02429    0.00000    0.05343    0.00000    0.00000   30.43970   71.04692    8.56090   16.96424    0.04113
