~Version ---------------------------------------------------
VERS.   2.0 : CWLS log ASCII Standard -VERSION 2.0
WRAP.    NO : One line per depth step
DLM . SPACE : Column Data Section Delimiter
~Well ------------------------------------------------------
STRT.M                  3615.43400 : START DEPTH
STOP.M                  4636.51400 : STOP DEPTH
STEP.M                     0.15240 : STEP
NULL.                      -999.25 : NULL VALUE
COMP.                              : COMPANY
WELL.                      15/9-19 : WELL
FLD .         Q15 North Sea Danish : FIELD
LOC .      Danish North Sea Sector : LOCATION
PROV.                              : PROVINCE
CNTY.                              : COUNTY
STAT.                              : STATE
CTRY.                              : COUNTRY
SRVC. GEOX Full Petrophysics + DAK : SERVICE COMPANY
DATE.                   2026-04-02 : DATE
UWI .                              : UNIQUE WELL ID
API .                              : API NUMBER
~Curve Information -----------------------------------------
DEPT   .M     : Measured Depth MD
AC     .US/F  : Sonic Transit Time
CALI   .IN    : Caliper
DEN    .G/CC  : Bulk Density
GR     .GAPI  : Gamma Ray
NEU    .PCT   : Neutron Porosity
RDEP   .OHMM  : Deep Induction
RMED   .OHMM  : Medium Induction
PHI_DN .V/V   : Avg DN Porosity
PHI_RH .V/V   : RHOB Porosity
VSHALE .V/V   : Shale Volume GR
VSAND  .V/V   : Sand Volume
SW     .V/V   : Sw Archie Rw002
VBW    .V/V   : Bulk Volume Water
VHC    .V/V   : Hydrocarbon Vol
CROSS  .V/V   : DN Crossover Gas
NET    .BIN   : Net Sand
PAY    .BIN   : Pay Sw<60pct
DIP_ANG.DEG   : Structural Dip Angle
DIP_AZI.DEG   : Structural Dip Azimuth
DAK_MRS.OHMM  : DAK Micro-Res Short
DAK_MRL.OHMM  : DAK Micro-Res Long
FRA_IDX.V/V   : Fracture Index
~Params ----------------------------------------------------
~Other -----------------------------------------------------
~ASCII -----------------------------------------------------
# ...
 4415.22920   85.77220    8.81900    2.37390   49.26840   27.10630    0.59550    0.63340    0.21920    0.16733    0.67727    0.32273    1.00000    0.21920    0.00000    0.10373    0.00000    0.00000   10.00396   74.23737    0.55258    0.57489    0.04250
 4415.38160   88.20050    8.84910    2.34540   54.19180   27.30060    0.60180    0.63560    0.22881    0.18461    0.75647    0.24353    1.00000    0.22881    0.00000    0.08840    0.00000    0.00000   20.71868   72.19561    0.61670    0.58103    0.08947
 4415.53400   88.29010    8.85710    2.35350   53.61010   25.73380    0.58840    0.63060    0.21852    0.17970    0.74711    0.25289    1.00000    0.21852    0.00000    0.07764    0.00000    0.00000   12.75791   72.89908    0.58152    0.56815    0.05163
 4415.68640   88.81350    8.85710    2.37380   58.68910   26.67430    0.56350    0.59600    0.21707    0.16739    0.82881    0.17119    1.00000    0.21707    0.00000    0.09935    0.00000    0.00000   12.73848   85.06988    0.41219    0.54417    0.33059
 4415.83880   90.25150    8.85710    2.37260   61.66950   22.08460    0.53920    0.55980    0.19448    0.16812    0.87676    0.12324    1.00000    0.19448    0.00000    0.05272    0.00000    0.00000   10.46509   83.86889    0.55611    0.52075    0.21935
 4415.99120   87.89470    8.85710    2.35860   61.85150   22.51930    0.51850    0.53380    0.20090    0.17661    0.87968    0.12032    1.00000    0.20090    0.00000    0.04859    0.00000    0.00000   11.64447   75.40153    0.32391    0.50081    0.54777
 4416.14360   87.78370    8.85710    2.33940   57.33060   25.59640    0.48250    0.50840    0.22210    0.18824    0.80696    0.19304    1.00000    0.22210    0.00000    0.06772    0.00000    0.00000   11.62317   82.82386    0.49812    0.46609    0.29126
 4416.29600   89.40390    8.85710    2.33350   53.75970   24.46670    0.44250    0.47880    0.21824    0.19182    0.74952    0.25048    1.00000    0.21824    0.00000    0.05285    0.00000    0.00000   12.60596   96.44196    0.33648    0.42750    0.37033
 4416.44840   89.61660    8.85710    2.30710   54.60470   25.37540    0.42750    0.45890    0.23079    0.20782    0.76311    0.23689    1.00000    0.23079    0.00000    0.04594    0.00000    0.00000    5.63491   59.51214    0.44414    0.41305    0.19786
 4416.60080   92.36410    8.76190    2.26210   56.33500   24.25740    0.42440    0.45610    0.23883    0.23509    0.79094    0.20906    1.00000    0.23883    0.00000    0.00748    0.00000    0.00000    5.05204   85.10922    0.28474    0.41010    0.41431
 4416.75320   93.54790    8.76190    2.24730   53.74740   27.16000    0.44300    0.47890    0.25783    0.24406    0.74932    0.25068    1.00000    0.25783    0.00000    0.02754    0.00000    0.00000    9.94858   88.49864    0.26535    0.42812    0.05307
 4416.90560   93.91510    8.76190    2.25970   48.31230   23.68110    0.46610    0.50730    0.23668    0.23655    0.66189    0.33811    1.00000    0.23668    0.00000    0.00027    0.00000    0.00000   11.34557   65.06102    0.48412    0.45049    0.37453
 4417.05800   95.84800    8.76190    2.29970   47.47690   23.59560    0.49520    0.56010    0.22413    0.21230    0.64845    0.35155    1.00000    0.22413    0.00000    0.02365    0.00000    0.00000   10.14803  109.07922    0.36925    0.47867    0.24479
 4417.21040   91.62810    8.76190    2.37930   41.34980   20.51150    0.56010    0.66010    0.18459    0.16406    0.54989    0.45011    1.00000    0.18459    0.00000    0.04105    0.00000    0.00000   16.53889   93.96849    0.38871    0.54146    0.03982
 4417.36280   82.38070    8.76190    2.48250   46.12360   21.96090    0.63460    0.73250    0.16056    0.10152    0.62668    0.37332    1.00000    0.16056    0.00000    0.11809    0.00000    0.00000   12.81235   89.05022    0.49279    0.61355    0.17557
 4417.51520   74.37140    8.76190    2.53060   42.65680   17.85890    0.68840    0.75120    0.12548    0.07236    0.57091    0.42909    1.00000    0.12548    0.00000    0.10623    0.00000    0.00000   16.54088   99.59551    0.47413    0.66564    0.03251
 4417.66760   69.71040    8.76190    2.49500   42.03740   16.89550    0.71210    0.70670    0.13145    0.09394    0.56095    0.43905    1.00000    0.13145    0.00000    0.07502    0.00000    0.00000   14.07832   96.35937    0.44528    0.68864    0.05289
 4417.82000   67.85780    8.76190    2.41420   42.99790   15.48090    0.71360    0.64160    0.14886    0.14291    0.57640    0.42360    1.00000    0.14886    0.00000    0.01190    0.00000    0.00000    1.79778   87.40529    0.70708    0.69017    0.32438
 4417.97240   69.19540    8.76190    2.32460   35.76510   17.75650    0.68790    0.58820    0.18739    0.19721    0.46005    0.53995    1.00000    0.18739    0.00000   -0.01965    0.00000    0.00000   15.27621   87.45100    0.54677    0.66539    0.24787
 4418.12480   74.69340    8.76190    2.26340   40.42250   20.89020    0.63340    0.52390    0.22160    0.23430    0.53497    0.46503    1.00000    0.22160    0.00000   -0.02540    0.00000    0.00000   20.09763   73.63630    0.63830    0.61274    0.12398
 4418.27720   85.43820    8.76190    2.23490   47.30890   24.64730    0.56680    0.46260    0.24902    0.25158    0.64575    0.35425    1.00000    0.24902    0.00000   -0.00510    0.00000    0.00000   13.62156   97.50420    0.34882    0.54838    0.64498
 4418.42960   94.95570    8.76190    2.22400   47.55650   27.71390    0.49450    0.42640    0.26766    0.25818    0.64973    0.35027    1.00000    0.26766    0.00000    0.01896    0.00000    0.00000   12.56101   94.31509    0.50015    0.47848    0.25215
 4418.58200   98.99080    8.76190    2.22580   50.40310   28.93610    0.42580    0.40090    0.27323    0.25709    0.69552    0.30448    1.00000    0.27323    0.00000    0.03227    0.00000    0.00000    7.12859   76.03747    0.44203    0.41206    0.10721
 4418.73440  100.81640    8.76190    2.22740   43.45630   28.74000    0.36620    0.38920    0.27176    0.25612    0.58377    0.41623    1.00000    0.27176    0.00000    0.03128    0.00000    0.00000   14.03949  100.90389    0.21031    0.35442    0.74678
 4418.88680  100.00480    8.76190    2.22770   39.41480   31.60440    0.33490    0.38380    0.28599    0.25594    0.51876    0.48124    1.00000    0.28599    0.00000    0.06010    0.00000    0.00000    7.66655  114.08902    0.33526    0.32417    0.28709
 4419.03920   98.30530    8.76190    2.23250   41.40930   25.58200    0.32930    0.38400    0.25443    0.25303    0.55084    0.44916    1.00000    0.25443    0.00000    0.00279    0.00000    0.00000    4.10518   72.66394    0.24222    0.31879    0.27189
 4419.19160   97.04110    8.76190    2.24720   45.15870   25.81030    0.33380    0.39160    0.25111    0.24412    0.61116    0.38884    1.00000    0.25111    0.00000    0.01398    0.00000    0.00000   13.91464  118.75231    0.19117    0.32318    0.17534
 4419.34400   94.00540    8.76190    2.27680   44.65650   24.25830    0.33740    0.40210    0.23438    0.22618    0.60308    0.39692    1.00000    0.23438    0.00000    0.01640    0.00000    0.00000   16.91615  110.12603    0.33811    0.32671    0.33540
 4419.49640   91.27010    8.76190    2.31680   46.89600   20.32110    0.34510    0.40960    0.20258    0.20194    0.63910    0.36090    1.00000    0.20258    0.00000    0.00127    0.00000    0.00000   11.34170  107.36181    0.27916    0.33421    0.15548
 4419.64880   89.01200    8.82490    2.33100   46.24780   21.86890    0.35660    0.41680    0.20601    0.19333    0.62868    0.37132    1.00000    0.20601    0.00000    0.02536    0.00000    0.00000   11.88123   89.90120    0.26336    0.34539    0.04347
 4419.80120   87.81710    8.76190    2.32670   52.81840   27.29570    0.37190    0.43020    0.23445    0.19594    0.73437    0.26563    1.00000    0.23445    0.00000    0.07702    0.00000    0.00000    9.38120  117.91620    0.38631    0.36025    0.25282
 4419.95360   87.46330    8.76190    2.32610   49.50290   22.45580    0.39090    0.45130    0.21043    0.19630    0.68104    0.31896    1.00000    0.21043    0.00000    0.02825    0.00000    0.00000   20.65052   88.27588    0.29788    0.37870    0.22227
