~Version ---------------------------------------------------
VERS.   2.0 : CWLS log ASCII Standard -VERSION 2.0
WRAP.    NO : One line per depth step
DLM . SPACE : Column Data Section Delimiter
~Well ------------------------------------------------------
STRT.M                  3615.43400 : START DEPTH
STOP.M                  4636.51400 : STOP DEPTH
STEP.M                     0.15240 : STEP
NULL.                      -999.25 : NULL VALUE
COMP.                              : COMPANY
WELL.                      15/9-19 : WELL
FLD .         Q15 North Sea Danish : FIELD
LOC .      Danish North Sea Sector : LOCATION
PROV.                              : PROVINCE
CNTY.                              : COUNTY
STAT.                              : STATE
CTRY.                              : COUNTRY
SRVC. GEOX Full Petrophysics + DAK : SERVICE COMPANY
DATE.                   2026-04-02 : DATE
UWI .                              : UNIQUE WELL ID
API .                              : API NUMBER
~Curve Information -----------------------------------------
DEPT   .M     : Measured Depth MD
AC     .US/F  : Sonic Transit Time
CALI   .IN    : Caliper
DEN    .G/CC  : Bulk Density
GR     .GAPI  : Gamma Ray
NEU    .PCT   : Neutron Porosity
RDEP   .OHMM  : Deep Induction
RMED   .OHMM  : Medium Induction
PHI_DN .V/V   : Avg DN Porosity
PHI_RH .V/V   : RHOB Porosity
VSHALE .V/V   : Shale Volume GR
VSAND  .V/V   : Sand Volume
SW     .V/V   : Sw Archie Rw002
VBW    .V/V   : Bulk Volume Water
VHC    .V/V   : Hydrocarbon Vol
CROSS  .V/V   : DN Crossover Gas
NET    .BIN   : Net Sand
PAY    .BIN   : Pay Sw<60pct
DIP_ANG.DEG   : Structural Dip Angle
DIP_AZI.DEG   : Structural Dip Azimuth
DAK_MRS.OHMM  : DAK Micro-Res Short
DAK_MRL.OHMM  : DAK Micro-Res Long
FRA_IDX.V/V   : Fracture Index
~Params ----------------------------------------------------
~Other -----------------------------------------------------
~ASCII -----------------------------------------------------
# ...
 4015.33160   63.33360    9.71430    2.62010    9.85370    6.03490    5.11360    5.30730    0.03924    0.01812    0.04323    0.95677    1.00000    0.03924    0.00000    0.04223    0.00000    0.00000   32.60683   37.66218    2.87475    6.04578    0.06162
 4015.48400   62.52710    9.71430    2.61990   11.85740    6.44360    5.11380    5.30940    0.04134    0.01824    0.07546    0.92454    1.00000    0.04134    0.00000    0.04619    0.00000    0.00000   34.71778   64.11656    2.86373    6.04835    0.00372
 4015.63640   62.51220    9.71430    2.62310   10.52030    5.45610    5.11070    5.30940    0.03543    0.01630    0.05395    0.94605    1.00000    0.03543    0.00000    0.03826    0.00000    0.00000   33.39332   32.22868    3.06115    6.04702    0.06245
 4015.78880   61.02980    9.71430    2.63370   10.33220    5.91000    5.11230    5.31160    0.03449    0.00988    0.05093    0.94907    1.00000    0.03449    0.00000    0.04922    0.00000    0.00000   26.00805   32.96490    4.03310    6.05124    0.23516
 4015.94120   60.83470    9.71430    2.62870   11.64530    6.36210    5.10720    5.30800    0.03827    0.01291    0.07205    0.92795    1.00000    0.03827    0.00000    0.05071    0.00000    0.00000   37.32451   71.96972    2.86752    6.04753    0.39278
 4016.09360   61.54480    9.71430    2.61940   11.01590    7.24170    5.10350    5.31180    0.04548    0.01855    0.06193    0.93807    1.00000    0.04548    0.00000    0.05387    0.00000    0.00000   37.44869   20.13843    3.71436    6.04548    0.22201
 4016.24600   61.15430    9.71430    2.62040    8.73400    6.01780    5.09730    5.31130    0.03906    0.01794    0.02522    0.97478    1.00000    0.03906    0.00000    0.04224    0.00000    0.00000   34.29780   49.19561    5.29623    6.04046    0.29314
 4016.39840   60.78740    9.71430    2.62300    9.56020    5.67550    5.09920    5.31050    0.03656    0.01636    0.03851    0.96149    1.00000    0.03656    0.00000    0.04039    0.00000    0.00000   28.97205   55.65184    5.22584    6.04504    0.01322
 4016.55080   53.02110    9.71430    2.62050    9.71280    7.12680    5.09350    5.31420    0.04457    0.01788    0.04096    0.95904    1.00000    0.04457    0.00000    0.05339    0.00000    0.00000   29.68220   78.90611    3.08716    6.04061    0.67103
 4016.70320   51.59380    9.71430    2.62340    9.27850    7.38630    5.09540    5.31480    0.04499    0.01612    0.03398    0.96602    1.00000    0.04499    0.00000    0.05774    0.00000    0.00000   43.61737   65.87782    4.54165    6.04519    0.31336
 4016.85560   59.32840    9.71430    2.63260   10.63580    6.24480    5.10060    5.31480    0.03650    0.01055    0.05581    0.94419    1.00000    0.03650    0.00000    0.05190    0.00000    0.00000   42.49602   56.90965    4.30687    6.05369    0.05328
 4017.00800   60.44710    9.71430    2.64280    8.75760    6.33210    5.07970    5.31310    0.03384    0.00436    0.02560    0.97440    1.00000    0.03384    0.00000    0.05896    0.00000    0.00000   36.29750   25.08309    5.21194    6.03120    0.17038
 4017.16040   60.57860    9.71430    2.64710   13.89960    6.97550    5.04910    5.31440    0.03576    0.00176    0.10831    0.89169    1.00000    0.03576    0.00000    0.06800    0.00000    0.00000   29.40125   46.57744    4.97325    5.99717    0.04705
 4017.31280   60.59630    9.71430    2.63730   10.83210    6.98800    5.05120    5.31050    0.03879    0.00770    0.05897    0.94103    1.00000    0.03879    0.00000    0.06218    0.00000    0.00000   40.20613   25.66434    4.04083    6.00197    0.22518
 4017.46520   60.56350    9.71430    2.63490   13.43680    6.79200    5.07550    5.31450    0.03854    0.00915    0.10087    0.89913    1.00000    0.03854    0.00000    0.05877    0.00000    0.00000   34.81662   54.41724    2.85929    6.03317    0.39927
 4017.61760   60.46780    9.71430    2.64440   14.02250    7.22700    5.07550    5.31880    0.03783    0.00339    0.11029    0.88971    1.00000    0.03783    0.00000    0.06888    0.00000    0.00000   42.26166   30.37314    2.84714    6.03548    0.00412
 4017.77000   60.56250    9.71430    2.64830   12.54110    7.25220    5.08090    5.31090    0.03678    0.00103    0.08646    0.91354    1.00000    0.03678    0.00000    0.07149    0.00000    0.00000   31.09077   64.97253    5.28404    6.04423    0.45262
 4017.92240   60.51080    9.71430    2.64400   11.57000    6.85480    5.10470    5.31480    0.03609    0.00364    0.07084    0.92916    1.00000    0.03609    0.00000    0.06491    0.00000    0.00000   36.27188   59.75983    2.95738    6.07487    0.76100
 4018.07480   60.46860    9.71430    2.63950   12.54630    6.78790    5.17290    5.31920    0.03712    0.00636    0.08654    0.91346    1.00000    0.03712    0.00000    0.06152    0.00000    0.00000   32.90300   42.66473    4.12960    6.15839    0.27715
 4018.22720   60.57050    9.71430    2.64360   13.89310    6.45120    5.27400    5.31690    0.03420    0.00388    0.10821    0.89179    1.00000    0.03420    0.00000    0.06063    0.00000    0.00000   37.68618   56.63200    5.14135    6.28116    0.19303
 4018.37960   60.56100    9.71430    2.64640   10.77130    6.59300    5.32090    5.31020    0.03406    0.00218    0.05799    0.94201    1.00000    0.03406    0.00000    0.06375    0.00000    0.00000   30.80172   53.72203    4.82861    6.33945    0.06345
 4018.53200   60.50000    9.71430    2.64470   11.16190    5.87160    5.32100    5.29270    0.03096    0.00321    0.06427    0.93573    1.00000    0.03096    0.00000    0.05550    0.00000    0.00000   38.51743   52.17564    5.36662    6.34200    0.09842
 4018.68440   60.52100    9.71430    2.63170   10.74950    6.04730    5.30940    5.28030    0.03578    0.01109    0.05764    0.94236    1.00000    0.03578    0.00000    0.04938    0.00000    0.00000   32.04585   50.74699    3.03990    6.33060    0.74102
 4018.83680   60.79780    9.71430    2.62080   13.30170    7.02900    5.32370    5.27950    0.04399    0.01770    0.09870    0.90130    1.00000    0.04399    0.00000    0.05259    0.00000    0.00000   29.54018   61.28197    4.84259    6.35009    0.36473
 4018.98920   64.76280    9.71430    2.61910    9.85370    6.96040    5.43800    5.26680    0.04417    0.01873    0.04323    0.95677    1.00000    0.04417    0.00000    0.05088    0.00000    0.00000   36.79296   51.66031    5.01786    6.48891    0.03425
 4019.14160   61.63750    9.71430    2.61420   10.39130    6.81600    5.98440    5.27060    0.04493    0.02170    0.05188    0.94812    1.00000    0.04493    0.00000    0.04646    0.00000    0.00000   35.13818   45.21386    4.92057    7.14364    0.01938
 4019.29400   61.56430    9.71430    2.60050   12.43780    7.12890    6.04350    5.31610    0.05064    0.03000    0.08480    0.91520    0.99974    0.05063    0.00001    0.04129    0.00000    0.00000   23.47032   56.09238    3.57555    7.21695    0.36594
 4019.44640   61.48950    9.71430    2.59450   12.20990    6.36960    6.05000    5.44210    0.04867    0.03364    0.08113    0.91887    1.00000    0.04867    0.00000    0.03006    0.00000    0.00000   33.77340   40.52617    5.83139    7.22747    0.38032
 4019.59880   61.47760    9.71430    2.60560   11.40120    7.38890    6.04160    5.52320    0.05040    0.02691    0.06812    0.93188    0.99597    0.05020    0.00020    0.04698    0.00000    0.00000   34.49146   68.44976    4.06540    7.22020    0.42397
 4019.75120   61.46850    9.71430    2.62670   13.45300    6.66450    6.05160    5.55060    0.04038    0.01412    0.10113    0.89887    1.00000    0.04038    0.00000    0.05252    0.00000    0.00000   34.91152   62.62895    5.12695    7.23492    0.20309
 4019.90360   61.28490    9.61900    2.64070    8.84940    6.87340    6.04440    5.89840    0.03719    0.00564    0.02707    0.97293    1.00000    0.03719    0.00000    0.06310    0.00000    0.00000   44.16516   20.91116    4.19300    7.22907    0.21755
 4020.05600   61.19560    9.61900    2.63870   10.06710    5.07850    6.04880    6.57540    0.02882    0.00685    0.04666    0.95334    1.00000    0.02882    0.00000    0.04394    0.00000    0.00000   30.79635   46.49896    3.41150    7.23710    0.22256
