~Version ---------------------------------------------------
VERS.   2.0 : CWLS log ASCII Standard -VERSION 2.0
WRAP.    NO : One line per depth step
DLM . SPACE : Column Data Section Delimiter
~Well ------------------------------------------------------
STRT.M                  3615.43400 : START DEPTH
STOP.M                  4636.51400 : STOP DEPTH
STEP.M                     0.15240 : STEP
NULL.                      -999.25 : NULL VALUE
COMP.                              : COMPANY
WELL.                      15/9-19 : WELL
FLD .         Q15 North Sea Danish : FIELD
LOC .      Danish North Sea Sector : LOCATION
PROV.                              : PROVINCE
CNTY.                              : COUNTY
STAT.                              : STATE
CTRY.                              : COUNTRY
SRVC. GEOX Full Petrophysics + DAK : SERVICE COMPANY
DATE.                   2026-04-02 : DATE
UWI .                              : UNIQUE WELL ID
API .                              : API NUMBER
~Curve Information -----------------------------------------
DEPT   .M     : Measured Depth MD
AC     .US/F  : Sonic Transit Time
CALI   .IN    : Caliper
DEN    .G/CC  : Bulk Density
GR     .GAPI  : Gamma Ray
NEU    .PCT   : Neutron Porosity
RDEP   .OHMM  : Deep Induction
RMED   .OHMM  : Medium Induction
PHI_DN .V/V   : Avg DN Porosity
PHI_RH .V/V   : RHOB Porosity
VSHALE .V/V   : Shale Volume GR
VSAND  .V/V   : Sand Volume
SW     .V/V   : Sw Archie Rw002
VBW    .V/V   : Bulk Volume Water
VHC    .V/V   : Hydrocarbon Vol
CROSS  .V/V   : DN Crossover Gas
NET    .BIN   : Net Sand
PAY    .BIN   : Pay Sw<60pct
DIP_ANG.DEG   : Structural Dip Angle
DIP_AZI.DEG   : Structural Dip Azimuth
DAK_MRS.OHMM  : DAK Micro-Res Short
DAK_MRL.OHMM  : DAK Micro-Res Long
FRA_IDX.V/V   : Fracture Index
~Params ----------------------------------------------------
~Other -----------------------------------------------------
~ASCII -----------------------------------------------------
# ...
 4346.95400   78.20820   11.04760    2.53130   76.92160   19.41600    1.42230    1.49740    0.13305    0.07194    1.00000    0.00000    1.00000    0.13305    0.00000    0.12222    0.00000    0.00000   32.81884   54.71375    1.12407    1.43316    0.18159
 4347.10640   76.50050   11.04760    2.52900   77.53260   18.27730    1.43720    1.50610    0.12805    0.07333    1.00000    0.00000    1.00000    0.12805    0.00000    0.10944    0.00000    0.00000   20.61293  100.46389    0.97016    1.44778    0.14382
 4347.25880   75.55130   11.11010    2.53120   78.35360   17.20480    1.43620    1.50190    0.12202    0.07200    1.00000    0.00000    1.00000    0.12202    0.00000    0.10005    0.00000    0.00000    8.28241   76.35474    1.07206    1.44638    0.08695
 4347.41120   77.56690   11.14290    2.54850   78.36890   20.34790    1.42630    1.49130    0.13250    0.06152    1.00000    0.00000    1.00000    0.13250    0.00000    0.14196    0.00000    0.00000   27.74518   75.90316    0.79914    1.43602    0.30355
 4347.56360   78.74060   11.14290    2.55280   81.06200   17.28820    1.41260    1.46850    0.11590    0.05891    1.00000    0.00000    1.00000    0.11590    0.00000    0.11397    0.00000    0.00000   16.35349   92.75537    0.84706    1.42185    0.05060
 4347.71600   78.61840   11.14290    2.54880   75.05830   17.70190    1.41070    1.44850    0.11918    0.06133    1.00000    0.00000    1.00000    0.11918    0.00000    0.11569    0.00000    0.00000   14.34879   84.52132    0.80159    1.41955    0.05043
 4347.86840   77.77440   11.14290    2.54160   70.12530   21.51930    1.40450    1.43090    0.14044    0.06570    1.00000    0.00000    1.00000    0.14044    0.00000    0.14950    0.00000    0.00000   19.77838   83.23949    0.99632    1.41293    0.17762
 4348.02080   77.56590   11.14290    2.53280   67.10600   16.88750    1.39060    1.42630    0.11995    0.07103    0.96421    0.03579    1.00000    0.11995    0.00000    0.09784    0.00000    0.00000   26.44295   89.34907    0.81285    1.39858    0.20098
 4348.17320   77.35180   11.14290    2.52680   61.58290   18.69360    1.38180    1.42190    0.13080    0.07467    0.87536    0.12464    1.00000    0.13080    0.00000    0.11227    0.00000    0.00000   29.74546   77.90026    1.42570    1.38936    0.40168
 4348.32560   77.66010   11.14290    2.52440   74.30680   17.70980    1.37770    1.41480    0.12661    0.07612    1.00000    0.00000    1.00000    0.12661    0.00000    0.10098    0.00000    0.00000   18.01142   80.91065    1.19881    1.38486    0.17469
 4348.47800   78.20640   11.14290    2.51880   67.48520   16.64480    1.37870    1.41070    0.12298    0.07952    0.97031    0.02969    1.00000    0.12298    0.00000    0.08693    0.00000    0.00000   21.03469   76.15658    0.97019    1.38550    0.21363
 4348.63040   77.21860   11.23810    2.51330   65.47750   16.94060    1.38640    1.40510    0.12613    0.08285    0.93801    0.06199    1.00000    0.12613    0.00000    0.08656    0.00000    0.00000   21.06575   87.30078    0.81095    1.39287    0.17481
 4348.78280   76.50000   11.31500    2.51650   68.56290   21.98250    1.39900    1.41870    0.15037    0.08091    0.98765    0.01235    1.00000    0.15037    0.00000    0.13892    0.00000    0.00000   16.63203   74.70355    0.99041    1.40516    0.16458
 4348.93520   76.81290   11.33330    2.51070   66.43540   18.56830    1.40490    1.44490    0.13505    0.08442    0.95342    0.04658    1.00000    0.13505    0.00000    0.10126    0.00000    0.00000   17.35254  104.73639    0.79159    1.41071    0.22299
 4349.08760   76.53170   11.33330    2.48020   66.38470   21.52800    1.39730    1.45180    0.15909    0.10291    0.95261    0.04739    1.00000    0.15909    0.00000    0.11237    0.00000    0.00000   19.16132   89.45695    0.78249    1.40271    0.01031
 4349.24000   76.31890   11.42860    2.45840   73.56060   20.62260    1.39290    1.44290    0.16117    0.11612    1.00000    0.00000    1.00000    0.16117    0.00000    0.09010    0.00000    0.00000   19.56113   81.83152    1.12409    1.39793    0.27906
 4349.39240   77.13260   11.42860    2.45190   77.03790   28.24340    1.37760    1.43410    0.20125    0.12006    1.00000    0.00000    1.00000    0.20125    0.00000    0.16237    0.00000    0.00000   25.19362   97.64487    0.77389    1.38221    0.40073
 4349.54480   78.08440   11.46510    2.44570   74.29110   16.24030    1.37050    1.41550    0.14311    0.12382    1.00000    0.00000    1.00000    0.14311    0.00000    0.03858    0.00000    0.00000   10.13032   88.09474    0.92931    1.37473    0.15099
 4349.69720   79.02420   11.52380    2.43980   78.72450   23.08000    1.33980    1.38550    0.17910    0.12739    1.00000    0.00000    1.00000    0.17910    0.00000    0.10341    0.00000    0.00000   22.20956   95.57647    1.10635    1.34359    0.14676
 4349.84960   79.93250   11.52380    2.43500   80.56030   18.00110    1.30330    1.35570    0.15516    0.13030    1.00000    0.00000    1.00000    0.15516    0.00000    0.04971    0.00000    0.00000   21.68228   91.94535    0.73965    1.30664    0.43672
 4350.00200   82.74140   11.52380    2.44550   77.93370   19.80190    1.23580    1.31890    0.16098    0.12394    1.00000    0.00000    1.00000    0.16098    0.00000    0.07408    0.00000    0.00000   26.68908   64.15587    0.69545    1.23865    0.05557
 4350.15440   82.74190   11.61900    2.46670   71.96020   20.06650    1.17040    1.27810    0.15588    0.11109    1.00000    0.00000    1.00000    0.15588    0.00000    0.08957    0.00000    0.00000   17.82748  100.78359    1.19975    1.17280    0.38800
 4350.30680   83.11720   11.61900    2.48290   71.73670   19.17300    1.11740    1.24830    0.14650    0.10127    1.00000    0.00000    1.00000    0.14650    0.00000    0.09046    0.00000    0.00000   17.87072   98.14911    1.05660    1.11940    0.12377
 4350.45920   82.26850   11.61900    2.48470   73.07640   18.96430    1.10140    1.22640    0.14491    0.10018    1.00000    0.00000    1.00000    0.14491    0.00000    0.08946    0.00000    0.00000   20.25580   78.16734    0.64837    1.10309    0.54549
 4350.61160   81.88890   11.61900    2.48440   66.34620   18.87010    1.09890    1.20150    0.14453    0.10036    0.95199    0.04801    1.00000    0.14453    0.00000    0.08834    0.00000    0.00000   16.87194  120.94869    0.94545    1.10030    0.28416
 4350.76400   83.51120   11.61900    2.49130   60.01000   18.90030    1.10520    1.17740    0.14259    0.09618    0.85006    0.14994    1.00000    0.14259    0.00000    0.09282    0.00000    0.00000   16.70319   64.76838    0.76143    1.10633    0.21362
 4350.91640   84.22720   11.61900    2.49710   58.26130   18.51450    1.11620    1.16980    0.13891    0.09267    0.82193    0.17807    1.00000    0.13891    0.00000    0.09248    0.00000    0.00000   16.32166   99.23116    1.08509    1.11705    0.27311
 4351.06880   84.96970   11.61900    2.48320   61.45480   17.78950    1.12770    1.18800    0.13949    0.10109    0.87330    0.12670    1.00000    0.13949    0.00000    0.07680    0.00000    0.00000   16.32018   79.57863    0.89043    1.12827    0.19654
 4351.22120   84.42760   11.61900    2.46350   61.40450   18.28290    1.13640    1.26200    0.14793    0.11303    0.87249    0.12751    1.00000    0.14793    0.00000    0.06980    0.00000    0.00000   14.48177   82.88906    1.12211    1.13669    0.18957
 4351.37360   82.49630   11.61900    2.44640   71.77950   16.76710    1.14430    1.28360    0.14553    0.12339    1.00000    0.00000    1.00000    0.14553    0.00000    0.04428    0.00000    0.00000   16.56548   97.09178    0.64133    1.14430    0.64853
 4351.52600   80.75110   11.61900    2.43580   65.28110   16.35960    1.15640    1.28360    0.14671    0.12982    0.93485    0.06515    1.00000    0.14671    0.00000    0.03378    0.00000    0.00000   15.67030   99.26924    0.73554    1.15611    0.11275
 4351.67840   81.50600   11.67570    2.45120   70.62130   20.52070    1.16900    1.28360    0.16285    0.12048    1.00000    0.00000    1.00000    0.16285    0.00000    0.08472    0.00000    0.00000   15.88232   96.17848    1.21542    1.16841    0.36482
