~Version ---------------------------------------------------
VERS.   2.0 : CWLS log ASCII Standard -VERSION 2.0
WRAP.    NO : One line per depth step
DLM . SPACE : Column Data Section Delimiter
~Well ------------------------------------------------------
STRT.M                  3615.43400 : START DEPTH
STOP.M                  4636.51400 : STOP DEPTH
STEP.M                     0.15240 : STEP
NULL.                      -999.25 : NULL VALUE
COMP.                              : COMPANY
WELL.                      15/9-19 : WELL
FLD .         Q15 North Sea Danish : FIELD
LOC .      Danish North Sea Sector : LOCATION
PROV.                              : PROVINCE
CNTY.                              : COUNTY
STAT.                              : STATE
CTRY.                              : COUNTRY
SRVC. GEOX Full Petrophysics + DAK : SERVICE COMPANY
DATE.                   2026-04-02 : DATE
UWI .                              : UNIQUE WELL ID
API .                              : API NUMBER
~Curve Information -----------------------------------------
DEPT   .M     : Measured Depth MD
AC     .US/F  : Sonic Transit Time
CALI   .IN    : Caliper
DEN    .G/CC  : Bulk Density
GR     .GAPI  : Gamma Ray
NEU    .PCT   : Neutron Porosity
RDEP   .OHMM  : Deep Induction
RMED   .OHMM  : Medium Induction
PHI_DN .V/V   : Avg DN Porosity
PHI_RH .V/V   : RHOB Porosity
VSHALE .V/V   : Shale Volume GR
VSAND  .V/V   : Sand Volume
SW     .V/V   : Sw Archie Rw002
VBW    .V/V   : Bulk Volume Water
VHC    .V/V   : Hydrocarbon Vol
CROSS  .V/V   : DN Crossover Gas
NET    .BIN   : Net Sand
PAY    .BIN   : Pay Sw<60pct
DIP_ANG.DEG   : Structural Dip Angle
DIP_AZI.DEG   : Structural Dip Azimuth
DAK_MRS.OHMM  : DAK Micro-Res Short
DAK_MRL.OHMM  : DAK Micro-Res Long
FRA_IDX.V/V   : Fracture Index
~Params ----------------------------------------------------
~Other -----------------------------------------------------
~ASCII -----------------------------------------------------
# ...
 4215.28040   67.28390    9.52380    2.63940   27.15760    8.10030    3.31100    3.43830    0.04371    0.00642    0.32159    0.67841    1.00000    0.04371    0.00000    0.07458    0.00000    0.00000   36.97840   52.82284    2.94206    4.49482    0.15279
 4215.43280   67.24420    9.52380    2.63860   27.63300    7.02680    3.36330    3.53890    0.03859    0.00691    0.32923    0.67077    1.00000    0.03859    0.00000    0.06336    0.00000    0.00000   33.07842   83.64122    3.05206    4.56466    0.03490
 4215.58520   67.25230    9.52380    2.64210   27.56700    8.82810    3.51130    3.75430    0.04653    0.00479    0.32817    0.67183    1.00000    0.04653    0.00000    0.08349    0.00000    0.00000   28.89622   73.86297    3.28824    4.76431    0.06971
 4215.73760   65.43240    9.52380    2.63710   30.93360   10.82950    3.66310    3.81140    0.05806    0.00782    0.38233    0.61767    1.00000    0.05806    0.00000    0.10048    0.00000    0.00000   37.71796   19.64165    3.62812    4.96901    0.09117
 4215.89000   66.94320    9.52380    2.62620   33.82220   10.52340    3.69690    3.72120    0.05983    0.01442    0.42880    0.57120    1.00000    0.05983    0.00000    0.09081    0.00000    0.00000   44.09246   67.69480    3.65565    5.01358    0.00733
 4216.04240   70.94890    9.52380    2.62260   37.13330   10.14490    3.66390    3.67360    0.05903    0.01661    0.48206    0.51794    1.00000    0.05903    0.00000    0.08484    0.00000    0.00000   28.13037   71.09906    3.76469    4.96755    0.02821
 4216.19480   70.85060    9.46170    2.62990   34.62390   10.09180    3.63250    3.58680    0.05655    0.01218    0.44169    0.55831    1.00000    0.05655    0.00000    0.08874    0.00000    0.00000   36.07127   49.72705    3.44289    4.92372    0.09083
 4216.34720   70.94530    9.42860    2.63990   33.74260   10.89380    3.62740    3.54560    0.05753    0.00612    0.42751    0.57249    1.00000    0.05753    0.00000    0.10282    0.00000    0.00000   32.57980   63.50064    3.03254    4.91554    0.13100
 4216.49960   70.75350    9.42860    2.62690   39.17160   10.81510    3.59530    3.50760    0.06108    0.01400    0.51485    0.48515    1.00000    0.06108    0.00000    0.09415    0.00000    0.00000   32.94228   63.09092    3.02257    4.87079    0.00319
 4216.65200   71.20380    9.44740    2.61840   39.42700   11.04570    3.47320    3.46510    0.06480    0.01915    0.51896    0.48104    1.00000    0.06480    0.00000    0.09131    0.00000    0.00000   24.65617   38.35665    2.27806    4.70415    0.31307
 4216.80440   70.69280    9.52380    2.63100   33.91710   11.17300    3.35130    3.39930    0.06162    0.01152    0.43032    0.56968    1.00000    0.06162    0.00000    0.10021    0.00000    0.00000   25.93942   71.99790    3.32740    4.53788    0.30616
 4216.95680   71.08280    9.61900    2.63680   32.32890   10.11630    3.34000    3.38340    0.05458    0.00800    0.40477    0.59523    1.00000    0.05458    0.00000    0.09316    0.00000    0.00000   37.67328   67.26888    2.96343    4.52140    0.11881
 4217.10920   70.76060    9.54830    2.63590   36.87920   11.10220    3.29860    3.38640    0.05978    0.00855    0.47797    0.52203    1.00000    0.05978    0.00000    0.10248    0.00000    0.00000   31.45892   57.85670    2.24498    4.46420    0.30638
 4217.26160   70.81510    9.52380    2.63100   31.14970   11.50090    3.29720    3.37490    0.06326    0.01152    0.38580    0.61420    1.00000    0.06326    0.00000    0.10349    0.00000    0.00000   28.09813   61.85991    3.30329    4.46115    0.31097
 4217.41400   70.30100    9.52380    2.62560   35.22140   10.36990    3.28540    3.32260    0.05924    0.01479    0.45130    0.54870    1.00000    0.05924    0.00000    0.08891    0.00000    0.00000   39.54393   68.73287    3.00119    4.44402    0.09742
 4217.56640   70.74440    9.61900    2.61250   35.83160   10.57340    3.28360    3.28220    0.06423    0.02273    0.46112    0.53888    1.00000    0.06423    0.00000    0.08301    0.00000    0.00000   36.70270   84.35425    3.01945    4.44043    0.00586
 4217.71880   71.41700    9.61900    2.60530   31.51450   11.42640    3.30880    3.29990    0.07068    0.02709    0.39167    0.60833    1.00000    0.07068    0.00000    0.08717    0.00000    0.00000   34.30596   74.92005    2.47229    4.47334    0.21271
 4217.87120   69.91400    9.61900    2.60800   34.32520   10.83420    3.25820    3.26380    0.06690    0.02545    0.43689    0.56311    1.00000    0.06690    0.00000    0.08289    0.00000    0.00000   25.88867   64.22662    1.93344    4.40377    0.26499
 4218.02360   69.28900    9.61900    2.61620   37.92240   11.57120    3.20560    3.22520    0.06810    0.02048    0.49475    0.50525    1.00000    0.06810    0.00000    0.09523    0.00000    0.00000   30.62955   62.69955    2.26058    4.33154    0.13859
 4218.17600   70.94800    9.58580    2.62230   38.12440   12.26930    3.14640    3.15120    0.06974    0.01679    0.49800    0.50200    1.00000    0.06974    0.00000    0.10591    0.00000    0.00000   37.90890   60.67392    3.26327    4.25043    0.29813
 4218.32840   72.31910    9.52380    2.62480   37.13500   14.23700    3.05610    3.14290    0.07882    0.01527    0.48209    0.51791    1.00000    0.07882    0.00000    0.12710    0.00000    0.00000   20.68044   82.48835    2.58288    4.12736    0.25360
 4218.48080   73.35840    9.55990    2.62700   31.13570   10.46780    3.03550    3.13140    0.05931    0.01394    0.38558    0.61442    1.00000    0.05931    0.00000    0.09074    0.00000    0.00000   22.84924   73.55060    2.72044    4.09846    0.04877
 4218.63320   72.60240    9.61900    2.62060   32.24840    7.68100    3.06090    3.10120    0.04731    0.01782    0.40348    0.59652    1.00000    0.04731    0.00000    0.05899    0.00000    0.00000   26.71743   60.46353    2.89011    4.13166    0.05675
 4218.78560   71.86070    9.67530    2.62780   32.24840    9.31870    3.10370    3.10610    0.05332    0.01345    0.40348    0.59652    1.00000    0.05332    0.00000    0.07973    0.00000    0.00000   35.42997   88.40985    1.97747    4.18832    0.43930
 4218.93800   68.45340    9.61900    2.63450   32.24840    9.29440    3.14610    3.13760    0.05117    0.00939    0.40348    0.59652    1.00000    0.05117    0.00000    0.08355    0.00000    0.00000   31.76646   80.31877    1.87355    4.24441    0.05266
 4219.09040   69.78130    9.61900    2.62890   31.24420    9.27040    3.15950    3.20420    0.05275    0.01279    0.38732    0.61268    1.00000    0.05275    0.00000    0.07992    0.00000    0.00000   32.94460   55.80672    3.11468    4.26136    0.38608
 4219.24280   69.73650    9.61900    2.62670   33.10350    8.51270    3.17780    3.27320    0.04962    0.01412    0.41723    0.58277    1.00000    0.04962    0.00000    0.07101    0.00000    0.00000   31.58198   76.27503    3.27522    4.28490    0.04756
 4219.39520   69.55420    9.61900    2.62440   26.39870    8.81180    3.26360    3.32100    0.05182    0.01552    0.30938    0.69062    1.00000    0.05182    0.00000    0.07260    0.00000    0.00000   31.12249   71.32763    3.39404    4.39942    0.03401
 4219.54760   69.50090    9.61900    2.62650   26.87370   10.08040    3.29020    3.35920    0.05752    0.01424    0.31702    0.68298    1.00000    0.05752    0.00000    0.08656    0.00000    0.00000   36.54498   74.17161    3.11327    4.43409    0.08738
 4219.70000   67.73440    9.57140    2.62940   30.00900   10.90550    3.26820    3.33440    0.06077    0.01248    0.36745    0.63255    1.00000    0.06077    0.00000    0.09657    0.00000    0.00000   48.36573   79.19812    3.37760    4.40326    0.07601
 4219.85240   68.85510    9.71430    2.63350   33.11800    9.59230    3.25780    3.28810    0.05296    0.01000    0.41747    0.58253    1.00000    0.05296    0.00000    0.08592    0.00000    0.00000   32.90499   63.52954    3.15313    4.38807    0.06900
 4220.00480   71.66080    9.66380    2.63270   28.97980   12.50780    3.25110    3.24400    0.06778    0.01048    0.35090    0.64910    1.00000    0.06778    0.00000    0.11459    0.00000    0.00000   37.05174   60.82928    3.37944    4.37787    0.06504
