~Version ---------------------------------------------------
VERS.   2.0 : CWLS log ASCII Standard -VERSION 2.0
WRAP.    NO : One line per depth step
DLM . SPACE : Column Data Section Delimiter
~Well ------------------------------------------------------
STRT.M                  3615.43400 : START DEPTH
STOP.M                  4636.51400 : STOP DEPTH
STEP.M                     0.15240 : STEP
NULL.                      -999.25 : NULL VALUE
COMP.                              : COMPANY
WELL.                      15/9-19 : WELL
FLD .         Q15 North Sea Danish : FIELD
LOC .      Danish North Sea Sector : LOCATION
PROV.                              : PROVINCE
CNTY.                              : COUNTY
STAT.                              : STATE
CTRY.                              : COUNTRY
SRVC. GEOX Full Petrophysics + DAK : SERVICE COMPANY
DATE.                   2026-04-02 : DATE
UWI .                              : UNIQUE WELL ID
API .                              : API NUMBER
~Curve Information -----------------------------------------
DEPT   .M     : Measured Depth MD
AC     .US/F  : Sonic Transit Time
CALI   .IN    : Caliper
DEN    .G/CC  : Bulk Density
GR     .GAPI  : Gamma Ray
NEU    .PCT   : Neutron Porosity
RDEP   .OHMM  : Deep Induction
RMED   .OHMM  : Medium Induction
PHI_DN .V/V   : Avg DN Porosity
PHI_RH .V/V   : RHOB Porosity
VSHALE .V/V   : Shale Volume GR
VSAND  .V/V   : Sand Volume
SW     .V/V   : Sw Archie Rw002
VBW    .V/V   : Bulk Volume Water
VHC    .V/V   : Hydrocarbon Vol
CROSS  .V/V   : DN Crossover Gas
NET    .BIN   : Net Sand
PAY    .BIN   : Pay Sw<60pct
DIP_ANG.DEG   : Structural Dip Angle
DIP_AZI.DEG   : Structural Dip Azimuth
DAK_MRS.OHMM  : DAK Micro-Res Short
DAK_MRL.OHMM  : DAK Micro-Res Long
FRA_IDX.V/V   : Fracture Index
~Params ----------------------------------------------------
~Other -----------------------------------------------------
~ASCII -----------------------------------------------------
# ...
 3747.10760  109.29950    9.53410    2.30640   40.91570   60.23410    0.85330    0.88540    0.40529    0.20824    0.54290    0.45710    0.55620    0.22542    0.17987    0.39410    0.00000    0.00000   13.73349   56.66061    0.70152    1.08155    0.01764
 3747.26000  113.25780    9.61900    2.35570   32.37730   35.45750    0.86730    0.93740    0.26647    0.17836    0.40555    0.59445    0.74362    0.19815    0.06832    0.17621    0.00000    0.00000   17.85462   51.79857    0.49571    1.09891    0.34550
 3747.41240  103.30270    9.61900    2.41670   28.41730   17.12770    0.86130    0.95460    0.15634    0.14139    0.34185    0.65815    1.00000    0.15634    0.00000    0.02988    1.00000    0.00000    5.56092   50.57091    0.53540    1.09093    0.06247
 3747.56480   89.23620    9.68130    2.45710   25.11730   18.85000    0.82780    0.90140    0.15270    0.11691    0.28877    0.71123    1.00000    0.15270    0.00000    0.07159    1.00000    0.00000    6.93837   55.45715    0.67275    1.04814    0.17775
 3747.71720   79.23440    9.98290    2.45470   34.34200   26.92170    0.78030    0.82540    0.19379    0.11836    0.43716    0.56284    1.00000    0.19379    0.00000    0.15085    0.00000    0.00000    2.55924   45.61823    0.68684    0.98765    0.01790
 3747.86960   88.00930    9.49370    2.36230   30.31940   25.16930    0.73220    0.77440    0.21303    0.17436    0.37245    0.62755    0.98065    0.20891    0.00412    0.07733    1.00000    0.00000   15.83572   61.76845    0.69704    0.92645    0.01280
 3748.02200   86.11360    9.52380    2.24250   27.06210   26.76760    0.67090    0.72200    0.25732    0.24697    0.32005    0.67995    0.82039    0.21111    0.04622    0.02071    1.00000    0.00000   12.72042   38.12103    0.66006    0.84859    0.04865
 3748.17440   96.36640    9.65980    2.18100   19.96360   31.17300    0.60550    0.66270    0.29799    0.28424    0.20586    0.79414    0.69024    0.20568    0.09230    0.02749    1.00000    0.00000    9.62991   92.09659    0.40277    0.76560    0.51174
 3748.32680  104.12290    9.71430    2.16710   24.24200   24.55060    0.56390    0.61990    0.26909    0.29267    0.27469    0.72531    0.82908    0.22309    0.04599   -0.04716    1.00000    0.00000    9.21951   50.32544    0.32403    0.71275    0.18570
 3748.47920  106.41640    9.64340    2.16770   27.79010   21.56720    0.52260    0.57950    0.25399    0.29230    0.33176    0.66824    0.94933    0.24112    0.01287   -0.07663    1.00000    0.00000    9.99994   34.37954    0.47690    0.66032    0.26498
 3748.63160  107.19040    9.52380    2.16690   30.38950   21.79050    0.49030    0.55670    0.25535    0.29279    0.37358    0.62642    1.00000    0.25535    0.00000   -0.07488    1.00000    0.00000    8.23698   22.66724    0.50107    0.61929    0.04021
 3748.78400  107.39980    9.52380    2.16170   25.08210   28.09270    0.46640    0.54450    0.28843    0.29594    0.28820    0.71180    0.85960    0.24794    0.04050   -0.01501    1.00000    0.00000   11.28420   33.30145    0.42394    0.58890    0.14721
 3748.93640  106.98190    9.52380    2.16340   24.94040   31.30500    0.45440    0.53890    0.30398    0.29491    0.28592    0.71408    0.82568    0.25099    0.05299    0.01814    1.00000    0.00000   10.43529   52.74647    0.32720    0.57355    0.22646
 3749.08880  107.13870    9.60040    2.16720   28.88220   26.48420    0.44700    0.53840    0.27872    0.29261    0.34933    0.65067    0.94935    0.26461    0.01412   -0.02776    1.00000    0.00000   19.87139   39.49630    0.33205    0.56401    0.01124
 3749.24120  105.32130    9.61900    2.16690   23.75460   32.31950    0.44440    0.53990    0.30799    0.29279    0.26684    0.73316    0.81312    0.25043    0.05756    0.03041    1.00000    0.00000   14.55322   64.14989    0.32713    0.56053    0.01151
 3749.39360  104.86670    9.61900    2.16790   28.96100   28.78370    0.44640    0.54260    0.29001    0.29218    0.35060    0.64940    0.91458    0.26524    0.02477   -0.00434    1.00000    0.00000    8.85923   41.56886    0.44983    0.56286    0.22316
 3749.54600  104.70230    9.61900    2.16780   29.96480   28.99920    0.45310    0.54610    0.29112    0.29224    0.36674    0.63326    0.91544    0.26650    0.02462   -0.00225    1.00000    0.00000   10.04757   31.10476    0.44566    0.57110    0.00765
 3749.69840  104.90170    9.61900    2.16570   31.71480   23.80480    0.46020    0.54880    0.26578    0.29352    0.39489    0.60511    1.00000    0.26578    0.00000   -0.05547    1.00000    0.00000   18.97686   41.97871    0.36993    0.57985    0.16115
 3749.85080  103.97470    9.61900    2.16090   26.87370   34.09900    0.46780    0.55190    0.31871    0.29642    0.31702    0.68298    0.79437    0.25317    0.06554    0.04457    1.00000    0.00000   15.25946   38.57392    0.28904    0.58922    0.20791
 3750.00320  103.60660    9.61900    2.15710   26.87370   24.89140    0.47420    0.55520    0.27382    0.29873    0.31702    0.68298    0.91594    0.25080    0.02302   -0.04981    1.00000    0.00000   14.48840   43.72461    0.35474    0.59707    0.14448
 3750.15560  102.67730    9.61900    2.16160   28.41070   23.64190    0.48030    0.55670    0.26621    0.29600    0.34174    0.65826    0.95268    0.25361    0.01260   -0.05958    1.00000    0.00000   16.63089   29.43443    0.46617    0.60454    0.19681
 3750.30800  102.84530    9.61900    2.17130   29.16150   27.08990    0.48480    0.55720    0.28051    0.29012    0.35382    0.64618    0.90901    0.25499    0.02552   -0.01922    1.00000    0.00000   20.97339   44.50112    0.32237    0.60999    0.34046
 3750.46040  103.14700    9.56580    2.17560   26.19000   24.56220    0.49230    0.55850    0.26657    0.28752    0.30602    0.69398    0.91562    0.24408    0.02249   -0.04189    1.00000    0.00000    6.97139   18.40848    0.31102    0.61920    0.02762
 3750.61280  102.12910    9.61900    2.17980   29.32420   39.05180    0.50380    0.56080    0.33774    0.28497    0.35644    0.64356    0.74441    0.25142    0.08632    0.10555    1.00000    0.00000    9.34478   48.63503    0.34313    0.63345    0.07245
 3750.76520  105.39180    9.61900    2.18910   28.13960   40.27560    0.51800    0.56460    0.34104    0.27933    0.33738    0.66262    0.71686    0.24448    0.09656    0.12342    1.00000    0.00000    4.38523   44.58181    0.31932    0.65107    0.05678
 3750.91760  108.72270    9.61900    2.19760   33.97820   31.09670    0.54180    0.57810    0.29257    0.27418    0.43130    0.56870    0.87588    0.25626    0.03631    0.03679    0.00000    0.00000   15.57790   44.24448    0.46216    0.68074    0.25410
 3751.07000  107.25940    9.71430    2.19740   34.93340   31.38970    0.57000    0.60210    0.29410    0.27430    0.44667    0.55333    0.86012    0.25296    0.04114    0.03959    0.00000    0.00000   11.22458   34.38819    0.37951    0.71592    0.17237
 3751.22240  105.75210    9.80950    2.20360   43.93800   37.11620    0.61560    0.63860    0.32085    0.27055    0.59152    0.40848    0.86016    0.27598    0.04487    0.10062    0.00000    0.00000    9.77458   45.73729    0.59680    0.77292    0.31185
 3751.37480  104.46500    9.80950    2.24890   46.10500   32.45720    0.69340    0.74630    0.28383    0.24309    0.62638    0.37362    0.94305    0.26767    0.01616    0.08148    0.00000    0.00000    9.33787   49.55460    0.62808    0.87030    0.04296
 3751.52720  104.79030    9.52380    2.30090   43.24860   50.35110    0.72410    0.83140    0.35754    0.21158    0.58043    0.41957    0.70624    0.25251    0.10503    0.29194    0.00000    0.00000   16.62097   20.47413    0.41184    0.90850    0.42249
 3751.67960  103.73870    9.52380    2.32500   49.88230   39.93050    0.76850    0.87390    0.29814    0.19697    0.68714    0.31286    0.90546    0.26995    0.02819    0.20234    0.00000    0.00000   12.46896   61.21636    0.48971    0.96387    0.13206
 3751.83200   97.37610    9.63370    2.31990   42.44640   30.46060    0.82180    0.93600    0.25233    0.20006    0.56753    0.43247    0.92042    0.23225    0.02008    0.10455    0.00000    0.00000   10.54193   44.27421    0.71018    1.03035    0.27212
