~Version ---------------------------------------------------
VERS.   2.0 : CWLS log ASCII Standard -VERSION 2.0
WRAP.    NO : One line per depth step
DLM . SPACE : Column Data Section Delimiter
~Well ------------------------------------------------------
STRT.M                  3615.43400 : START DEPTH
STOP.M                  4636.51400 : STOP DEPTH
STEP.M                     0.15240 : STEP
NULL.                      -999.25 : NULL VALUE
COMP.                              : COMPANY
WELL.                      15/9-19 : WELL
FLD .         Q15 North Sea Danish : FIELD
LOC .      Danish North Sea Sector : LOCATION
PROV.                              : PROVINCE
CNTY.                              : COUNTY
STAT.                              : STATE
CTRY.                              : COUNTRY
SRVC. GEOX Full Petrophysics + DAK : SERVICE COMPANY
DATE.                   2026-04-02 : DATE
UWI .                              : UNIQUE WELL ID
API .                              : API NUMBER
~Curve Information -----------------------------------------
DEPT   .M     : Measured Depth MD
AC     .US/F  : Sonic Transit Time
CALI   .IN    : Caliper
DEN    .G/CC  : Bulk Density
GR     .GAPI  : Gamma Ray
NEU    .PCT   : Neutron Porosity
RDEP   .OHMM  : Deep Induction
RMED   .OHMM  : Medium Induction
PHI_DN .V/V   : Avg DN Porosity
PHI_RH .V/V   : RHOB Porosity
VSHALE .V/V   : Shale Volume GR
VSAND  .V/V   : Sand Volume
SW     .V/V   : Sw Archie Rw002
VBW    .V/V   : Bulk Volume Water
VHC    .V/V   : Hydrocarbon Vol
CROSS  .V/V   : DN Crossover Gas
NET    .BIN   : Net Sand
PAY    .BIN   : Pay Sw<60pct
DIP_ANG.DEG   : Structural Dip Angle
DIP_AZI.DEG   : Structural Dip Azimuth
DAK_MRS.OHMM  : DAK Micro-Res Short
DAK_MRL.OHMM  : DAK Micro-Res Long
FRA_IDX.V/V   : Fracture Index
~Params ----------------------------------------------------
~Other -----------------------------------------------------
~ASCII -----------------------------------------------------
# ...
 3815.38280  108.20120    9.43980    2.15550   27.97990   30.37130    0.34080    0.39150    0.30170    0.29970    0.33481    0.66519    0.99480    0.30014    0.00157    0.00402    1.00000    0.00000   21.07282   19.56793    0.19102    0.36493    0.00837
 3815.53520  107.78480    9.33330    2.15990   31.00670   27.44760    0.33880    0.38750    0.28575    0.29703    0.38350    0.61650    1.00000    0.28575    0.00000   -0.02255    1.00000    0.00000   24.99422   59.66837    0.18990    0.36266    0.00388
 3815.68760  107.55780    9.33330    2.16120   25.31630   34.89590    0.33700    0.38670    0.32260    0.29624    0.29197    0.70803    0.90779    0.29285    0.02975    0.05272    1.00000    0.00000   18.28824   62.42088    0.26488    0.36060    0.20550
 3815.84000  107.72110    9.42860    2.15650   26.99900   26.87620    0.33670    0.38730    0.28393    0.29909    0.31904    0.68096    1.00000    0.28393    0.00000   -0.03033    1.00000    0.00000   19.06095   48.99915    0.26954    0.36015    0.01261
 3815.99240  107.71080    9.51840    2.15100   28.71620   28.55740    0.33610    0.38760    0.29400    0.30242    0.34666    0.65334    1.00000    0.29400    0.00000   -0.01685    1.00000    0.00000   13.78748   16.93949    0.34218    0.35938    0.16428
 3816.14480  107.87830    9.52380    2.14640   26.94850   26.46680    0.33480    0.38740    0.28494    0.30521    0.31822    0.68178    1.00000    0.28494    0.00000   -0.04054    1.00000    0.00000   27.07832   34.47253    0.29626    0.35787    0.11589
 3816.29720  107.86150    9.52380    2.14580   30.33770   30.40280    0.33440    0.38710    0.30480    0.30558    0.37274    0.62726    1.00000    0.30480    0.00000   -0.00155    1.00000    0.00000   12.62824   42.99660    0.29625    0.35731    0.00002
 3816.44960  107.61150    9.52380    2.14160   30.45690   26.95690    0.33450    0.38650    0.28885    0.30812    0.37466    0.62534    1.00000    0.28885    0.00000   -0.03855    1.00000    0.00000   20.62224   49.38524    0.18759    0.35729    0.37781
 3816.60200  107.37490    9.52380    2.14360   32.25760   25.12830    0.33480    0.38580    0.27910    0.30691    0.40363    0.59637    1.00000    0.27910    0.00000   -0.05563    0.00000    0.00000   15.16699   26.59520    0.18871    0.35748    0.00387
 3816.75440  107.39180    9.52380    2.15250   31.68420   29.04290    0.33440    0.38430    0.29597    0.30152    0.39440    0.60560    1.00000    0.29597    0.00000   -0.01109    1.00000    0.00000   21.32850   41.43912    0.33583    0.35693    0.33756
 3816.90680  106.96870    9.42860    2.15540   27.89020   32.29920    0.33400    0.38180    0.31137    0.29976    0.33337    0.66663    0.97310    0.30300    0.00837    0.02323    1.00000    0.00000   23.37827   55.75587    0.31460    0.35637    0.05120
 3817.05920  106.83150    9.37630    2.15790   31.35260   31.04130    0.33420    0.38020    0.30433    0.29824    0.38907    0.61093    1.00000    0.30433    0.00000    0.01217    1.00000    0.00000   11.47480   36.93687    0.33901    0.35646    0.05560
 3817.21160  106.25160    9.23810    2.16040   29.33190   29.31130    0.33520    0.38110    0.29492    0.29673    0.35656    0.64344    1.00000    0.29492    0.00000   -0.00361    1.00000    0.00000   18.63135   40.58424    0.30041    0.35740    0.09641
 3817.36400  105.96540    9.18290    2.15580   31.16540   30.40160    0.33420    0.38260    0.30177    0.29952    0.38606    0.61394    1.00000    0.30177    0.00000    0.00450    1.00000    0.00000   10.91734   38.16574    0.31363    0.35620    0.03197
 3817.51640  106.13000    9.14290    2.15390   33.92280   32.92940    0.33850    0.38510    0.31498    0.30067    0.43041    0.56959    1.00000    0.31498    0.00000    0.02863    0.00000    0.00000   26.73710   23.90578    0.32505    0.36066    0.02687
 3817.66880  106.44240    9.14290    2.15500   27.46160   27.57980    0.34040    0.38560    0.28790    0.30000    0.32648    0.67352    1.00000    0.28790    0.00000   -0.02420    1.00000    0.00000   17.51479   39.71309    0.35395    0.36256    0.06366
 3817.82120  106.43350    9.14290    2.15210   27.09330   31.08360    0.34330    0.38990    0.30630    0.30176    0.32055    0.67945    0.96639    0.29600    0.01030    0.00908    1.00000    0.00000   11.86266   41.82469    0.33876    0.36551    0.03463
 3817.97360  106.50560    9.14290    2.15130   30.92490   32.28320    0.34430    0.39130    0.31254    0.30224    0.38219    0.61781    0.99066    0.30962    0.00292    0.02059    1.00000    0.00000   16.25046   56.24887    0.19283    0.36645    0.49835
 3818.12600  106.34730    9.14290    2.15310   32.24840   32.47410    0.35100    0.39130    0.31295    0.30115    0.40348    0.59652    0.99616    0.31174    0.00120    0.02359    0.00000    0.00000   26.33153   33.17081    0.35672    0.37345    0.35885
 3818.27840  106.28130    9.07910    2.14690   32.24840   25.28680    0.34270    0.40230    0.27889    0.30491    0.40348    0.59652    1.00000    0.27889    0.00000   -0.05204    0.00000    0.00000   27.22749   25.50542    0.28036    0.36449    0.20077
 3818.43080  106.55910    9.03000    2.14190   27.37100   28.60360    0.34130    0.38470    0.29699    0.30794    0.32502    0.67498    1.00000    0.29699    0.00000   -0.02190    1.00000    0.00000   26.15758   37.71699    0.19689    0.36287    0.28114
 3818.58320  106.40620    8.95240    2.14100   32.07000   34.48800    0.33480    0.38710    0.32668    0.30848    0.40061    0.59939    0.97554    0.31869    0.00799    0.03640    0.00000    0.00000   15.89754   31.83698    0.34370    0.35583    0.33088
 3818.73560  106.26200    8.95240    2.14710   30.38820   25.33870    0.32890    0.38050    0.27909    0.30479    0.37355    0.62645    1.00000    0.27909    0.00000   -0.05140    1.00000    0.00000   19.07270   53.41299    0.33883    0.34944    0.01112
 3818.88800  105.78140    8.95240    2.14940   24.91070   23.38870    0.32270    0.37970    0.26864    0.30339    0.28544    0.71456    1.00000    0.26864    0.00000   -0.06951    1.00000    0.00000   28.02263   36.66861    0.26959    0.34273    0.18733
 3819.04040  105.68420    8.95240    2.14460   30.89640   26.76050    0.31800    0.37660    0.28695    0.30630    0.38173    0.61827    1.00000    0.28695    0.00000   -0.03870    1.00000    0.00000   16.20573   21.69592    0.18000    0.33762    0.31996
 3819.19280  105.39990    9.02480    2.14280   27.47970   32.38880    0.31030    0.37530    0.31564    0.30739    0.32677    0.67323    0.99120    0.31286    0.00278    0.01649    1.00000    0.00000   18.20495   54.07945    0.29737    0.32933    0.29536
 3819.34520  104.79060    9.04760    2.14790   32.74230   28.51360    0.30520    0.37520    0.29472    0.30430    0.41142    0.58858    1.00000    0.29472    0.00000   -0.01917    0.00000    0.00000   15.12396   43.91494    0.31644    0.32380    0.04581
 3819.49760  104.05880    9.19820    2.15250   31.20660   30.09110    0.30040    0.37520    0.30121    0.30152    0.38672    0.61328    1.00000    0.30121    0.00000   -0.00060    1.00000    0.00000   14.08763   47.70698    0.17422    0.31860    0.51866
 3819.65000  103.27520    9.33330    2.15710   29.48740   31.44310    0.29560    0.37520    0.30658    0.29873    0.35906    0.64094    1.00000    0.30658    0.00000    0.01570    1.00000    0.00000   25.95387   50.99125    0.20265    0.31340    0.09394
 3819.80240  103.24560    9.33330    2.16100   29.88170   18.72010    0.29190    0.37590    0.24178    0.29636    0.36541    0.63459    1.00000    0.24178    0.00000   -0.10916    1.00000    0.00000   23.09094   60.85968    0.26717    0.30937    0.17572
 3819.95480  103.77170    9.33330    2.15520   27.76180   58.95400    0.28820    0.38090    0.44471    0.29988    0.33131    0.66869    0.73517    0.32694    0.11777    0.28966    1.00000    0.00000   22.20044   31.31883    0.25856    0.30534    0.02401
 3820.10720  104.10180    9.25230    2.14800   26.74050   26.04090    0.28980    0.38620    0.28233    0.30424    0.31488    0.68512    1.00000    0.28233    0.00000   -0.04383    1.00000    0.00000   22.86536   54.35628    0.25367    0.30693    0.01383
