~Version ---------------------------------------------------
VERS.   2.0 : CWLS log ASCII Standard -VERSION 2.0
WRAP.    NO : One line per depth step
DLM . SPACE : Column Data Section Delimiter
~Well ------------------------------------------------------
STRT.M                  3615.43400 : START DEPTH
STOP.M                  4636.51400 : STOP DEPTH
STEP.M                     0.15240 : STEP
NULL.                      -999.25 : NULL VALUE
COMP.                              : COMPANY
WELL.                      15/9-19 : WELL
FLD .         Q15 North Sea Danish : FIELD
LOC .      Danish North Sea Sector : LOCATION
PROV.                              : PROVINCE
CNTY.                              : COUNTY
STAT.                              : STATE
CTRY.                              : COUNTRY
SRVC. GEOX Full Petrophysics + DAK : SERVICE COMPANY
DATE.                   2026-04-02 : DATE
UWI .                              : UNIQUE WELL ID
API .                              : API NUMBER
~Curve Information -----------------------------------------
DEPT   .M     : Measured Depth MD
AC     .US/F  : Sonic Transit Time
CALI   .IN    : Caliper
DEN    .G/CC  : Bulk Density
GR     .GAPI  : Gamma Ray
NEU    .PCT   : Neutron Porosity
RDEP   .OHMM  : Deep Induction
RMED   .OHMM  : Medium Induction
PHI_DN .V/V   : Avg DN Porosity
PHI_RH .V/V   : RHOB Porosity
VSHALE .V/V   : Shale Volume GR
VSAND  .V/V   : Sand Volume
SW     .V/V   : Sw Archie Rw002
VBW    .V/V   : Bulk Volume Water
VHC    .V/V   : Hydrocarbon Vol
CROSS  .V/V   : DN Crossover Gas
NET    .BIN   : Net Sand
PAY    .BIN   : Pay Sw<60pct
DIP_ANG.DEG   : Structural Dip Angle
DIP_AZI.DEG   : Structural Dip Azimuth
DAK_MRS.OHMM  : DAK Micro-Res Short
DAK_MRL.OHMM  : DAK Micro-Res Long
FRA_IDX.V/V   : Fracture Index
~Params ----------------------------------------------------
~Other -----------------------------------------------------
~ASCII -----------------------------------------------------
 3615.43400   95.79520   12.72490    2.34290   54.87540   44.57420    0.89410    0.83590    0.31593    0.18612    0.76746    0.23254    0.86224    0.27241    0.04352    0.25962    0.00000    0.00000    9.49571   67.79922    0.90931    1.27374    0.90092
 3615.58640   94.22670   12.59610    2.35280   53.51580   62.11030    0.73670    0.80280    0.40061    0.18012    0.74559    0.25441    0.73624    0.29495    0.10567    0.44098    0.00000    0.00000    1.27569   66.61900    0.52733    1.04962    0.60888
 3615.73880  101.32540   13.76320    2.31700   48.98030   71.90870    0.64230    0.79580    0.46045    0.20182    0.67263    0.32737    0.63784    0.29369    0.16676    0.51727    0.00000    0.00000    1.22903   53.09678    0.38018    0.91523    0.30645
 3615.89120   99.56720   14.32490    2.25850   36.67620   44.89880    0.65710    0.79290    0.34313    0.23727    0.47471    0.52529    0.70456    0.24176    0.10137    0.21172    0.00000    0.00000    3.11344   70.83990    0.44921    0.93642    0.12569
 3616.04360  100.59650   11.14290    2.21080   40.46320   49.57440    0.74420    0.79400    0.38096    0.26618    0.53562    0.46438    0.62899    0.23962    0.14134    0.22956    0.00000    0.00000    2.85781   60.58347    0.54950    1.06066    0.15441
 3616.19600  101.35990   11.14290    2.20430   34.59440   33.74860    0.74610    0.79980    0.30380    0.27012    0.44122    0.55878    0.72523    0.22033    0.08348    0.06736    0.00000    0.00000    1.10808   55.09024    0.75348    1.06349    0.23899
 3616.34840  101.77460   10.26020    2.25580   30.21690   25.10140    0.75840    0.84310    0.24496    0.23891    0.37080    0.62920    0.84055    0.20590    0.03906    0.01210    1.00000    0.00000    1.10426   39.32113    0.42824    1.08114    0.61571
 3616.50080   93.59100   10.09520    2.34770   32.73520   15.93890    0.92990    1.03340    0.17130    0.18321    0.41131    0.58869    1.00000    0.17130    0.00000   -0.02382    0.00000    0.00000    7.65394   73.76559    0.63026    1.32577    0.27665
 3616.65320   86.78890   10.41220    2.42380   30.30980   14.30460    1.18770    1.35540    0.14007    0.13709    0.37229    0.62771    1.00000    0.14007    0.00000    0.00596    1.00000    0.00000    6.21895   55.20120    1.04418    1.69350    0.36176
 3616.80560  113.57210   10.11850    2.45140   32.60370   12.76560    1.25240    1.75620    0.12401    0.12036    0.40919    0.59081    1.00000    0.12401    0.00000    0.00729    0.00000    0.00000    4.14414   61.81785    1.28844    1.78595    0.17593
 3616.95800  114.88700    9.42860    2.46130   29.18770   14.53470    1.19410    1.61380    0.12986    0.11436    0.35424    0.64576    1.00000    0.12986    0.00000    0.03098    1.00000    0.00000    1.97451   53.70217    0.82915    1.70299    0.49431
 3617.11040  111.00090    9.49610    2.46810   27.53910   13.98720    1.16430    1.63880    0.12506    0.11024    0.32772    0.67228    1.00000    0.12506    0.00000    0.02963    1.00000    0.00000    0.30590   59.77374    0.80501    1.66067    0.02668
 3617.26280  118.49350    9.52380    2.46640   32.04720   17.01770    1.17690    1.63960    0.14072    0.11127    0.40024    0.59976    1.00000    0.14072    0.00000    0.05890    0.00000    0.00000    3.70114   49.16604    0.83066    1.67882    0.02757
 3617.41520  117.72500    9.52380    2.45650   30.02720   22.04490    1.18770    1.58000    0.16886    0.11727    0.36775    0.63225    0.95836    0.16183    0.00703    0.10318    1.00000    0.00000    0.12112   92.77605    0.96948    1.69440    0.12980
 3617.56760   71.32320    9.52380    2.44340   32.02010   27.61000    1.18020    1.40310    0.20066    0.12521    0.39981    0.60019    0.83538    0.16762    0.03303    0.15089    1.00000    0.00000    0.01706   81.59486    0.97500    1.68388    0.00513
 3617.72000   72.06220    9.52380    2.41900   33.42200   28.01360    1.14600    1.12200    0.21007    0.14000    0.42236    0.57764    0.82535    0.17338    0.03669    0.14014    0.00000    0.00000    6.05849   64.67615    0.94444    1.63526    0.02926
 3617.87240   79.63090    9.49670    2.39540   28.66530   34.00520    1.04480    1.02680    0.24718    0.15430    0.34584    0.65416    0.69694    0.17227    0.07491    0.18575    1.00000    0.00000    3.99166   58.82601    0.75926    1.49101    0.21550
 3618.02480   87.13050    9.42860    2.36910   29.38220   33.32810    0.96900    0.97450    0.25176    0.17024    0.35737    0.64263    0.71692    0.18049    0.07127    0.16304    1.00000    0.00000    1.84921   64.57763    0.86835    1.38298    0.11265
 3618.17720   93.27330    9.39850    2.32540   34.04000   26.47290    0.91600    0.97120    0.23073    0.19673    0.43230    0.56770    0.84981    0.19608    0.03465    0.06800    0.00000    0.00000    2.61316   41.91392    0.91198    1.30747    0.04312
 3618.32960   84.50210    9.33330    2.26940   34.04000   37.69990    0.88270    0.97120    0.30383    0.23067    0.43230    0.56770    0.66204    0.20115    0.10268    0.14633    0.00000    0.00000    6.38069   63.46478    0.61923    1.26007    0.40703
 3618.48200   85.33550    9.27100    2.24340   39.48090   30.50460    0.80460    0.96930    0.27574    0.24642    0.51982    0.48018    0.81914    0.22587    0.04987    0.05862    0.00000    0.00000    9.51650   53.15154    0.64521    1.14870    0.03486
 3618.63440   90.76070    9.33330    2.22390   40.68470   54.46190    0.74910    0.96330    0.40143    0.25824    0.53919    0.46081    0.59726    0.23976    0.16167    0.28638    0.00000    0.00000    2.04576   48.27414    0.71831    1.06957    0.08933
 3618.78680   95.07990    9.36910    2.13210   35.60920   95.40910    0.74830    0.95180    0.50000    0.31388    0.45754    0.54246    0.44869    0.22435    0.27565    0.64021    0.00000    0.00000    0.65053   44.36618    0.76836    1.06853    0.05763
 3618.93920  114.71010    9.85290    2.09190   41.51620   86.72270    0.74850    0.92390    0.50000    0.33824    0.55256    0.44744    0.48657    0.24329    0.25671    0.52898    0.00000    0.00000   11.44163   44.45943    0.70977    1.06893    0.07235
 3619.09160  149.21870   11.27390    2.23820   46.04910   97.58710    0.75070    0.85010    0.50000    0.24958    0.62548    0.37452    0.51955    0.25978    0.24022    0.72630    0.00000    0.00000    1.08044   61.59549    0.43468    1.07217    0.51449
 3619.24400  149.21870   11.39860    2.35350   40.80430   90.01910    0.73400    0.82020    0.50000    0.17970    0.54111    0.45889    0.48639    0.24320    0.25680    0.72049    0.00000    0.00000    5.93491   54.77728    0.63610    1.04843    0.27363
 3619.39640  145.20300   11.52380    2.37660   45.79930   61.92580    0.73150    0.81140    0.39248    0.16570    0.62146    0.37854    0.66587    0.26134    0.13114    0.45356    0.00000    0.00000    0.69654   42.69783    0.75476    1.04496    0.13882
 3619.54880  141.72530   11.70500    2.37950   54.16510   62.01660    0.75640    0.81200    0.39205    0.16394    0.75604    0.24396    0.75047    0.29422    0.09783    0.45623    0.00000    0.00000   10.10084   60.57785    0.61387    1.08063    0.19735
 3619.70120  137.58890   11.80950    2.37930   55.06050   67.05900    0.76580    0.81940    0.41733    0.16406    0.77044    0.22956    0.71263    0.29740    0.11993    0.50653    0.00000    0.00000    6.59885   56.49591    0.46353    1.09417    0.26680
 3619.85360  129.07680   12.27700    2.37360   61.82590   80.50690    0.75720    0.83090    0.48629    0.16752    0.87927    0.12073    0.70034    0.34057    0.14572    0.63755    0.00000    0.00000    0.71936   52.94989    0.51536    1.08198    0.08423
 3620.00600  117.44850   12.80980    2.33290   59.60130   97.17270    0.77300    0.83710    0.50000    0.19218    0.84349    0.15651    0.64565    0.32282    0.17718    0.77955    0.00000    0.00000    2.33860   75.93440    0.79004    1.10467    0.30862
 3620.15840  111.09410   11.14170    2.22820   60.00720  106.44480    0.79310    0.84560    0.50000    0.25564    0.85002    0.14998    0.64244    0.32122    0.17878    0.80881    0.00000    0.00000    6.74767   50.49666    0.79146    1.13350    0.00159
