~Version ---------------------------------------------------
VERS.   2.0 : CWLS log ASCII Standard -VERSION 2.0
WRAP.    NO : One line per depth step
DLM . SPACE : Column Data Section Delimiter
~Well ------------------------------------------------------
STRT.M                  3615.43400 : START DEPTH
STOP.M                  4636.51400 : STOP DEPTH
STEP.M                     0.15240 : STEP
NULL.                      -999.25 : NULL VALUE
COMP.                              : COMPANY
WELL.                      15/9-19 : WELL
FLD .         Q15 North Sea Danish : FIELD
LOC .      Danish North Sea Sector : LOCATION
PROV.                              : PROVINCE
CNTY.                              : COUNTY
STAT.                              : STATE
CTRY.                              : COUNTRY
SRVC. GEOX Full Petrophysics + DAK : SERVICE COMPANY
DATE.                   2026-04-02 : DATE
UWI .                              : UNIQUE WELL ID
API .                              : API NUMBER
~Curve Information -----------------------------------------
DEPT   .M     : Measured Depth MD
AC     .US/F  : Sonic Transit Time
CALI   .IN    : Caliper
DEN    .G/CC  : Bulk Density
GR     .GAPI  : Gamma Ray
NEU    .PCT   : Neutron Porosity
RDEP   .OHMM  : Deep Induction
RMED   .OHMM  : Medium Induction
PHI_DN .V/V   : Avg DN Porosity
PHI_RH .V/V   : RHOB Porosity
VSHALE .V/V   : Shale Volume GR
VSAND  .V/V   : Sand Volume
SW     .V/V   : Sw Archie Rw002
VBW    .V/V   : Bulk Volume Water
VHC    .V/V   : Hydrocarbon Vol
CROSS  .V/V   : DN Crossover Gas
NET    .BIN   : Net Sand
PAY    .BIN   : Pay Sw<60pct
DIP_ANG.DEG   : Structural Dip Angle
DIP_AZI.DEG   : Structural Dip Azimuth
DAK_MRS.OHMM  : DAK Micro-Res Short
DAK_MRL.OHMM  : DAK Micro-Res Long
FRA_IDX.V/V   : Fracture Index
~Params ----------------------------------------------------
~Other -----------------------------------------------------
~ASCII -----------------------------------------------------
# ...
 4483.50440   95.63710    9.14290    2.25660   48.88620   29.16490    0.49980    0.47360    0.26504    0.23842    0.67112    0.32888    1.00000    0.26504    0.00000    0.05322    0.00000    0.00000    7.08539  118.02340    0.51843    0.54174    0.33664
 4483.65680   95.08300    9.07710    2.26090   43.78790   30.55890    0.46070    0.46220    0.27070    0.23582    0.58911    0.41089    1.00000    0.27070    0.00000    0.06977    0.00000    0.00000    4.75282  111.83882    0.41134    0.49954    0.20944
 4483.80920   95.53290    9.04760    2.27240   50.30250   22.82760    0.44310    0.46370    0.22856    0.22885    0.69390    0.30610    1.00000    0.22856    0.00000   -0.00057    0.00000    0.00000   12.64737   76.90991    0.45908    0.48064    0.08539
 4483.96160   94.85770    9.11630    2.28750   50.34970   23.51040    0.44460    0.46990    0.22740    0.21970    0.69466    0.30534    1.00000    0.22740    0.00000    0.01541    0.00000    0.00000    6.76592  119.89527    0.44185    0.48244    0.03179
 4484.11400   94.40170    9.12040    2.30710   51.79750   21.60800    0.46280    0.48850    0.21195    0.20782    0.71795    0.28205    1.00000    0.21195    0.00000    0.00826    0.00000    0.00000    0.44483   86.68012    0.40277    0.50238    0.07773
 4484.26640   94.91420    9.04760    2.34100   53.75440   19.59000    0.50770    0.51270    0.19159    0.18727    0.74943    0.25057    1.00000    0.19159    0.00000    0.00863    0.00000    0.00000    0.43395   71.81728    0.29310    0.55132    0.27900
 4484.41880   94.16410    9.14290    2.38620   55.65100   23.96170    0.56210    0.55750    0.19975    0.15988    0.77994    0.22006    1.00000    0.19975    0.00000    0.07974    0.00000    0.00000    3.90149  112.67780    0.34841    0.61062    0.12335
 4484.57120   91.37790    9.14290    2.43330   58.11440   19.74110    0.60290    0.62000    0.16437    0.13133    0.81957    0.18043    1.00000    0.16437    0.00000    0.06608    0.00000    0.00000    4.72891  117.37331    0.60248    0.65519    0.36168
 4484.72360   89.80320    9.23810    2.45410   51.06000   20.00660    0.62340    0.65960    0.15940    0.11873    0.70609    0.29391    1.00000    0.15940    0.00000    0.08134    0.00000    0.00000   10.16507   86.92960    0.43719    0.67772    0.30771
 4484.87600   90.46630    9.16080    2.39410   45.97140   24.00620    0.62820    0.67090    0.19758    0.15509    0.62423    0.37577    1.00000    0.19758    0.00000    0.08497    0.00000    0.00000    6.19465  101.01194    0.40723    0.68319    0.05907
 4485.02840   82.81230    9.14290    2.32660   42.99790   17.60660    0.62900    0.65680    0.18603    0.19600    0.57640    0.42360    1.00000    0.18603    0.00000   -0.01993    0.00000    0.00000   10.30120   89.83961    0.52614    0.68431    0.18992
 4485.18080   75.72320    9.14290    2.31950   42.99790   22.96320    0.62930    0.63150    0.21497    0.20030    0.57640    0.42360    1.00000    0.21497    0.00000    0.02933    0.00000    0.00000   12.31176  109.76638    0.64176    0.68489    0.15587
 4485.33320   78.02600    9.14290    2.33680   48.50560   24.47850    0.62300    0.60130    0.21730    0.18982    0.66500    0.33500    1.00000    0.21730    0.00000    0.05497    0.00000    0.00000    4.19847   93.02873    0.36643    0.67829    0.59029
 4485.48560   80.70480    9.14290    2.34250   54.81810   29.57390    0.60730    0.56770    0.24105    0.18636    0.76654    0.23346    1.00000    0.24105    0.00000    0.10938    0.00000    0.00000   12.67284  104.18959    0.39132    0.66144    0.05067
 4485.63800   89.81960    9.14290    2.34660   53.54440   24.29280    0.57990    0.54090    0.21340    0.18388    0.74605    0.25395    1.00000    0.21340    0.00000    0.05905    0.00000    0.00000    3.17270   81.67620    0.36260    0.63183    0.06209
 4485.79040   92.17850    9.22870    2.34980   56.25810   24.13650    0.54690    0.52200    0.21165    0.18194    0.78971    0.21029    1.00000    0.21165    0.00000    0.05943    0.00000    0.00000    5.69071  108.87918    0.53661    0.59610    0.27334
 4485.94280   91.01280    9.18260    2.34320   53.82350   26.43900    0.51910    0.50850    0.22516    0.18594    0.75054    0.24946    1.00000    0.22516    0.00000    0.07845    0.00000    0.00000    4.04959  101.27927    0.52820    0.56601    0.01339
 4486.09520   89.98980    9.23810    2.32190   56.43480   22.74830    0.49300    0.49830    0.21317    0.19885    0.79255    0.20745    1.00000    0.21317    0.00000    0.02863    0.00000    0.00000   14.34864  139.03492    0.38995    0.53775    0.28218
 4486.24760   91.17700    9.14290    2.29110   54.03080   24.65530    0.46630    0.49650    0.23203    0.21752    0.75388    0.24612    1.00000    0.23203    0.00000    0.02904    0.00000    0.00000   12.13995  120.65488    0.28612    0.50882    0.26891
 4486.40000   92.77370    9.14290    2.28080   49.33670   23.71770    0.45000    0.50150    0.23047    0.22376    0.67837    0.32163    1.00000    0.23047    0.00000    0.01342    0.00000    0.00000   11.85729   92.18063    0.38383    0.49122    0.20196
 4486.55240   92.71220    9.14290    2.31400   35.36360   20.77220    0.44870    0.51490    0.20568    0.20364    0.45359    0.54641    1.00000    0.20568    0.00000    0.00409    0.00000    0.00000    0.84110   81.64923    0.44826    0.48998    0.11752
 4486.70480   90.60860    9.14290    2.34450   32.27640   24.60900    0.45250    0.52750    0.21562    0.18515    0.40393    0.59607    1.00000    0.21562    0.00000    0.06094    0.00000    0.00000    6.92093  111.37426    0.46425    0.49432    0.02834
 4486.85720   88.98130    9.14290    2.33990   31.83550   19.02500    0.46270    0.54260    0.18909    0.18794    0.39684    0.60316    1.00000    0.18909    0.00000    0.00231    1.00000    0.00000    0.81636   87.69918    0.47039    0.50565    0.01075
 4487.00960   86.30990    9.14290    2.31130   34.10040   19.53680    0.47500    0.55830    0.20032    0.20527    0.43327    0.56673    1.00000    0.20032    0.00000   -0.00990    0.00000    0.00000    7.17939  111.94845    0.48435    0.51928    0.02390
 4487.16200   85.96120    9.14290    2.31740   38.65540   24.71130    0.48800    0.57330    0.22434    0.20158    0.50654    0.49346    1.00000    0.22434    0.00000    0.04554    0.00000    0.00000    9.16800  116.51183    0.33699    0.53369    0.33722
 4487.31440   87.59770    9.14790    2.39920   37.57590   22.39960    0.51720    0.59720    0.18800    0.15200    0.48918    0.51082    1.00000    0.18800    0.00000    0.07200    0.00000    0.00000   13.16639  123.23767    0.53015    0.56584    0.30653
 4487.46680   90.92500    9.29220    2.51110   36.21830   19.04870    0.57630    0.65740    0.13733    0.08418    0.46734    0.53266    1.00000    0.13733    0.00000    0.10631    0.00000    0.00000    5.67102  123.42137    0.57710    0.63074    0.06934
 4487.61920   87.43320    9.42860    2.58950   33.14420   14.27930    0.64620    0.74750    0.08973    0.03667    0.41789    0.58211    1.00000    0.08973    0.00000    0.10613    0.00000    0.00000    7.51398  119.00607    0.39683    0.70750    0.36285
 4487.77160   77.96870    9.42860    2.61180   35.82550   11.78530    0.72380    0.81960    0.07050    0.02315    0.46102    0.53898    1.00000    0.07050    0.00000    0.09470    0.00000    0.00000    5.66411  100.64909    0.49468    0.79276    0.16454
 4487.92400   68.21780    9.43940    2.60940   43.20090   12.11790    0.82670    0.91310    0.07289    0.02461    0.57966    0.42034    1.00000    0.07289    0.00000    0.09657    0.00000    0.00000    1.06183  100.22903    0.58123    0.90581    0.12706
 4488.07640   66.42150    9.52380    2.60580   41.97270   11.54620    1.00340    1.05350    0.07112    0.02679    0.55991    0.44009    1.00000    0.07112    0.00000    0.08867    0.00000    0.00000   14.53672  103.85183    0.56277    1.09983    0.02786
 4488.22880   65.12280    9.61900    2.60020   44.15090   10.28600    1.26790    1.26200    0.06652    0.03018    0.59495    0.40505    1.00000    0.06652    0.00000    0.07268    0.00000    0.00000    8.22360  125.14563    0.87997    1.39027    0.32368
