~Version ---------------------------------------------------
VERS.   2.0 : CWLS log ASCII Standard -VERSION 2.0
WRAP.    NO : One line per depth step
DLM . SPACE : Column Data Section Delimiter
~Well ------------------------------------------------------
STRT.M                  3615.43400 : START DEPTH
STOP.M                  4636.51400 : STOP DEPTH
STEP.M                     0.15240 : STEP
NULL.                      -999.25 : NULL VALUE
COMP.                              : COMPANY
WELL.                      15/9-19 : WELL
FLD .         Q15 North Sea Danish : FIELD
LOC .      Danish North Sea Sector : LOCATION
PROV.                              : PROVINCE
CNTY.                              : COUNTY
STAT.                              : STATE
CTRY.                              : COUNTRY
SRVC. GEOX Full Petrophysics + DAK : SERVICE COMPANY
DATE.                   2026-04-02 : DATE
UWI .                              : UNIQUE WELL ID
API .                              : API NUMBER
~Curve Information -----------------------------------------
DEPT   .M     : Measured Depth MD
AC     .US/F  : Sonic Transit Time
CALI   .IN    : Caliper
DEN    .G/CC  : Bulk Density
GR     .GAPI  : Gamma Ray
NEU    .PCT   : Neutron Porosity
RDEP   .OHMM  : Deep Induction
RMED   .OHMM  : Medium Induction
PHI_DN .V/V   : Avg DN Porosity
PHI_RH .V/V   : RHOB Porosity
VSHALE .V/V   : Shale Volume GR
VSAND  .V/V   : Sand Volume
SW     .V/V   : Sw Archie Rw002
VBW    .V/V   : Bulk Volume Water
VHC    .V/V   : Hydrocarbon Vol
CROSS  .V/V   : DN Crossover Gas
NET    .BIN   : Net Sand
PAY    .BIN   : Pay Sw<60pct
DIP_ANG.DEG   : Structural Dip Angle
DIP_AZI.DEG   : Structural Dip Azimuth
DAK_MRS.OHMM  : DAK Micro-Res Short
DAK_MRL.OHMM  : DAK Micro-Res Long
FRA_IDX.V/V   : Fracture Index
~Params ----------------------------------------------------
~Other -----------------------------------------------------
~ASCII -----------------------------------------------------
# ...
 3883.65800   64.80720   10.50610    2.49760    5.98930   10.32380    2.23670    2.63140    0.09780    0.09236    0.00000    1.00000    0.91977    0.08995    0.00785    0.01087    0.00000    0.00000   32.28973   44.65747    1.66515    2.15318    0.03045
 3883.81040   66.00880   10.61750    2.51560    4.17060    9.33200    2.22050    2.63170    0.08739    0.08145    0.00000    1.00000    1.00000    0.08739    0.00000    0.01187    0.00000    0.00000   27.35844   39.39731    2.20377    2.13743    0.23380
 3883.96280   67.40410   10.11910    2.55020    5.76560    8.99140    2.22290    2.63360    0.07520    0.06048    0.00000    1.00000    1.00000    0.07520    0.00000    0.02943    0.00000    0.00000   26.18116   44.87619    1.97204    2.13959    0.11183
 3884.11520   67.74630   10.01930    2.57770    5.91860    9.18530    2.27030    2.63400    0.06784    0.04382    0.00000    1.00000    1.00000    0.06784    0.00000    0.04803    0.00000    0.00000   20.38039   62.73750    2.35646    2.18507    0.15649
 3884.26760   67.34510   10.16360    2.59390    7.41940    8.15720    2.22130    2.63580    0.05779    0.03400    0.00407    0.99593    1.00000    0.05779    0.00000    0.04757    0.00000    0.00000   25.23508   57.70612    1.34981    2.13776    0.69433
 3884.42000   66.61120   10.19050    2.59800    6.06210   10.38720    2.31280    2.63750    0.06769    0.03152    0.00000    1.00000    1.00000    0.06769    0.00000    0.07236    0.00000    0.00000   27.89203   51.84347    2.38922    2.22568    0.41757
 3884.57240   65.83360   10.33290    2.58810    7.38440    9.99290    2.34590    2.63580    0.06872    0.03752    0.00351    0.99649    1.00000    0.06872    0.00000    0.06241    0.00000    0.00000   22.41255   35.29930    1.60090    2.25738    0.46348
 3884.72480   63.15590   10.50120    2.57020    4.05380    9.25510    2.34960    2.63580    0.07046    0.04836    0.00000    1.00000    1.00000    0.07046    0.00000    0.04419    0.00000    0.00000   30.17590   37.58774    2.37092    2.26079    0.31163
 3884.87720   64.56790   10.57140    2.54430    6.07150    9.24160    2.34700    2.63580    0.07824    0.06406    0.00000    1.00000    1.00000    0.07824    0.00000    0.02836    0.00000    0.00000   25.48276   51.73527    2.41476    2.25815    0.01743
 3885.02960   65.56870   10.36460    2.52000    5.52870    8.13710    2.34890    2.64040    0.08008    0.07879    0.00000    1.00000    1.00000    0.08008    0.00000    0.00258    0.00000    0.00000   27.46299   38.76499    2.26933    2.25983    0.06138
 3885.18200   66.51720    9.86440    2.50540    5.16650   11.03510    2.34940    2.72690    0.09899    0.08764    0.00000    1.00000    0.88764    0.08787    0.01112    0.02271    0.00000    0.00000   23.21907   34.38930    1.59078    2.26018    0.40133
 3885.33440   67.50680    9.93550    2.50360    4.74140   10.27540    2.34920    2.79070    0.09574    0.08873    0.00000    1.00000    0.91492    0.08759    0.00815    0.01403    0.00000    0.00000   23.26482   64.61254    2.33592    2.25984    0.30590
 3885.48680   67.95960   10.15970    2.49470    7.91730   11.56350    2.35080    2.76950    0.10488    0.09412    0.01208    0.98792    0.84748    0.08888    0.01600    0.02151    1.00000    0.00000   26.82476   46.09897    1.32966    2.26125    0.70384
 3885.63920   68.13640   10.57140    2.49170    7.48300   10.58720    2.36340    2.76670    0.10091    0.09594    0.00509    0.99491    0.87218    0.08801    0.01290    0.00993    1.00000    0.00000   27.65738   47.91406    1.35536    2.27323    0.01766
 3885.79160   68.55430   10.57140    2.49540    6.50580    9.38020    2.42840    2.76670    0.09375    0.09370    0.00000    1.00000    0.91706    0.08597    0.00778    0.00011    0.00000    0.00000   27.47709   35.86820    1.44080    2.33562    0.05545
 3885.94400   68.73620   10.53490    2.50310    7.16630    9.56710    2.44980    2.76520    0.09235    0.08903    0.00000    1.00000    0.92543    0.08546    0.00689    0.00664    0.00000    0.00000   20.66325   48.63811    2.15818    2.35606    0.31768
 3886.09640   69.43560    9.87690    2.51020    7.16630   11.94070    2.00370    2.76670    0.10207    0.08473    0.00000    1.00000    0.93476    0.09541    0.00666    0.03468    1.00000    0.00000   22.08831   56.42596    1.19125    1.92692    0.74883
 3886.24880   68.86190    9.92780    2.50790    5.59170   11.77370    2.45640    2.76520    0.10193    0.08612    0.00000    1.00000    0.84533    0.08616    0.01577    0.03162    1.00000    0.00000   25.66142   48.49560    2.00091    2.36215    0.38538
 3886.40120   68.46200   10.27220    2.50450    7.99870   10.91690    2.44830    2.76440    0.09868    0.08818    0.01339    0.98661    0.87848    0.08668    0.01199    0.02099    0.00000    0.00000   16.49102   22.75716    1.82626    2.35423    0.09067
 3886.55360   67.73960   10.28570    2.51330    7.86350   10.52310    2.43820    2.76420    0.09404    0.08285    0.01122    0.98878    0.91823    0.08635    0.00769    0.02238    0.00000    0.00000   31.00868   37.31597    2.48930    2.34439    0.25607
 3886.70600   67.61800   10.28570    2.51760    3.65580   10.18120    2.42720    2.75950    0.09103    0.08024    0.00000    1.00000    0.94180    0.08573    0.00530    0.02157    0.00000    0.00000   27.37609   52.35618    2.52254    2.33369    0.01268
 3886.85840   66.95870   10.28570    2.52070    5.75440    8.51540    2.44880    2.79720    0.08176    0.07836    0.00000    1.00000    1.00000    0.08176    0.00000    0.00679    0.00000    0.00000   26.00547   47.82221    1.77276    2.35433    0.40036
 3887.01080   66.61180    9.90870    2.52640    6.27970    8.56630    2.46920    2.81150    0.08029    0.07491    0.00000    1.00000    1.00000    0.08029    0.00000    0.01075    0.00000    0.00000   22.24483   59.14229    2.11196    2.37382    0.15335
 3887.16320   66.56190    9.66710    2.52690    7.17460    8.58470    2.46210    1.53100    0.08023    0.07461    0.00013    0.99987    1.00000    0.08023    0.00000    0.01124    0.00000    0.00000   29.92625   39.96090    2.18002    2.36688    0.02985
 3887.31560   66.59030   10.09710    2.54250    7.16630    8.53750    2.46840    2.81660    0.07526    0.06515    0.00000    1.00000    1.00000    0.07526    0.00000    0.02022    0.00000    0.00000   24.46835   43.56061    1.75478    2.37282    0.22927
 3887.46800   66.09590   10.19050    2.55860    7.64550    8.63960    2.46850    2.81800    0.07089    0.05539    0.00771    0.99229    1.00000    0.07089    0.00000    0.03100    0.00000    0.00000   35.34368   57.72314    1.78197    2.37280    0.01445
 3887.62040   65.54290   10.16660    2.56710    8.06210    8.31510    2.47370    2.81850    0.06670    0.05024    0.01441    0.98559    1.00000    0.06670    0.00000    0.03291    0.00000    0.00000   27.82038   43.59999    2.41515    2.37768    0.25175
 3887.77280   63.48440    9.71430    2.55320    6.54320   10.43550    2.47490    2.80220    0.08151    0.05867    0.00000    1.00000    1.00000    0.08151    0.00000    0.04569    0.00000    0.00000   18.40987   56.95700    2.03075    2.37873    0.18040
 3887.92520   63.76900    9.71430    2.52670    5.30280    8.66780    2.47750    2.82330    0.08070    0.07473    0.00000    1.00000    1.00000    0.08070    0.00000    0.01195    0.00000    0.00000   29.51466   18.52859    2.36922    2.38112    0.13708
 3888.07760   64.81830    9.77100    2.50790    6.61260   10.08450    2.50840    2.87420    0.09348    0.08612    0.00000    1.00000    0.90463    0.08457    0.00892    0.01472    0.00000    0.00000   23.24990   30.19748    1.56228    2.41071    0.48545
 3888.23000   65.93220   10.01050    2.49490    4.77620   11.77510    2.48560    2.84690    0.10588    0.09400    0.00000    1.00000    0.81164    0.08593    0.01994    0.02375    1.00000    0.00000   23.29503   57.84724    2.58458    2.38869    0.38080
 3888.38240   66.15250   10.09520    2.48970    7.16630    9.32450    2.49660    2.82170    0.09520    0.09715    0.00000    1.00000    0.89206    0.08492    0.01028   -0.00391    0.00000    0.00000   24.70229   56.13349    2.03286    2.39916    0.25868
