~Version ---------------------------------------------------
VERS.   2.0 : CWLS log ASCII Standard -VERSION 2.0
WRAP.    NO : One line per depth step
DLM . SPACE : Column Data Section Delimiter
~Well ------------------------------------------------------
STRT.m           1000.00000 : START DEPTH
STOP.m           3499.50000 : STOP DEPTH
STEP.m              0.50000 : STEP
NULL.               -999.25 : NULL VALUE
COMP.                       : COMPANY
WELL.               GEOSX-1 : WELL
FLD .           GEOX-ARIFOS : FIELD
LOC . Kuala Lumpur Malaysia : LOCATION
PROV.                       : PROVINCE
CNTY.                       : COUNTY
STAT.                       : STATE
CTRY.                       : COUNTRY
SRVC.    GEOX Earth Physics : SERVICE COMPANY
DATE.            2026-04-02 : DATE
UWI .                       : UNIQUE WELL ID
API .                       : API NUMBER
~Curve Information -----------------------------------------
DEPT.m      : Measured Depth
GR  .gAPI   : Gamma Ray
RD  .ohm.m  : Deep Resistivity
RS  .ohm.m  : Shallow Resistivity
DT  .us/ft  : Sonic Transit Time
RHOB.g/cm3  : Bulk Density
PHIN.v/v    : Neutron Porosity
CALI.in     : Caliper
~Params ----------------------------------------------------
~Other -----------------------------------------------------
~ASCII -----------------------------------------------------
 1000.00000   84.96660   45.39266   18.13804   52.04176    2.29045    0.30342    7.90583
 1000.50000   81.85349   45.35532   18.20351   52.26899    2.28854    0.30022    8.18350
 1001.00000   85.84495   44.92423   18.13600   52.46864    2.25198    0.29133    8.32389
 1001.50000   90.28327   45.33549   18.26843   54.23956    2.29751    0.29987    8.54490
 1002.00000   81.55888   45.62598   18.47667   50.85725    2.23546    0.30972    8.80725
 1002.50000   81.62041   44.99549   18.07391   50.66488    2.26057    0.29735    8.70824
 1003.00000   90.74851   45.66396   18.41917   54.83675    2.22027    0.30825    8.14620
 1003.50000   86.75089   45.46741   18.05356   51.44420    2.32704    0.28309    8.38849
 1004.00000   80.62753   45.07249   18.03127   49.84945    2.27337    0.28772    8.52291
 1004.50000   85.74879   45.22200   18.35541   51.41134    2.34537    0.28509    8.42134
 1005.00000   80.77991   45.71568   18.36699   51.72762    2.30449    0.28845    8.41921
 1005.50000   80.82926   45.42798   18.34379   55.50383    2.29388    0.32547    7.98318
 1006.00000   84.42855   45.18230   17.90127   54.24978    2.26289    0.31422    8.15418
 1006.50000   73.71307   45.08014   18.06216   54.70144    2.24913    0.27814    8.37912
 1007.00000   74.71552   45.14621   18.31087   54.05266    2.29625    0.30840    7.57203
 1007.50000   80.58922   44.94151   18.14551   54.31157    2.27845    0.29181    8.69219
 1008.00000   78.39695   44.43544   17.91340   51.04933    2.24046    0.28595    8.08820
 1008.50000   85.09270   45.65136   18.21074   52.03474    2.23517    0.26986    8.70605
 1009.00000   79.04161   45.05716   17.96705   50.45863    2.25196    0.31899    8.67967
 1009.50000   76.58038   45.10188   18.45987   52.02403    2.33539    0.27225    8.33689
 1010.00000   91.03022   44.93696   18.40088   53.81982    2.34720    0.29846    8.80016
 1010.50000   82.63307   44.70571   18.20369   52.72743    2.28699    0.28055    8.72296
 1011.00000   84.15947   44.84240   18.34603   55.08792    2.28535    0.31497    8.40731
 1011.50000   76.75787   44.39031   18.07775   50.18887    2.27083    0.29274    8.37347
 1012.00000   81.21938   45.52521   18.20885   53.47896    2.25293    0.29671    8.82917
 1012.50000   84.55549   44.44372   18.34228   49.98872    2.32226    0.29736    8.56960
 1013.00000   78.30540   44.47648   18.08682   52.68056    2.33725    0.30540    8.81341
 1013.50000   85.99824   44.62601   17.97767   53.97980    2.25428    0.29959    7.78331
 1014.00000   81.17584   45.11655   17.67877   52.07711    2.27863    0.29843    8.52955
 1014.50000   82.77974   44.70653   17.99406   53.61539    2.26766    0.28891    8.02678
 1015.00000   81.28875   44.30341   18.16637   50.60074    2.26859    0.26776    8.49226
 1015.50000   93.61765   45.02263   18.18181   49.19995    2.31682    0.27685    8.71415
 1016.00000   84.34764   44.83774   18.08456   53.64855    2.24192    0.31357    9.02174
 1016.50000   79.18534   44.75209   17.86644   56.02972    2.29531    0.29306    8.21855
 1017.00000   88.64528   44.77742   17.57035   50.55687    2.30321    0.28587    8.34229
 1017.50000   78.48689   45.25317   17.85769   55.00065    2.27714    0.27101    8.47134
 1018.00000   85.69387   45.16256   17.88689   52.65046    2.30823    0.26471    8.20764
 1018.50000   74.90955   44.27321   17.87620   49.89963    2.28591    0.28501    8.79357
 1019.00000   78.12520   44.93860   18.05353   50.31545    2.31803    0.31681    8.47897
 1019.50000   85.80856   44.53861   18.31799   52.61752    2.23589    0.28788    8.53659
 1020.00000   88.57460   44.54563   17.93660   51.78456    2.27114    0.30701    8.68605
 1020.50000   85.79701   43.86048   17.85960   49.97524    2.27949    0.28691    8.47849
 1021.00000   84.41972   44.28933   17.84215   49.22062    2.20151    0.31173    8.25474
 1021.50000   83.55013   44.06889   17.90993   50.92293    2.24914    0.29189    8.48109
 1022.00000   77.72061   44.53347   17.71045   53.01171    2.25735    0.27426    8.24315
 1022.50000   81.57146   44.57871   17.89121   52.61906    2.31025    0.29350    8.53239
 1023.00000   82.92483   43.60738   17.94840   51.63720    2.26063    0.33553    8.79908
 1023.50000   90.57087   44.19548   17.89125   53.05131    2.25734    0.33462    8.14751
 1024.00000   87.06047   44.51104   17.93190   54.73549    2.30644    0.30853    8.04029
 1024.50000   76.58418   44.09087   17.91822   53.45164    2.23342    0.29603    8.51477
 1025.00000   87.07669   44.33801   17.46818   52.42877    2.21986    0.30483    8.26966
 1025.50000   83.58763   44.19708   17.94103   54.53557    2.27119    0.30506    8.50952
 1026.00000   82.18508   44.16668   17.67054   50.76782    2.23865    0.29790    8.59612
 1026.50000   88.68461   43.95525   17.57668   52.24581    2.23983    0.30749    7.85689
 1027.00000   90.83765   43.64416   17.56606   52.30165    2.29936    0.30281    8.70695
 1027.50000   90.39535   43.64518   17.86477   50.23815    2.30848    0.29231    8.14910
 1028.00000   81.59905   44.16696   17.72466   51.88058    2.30591    0.27469    8.49330
 1028.50000   84.30513   43.93253   17.42390   48.57872    2.31554    0.28937    8.30219
 1029.00000   87.56345   43.85769   17.84702   56.56136    2.31955    0.31454    8.33441
 1029.50000   90.84068   43.74465   17.45462   50.87059    2.21850    0.29790    9.00819
 1030.00000   83.62278   43.75285   17.76163   55.92610    2.29591    0.30451    8.59578
 1030.50000   85.14593   44.13109   17.77251   52.83853    2.26655    0.29281    8.77141
 1031.00000   80.59801   43.68906   17.89306   53.90064    2.26006    0.27726    8.54528
 1031.50000   80.20398   43.35996   18.06343   51.80190    2.29933    0.29365    8.68600
 1032.00000   90.30284   43.95803   17.42530   53.20399    2.23065    0.27795    8.62521
 1032.50000   93.07649   43.64614   17.67890   54.09779    2.23007    0.27665    8.57634
 1033.00000   85.99020   43.68972   17.62528   54.13464    2.30165    0.32246    8.83215
 1033.50000   91.42274   44.13528   17.75846   54.36385    2.29731    0.28992    8.54695
 1034.00000   88.26796   43.61956   17.70601   52.08645    2.28682    0.28347    9.18554
 1034.50000   83.28875   43.68523   17.58354   51.87126    2.25636    0.33063    8.78816
 1035.00000   88.37577   43.21756   17.55704   49.65253    2.30511    0.31455    8.15814
 1035.50000   94.31330   43.47811   17.41311   53.89626    2.30325    0.29079    8.44704
 1036.00000   86.49817   43.69966   17.82516   55.02358    2.28544    0.30675    8.61912
 1036.50000   94.55458   43.02300   17.71062   56.09982    2.24760    0.29346    8.51335
 1037.00000   73.68656   43.52270   17.79352   53.48728    2.27020    0.28430    8.70606
 1037.50000   90.94860   43.46552   17.53909   51.35310    2.30814    0.30762    8.73911
 1038.00000   87.32799   43.42053   17.46100   49.50104    2.32286    0.29161    8.09212
 1038.50000   85.45125   43.69217   17.36791   54.98778    2.27328    0.29958    8.88432
 1039.00000   87.45849   43.45425   17.64657   49.32116    2.27563    0.31848    8.35095
 1039.50000   77.11511   43.77026   17.35804   52.24181    2.27831    0.31625    8.32123
 1040.00000   86.00773   43.00169   17.92695   52.48375    2.29145    0.28700    8.32026
 1040.50000   88.94465   43.31349   17.28691   52.80284    2.26581    0.30770    8.74257
 1041.00000   94.60142   43.27101   17.59440   53.02280    2.19645    0.27539    8.41988
 1041.50000   84.67332   42.89788   17.84427   53.23697    2.31910    0.30693    8.30093
 1042.00000   83.27480   43.47854   17.64196   48.13947    2.33720    0.30087    8.37281
 1042.50000   84.86094   43.86207   17.54851   53.00908    2.26503    0.30545    7.96159
 1043.00000   91.99905   43.13259   17.31093   48.53023    2.25144    0.29190    8.24735
 1043.50000   89.11798   43.26225   17.21952   54.46347    2.27937    0.33951    8.12812
 1044.00000   84.87746   43.10916   17.64114   51.89848    2.27789    0.27977    8.41925
 1044.50000   90.14450   42.84281   17.77962   48.70440    2.31343    0.31721    8.69926
