~Version ---------------------------------------------------
VERS.   2.0 : CWLS log ASCII Standard -VERSION 2.0
WRAP.    NO : One line per depth step
DLM . SPACE : Column Data Section Delimiter
~Well ------------------------------------------------------
STRT.m           1000.00000 : START DEPTH
STOP.m           3499.50000 : STOP DEPTH
STEP.m              0.50000 : STEP
NULL.               -999.25 : NULL VALUE
COMP.                       : COMPANY
WELL.               GEOSX-1 : WELL
FLD .           GEOX-ARIFOS : FIELD
LOC . Kuala Lumpur Malaysia : LOCATION
PROV.                       : PROVINCE
CNTY.                       : COUNTY
STAT.                       : STATE
CTRY.                       : COUNTRY
SRVC.    GEOX Earth Physics : SERVICE COMPANY
DATE.            2026-04-02 : DATE
UWI .                       : UNIQUE WELL ID
API .                       : API NUMBER
~Curve Information -----------------------------------------
DEPT.m      : Measured Depth
GR  .gAPI   : Gamma Ray
RD  .ohm.m  : Deep Resistivity
RS  .ohm.m  : Shallow Resistivity
DT  .us/ft  : Sonic Transit Time
RHOB.g/cm3  : Bulk Density
PHIN.v/v    : Neutron Porosity
CALI.in     : Caliper
~Params ----------------------------------------------------
~Other -----------------------------------------------------
~ASCII -----------------------------------------------------
# ...
 1675.00000   49.44145   20.41181    9.03594   61.80333    2.33579    0.28084    8.07448
 1675.50000   46.29357   19.25419    9.40724   64.08887    2.27961    0.26809    8.12453
 1676.00000   58.02247   19.14723    9.60575   67.75267    2.32128    0.27023    8.73309
 1676.50000   59.12283   19.76149    9.56420   62.82136    2.34346    0.25852    9.22475
 1677.00000   52.45661   18.90580    9.43249   65.83717    2.34954    0.24510    8.76295
 1677.50000   42.39629   19.44615    9.56545   66.77950    2.35187    0.26921    9.05926
 1678.00000   52.63283   20.14829    9.28700   65.22171    2.34616    0.29025    8.36969
 1678.50000   57.33584   19.02887    9.39731   65.48463    2.35169    0.27495    8.30888
 1679.00000   47.99526   18.88558    9.13089   67.40064    2.33569    0.24970    8.63696
 1679.50000   56.31982   19.01825    9.32087   68.86575    2.30292    0.28232    8.78609
 1680.00000   55.33990   19.72535    9.52369   64.91989    2.27885    0.25930    8.10653
 1680.50000   58.32655   19.78111    9.13528   65.67627    2.31804    0.28027    8.43603
 1681.00000   56.04185   19.27776    9.07625   65.35341    2.33044    0.25857    8.49189
 1681.50000   50.59268   19.62436    9.26341   61.96268    2.37214    0.27299    8.29634
 1682.00000   61.45518   19.82434    9.19396   67.07833    2.33154    0.25553    8.33133
 1682.50000   54.69418   19.93134    9.36450   68.65377    2.32870    0.25601    8.75292
 1683.00000   55.36504   19.30911    9.13940   68.80700    2.34621    0.23452    8.64091
 1683.50000   50.85016   18.68046    9.56913   65.02151    2.32658    0.27607    8.73954
 1684.00000   53.31525   19.11254    8.96290   64.24895    2.35904    0.27320    8.60106
 1684.50000   51.12303   19.21866    9.46697   66.78481    2.39414    0.27430    8.23802
 1685.00000   54.69791   19.25694    9.05864   68.38936    2.40052    0.27126    8.62693
 1685.50000   64.13699   19.26618    8.84781   67.02968    2.33775    0.25048    8.21437
 1686.00000   48.73497   19.64613    9.24998   67.28771    2.34499    0.28502    8.40647
 1686.50000   47.54290   19.68073    9.14689   68.98185    2.38229    0.28553    8.18913
 1687.00000   62.98302   19.23484    8.97129   65.20896    2.33046    0.24989    8.31673
 1687.50000   54.59722   19.60384    8.85234   66.23629    2.35538    0.27627    8.52714
 1688.00000   52.31536   19.36955    9.18235   69.93441    2.30099    0.28310    8.36275
 1688.50000   60.87735   19.26957    9.37460   66.26049    2.32575    0.25617    8.23505
 1689.00000   52.66707   19.51015    9.29183   64.10832    2.36980    0.25963    8.84134
 1689.50000   64.84272   19.24784    9.18160   65.29311    2.31361    0.27621    8.46412
 1690.00000   59.12005   19.83150    9.26144   64.74426    2.33136    0.23529    8.34162
 1690.50000   53.30882   18.77063    9.15565   67.32370    2.28801    0.24370    8.17528
 1691.00000   66.55309   19.03560    8.87057   64.80619    2.39545    0.24565    7.93840
 1691.50000   52.75637   19.14021    8.86775   67.12882    2.37321    0.22950    8.43339
 1692.00000   59.51402   19.29801    9.10672   65.10325    2.34100    0.28710    8.08653
 1692.50000   57.31882   19.53459    9.11065   62.31721    2.35063    0.22561    8.71361
 1693.00000   62.35009   19.13492    9.30841   67.16575    2.34732    0.27221    8.50885
 1693.50000   63.66818   18.70361    9.28511   66.83795    2.37701    0.28156    8.96751
 1694.00000   56.04009   19.37108    9.25011   67.56500    2.31996    0.25943    8.56692
 1694.50000   52.13265   19.33287    9.06846   65.17193    2.35753    0.25191    8.28200
 1695.00000   58.21948   18.51188    8.84383   64.94720    2.36792    0.26991    7.93600
 1695.50000   52.55113   19.08137    9.19781   67.29757    2.37210    0.26526    8.74196
 1696.00000   66.02694   18.59354    9.21588   69.52097    2.26790    0.28527    8.11032
 1696.50000   56.66319   18.85928    8.62858   66.49353    2.31774    0.21260    8.37756
 1697.00000   54.17463   18.77592    8.93487   67.30859    2.30518    0.24678    9.00223
 1697.50000   56.94558   19.27764    8.95897   65.80442    2.34029    0.27636    8.68330
 1698.00000   49.30769   19.05802    9.11631   63.34848    2.27536    0.26611    8.61696
 1698.50000   51.20661   18.62541    8.92742   68.35870    2.27451    0.28012    8.78330
 1699.00000   62.08831   19.26323    9.07592   68.22873    2.40102    0.27029    8.77211
 1699.50000   52.82355   18.55719    9.03690   67.82147    2.35449    0.26233    8.97428
 1700.00000   50.89545   19.07451    9.04264   66.02401    2.33963    0.25895    8.31935
 1700.50000   58.83547   18.71941    8.92666   67.56995    2.34695    0.31148    8.38699
 1701.00000   62.10313   18.84206    8.93760   68.15126    2.34047    0.29565    8.22328
 1701.50000   59.79199   19.09121    8.84482   69.59191    2.36604    0.27484    8.49019
 1702.00000   61.20029   19.08453    9.13235   68.31647    2.31719    0.26647    8.46033
 1702.50000   52.45911   19.31736    9.16603   66.45484    2.34180    0.27564    7.97351
 1703.00000   49.15727   18.87977    8.89316   63.69843    2.34306    0.28139    8.30383
 1703.50000   63.79644   18.98457    9.34689   66.61396    2.30487    0.27320    8.93173
 1704.00000   54.70003   18.74951    8.97533   66.80346    2.37463    0.24977    8.57326
 1704.50000   55.08313   18.92363    9.33976   67.69599    2.32299    0.30047    8.71462
 1705.00000   63.00234   18.98909    8.90079   68.97329    2.36692    0.26967    8.46384
 1705.50000   59.16679   18.81597    8.61938   66.06275    2.33989    0.30500    7.93387
 1706.00000   58.68957   18.29256    9.10063   70.44254    2.38549    0.26844    8.46141
 1706.50000   67.25983   18.92136    9.06539   62.70945    2.30528    0.25976    8.81251
 1707.00000   53.24213   18.91953    9.01805   67.05414    2.30402    0.29233    8.14429
 1707.50000   61.12403   18.59436    8.87822   64.60580    2.30943    0.27065    8.72411
 1708.00000   56.79520   18.40135    8.99525   62.37575    2.34064    0.26727    7.98945
 1708.50000   57.87861   19.21769    8.89541   65.77396    2.38292    0.24057    8.50606
 1709.00000   64.20372   18.91063    8.93270   63.25043    2.38451    0.27775    8.66336
 1709.50000   59.12648   18.68275    9.15700   65.82916    2.26746    0.25466    8.40637
 1710.00000   59.30491   18.39864    9.02102   66.20875    2.34429    0.25554    9.24174
 1710.50000   62.00230   18.48150    9.10168   68.36345    2.24045    0.25466    8.35204
 1711.00000   54.84154   19.10712    8.92883   63.09832    2.36073    0.27323    8.32648
 1711.50000   52.49700   18.74595    8.90231   67.91746    2.37047    0.23372    8.56135
 1712.00000   51.49595   18.52779    8.73553   66.28377    2.33575    0.26018    8.27351
 1712.50000   46.91536   18.83419    8.88774   68.13231    2.33952    0.28398    8.06760
 1713.00000   67.05553   18.42529    8.29304   65.19808    2.33925    0.23944    8.17070
 1713.50000   51.28601   19.10820    8.83474   63.38402    2.31355    0.26778    8.72740
 1714.00000   55.72354   19.05213    8.93194   63.60040    2.35007    0.25167    8.40852
 1714.50000   55.47370   18.49467    9.05658   63.43864    2.33022    0.25620    9.01061
 1715.00000   58.42296   18.43440    8.88563   66.96470    2.36511    0.29735    8.36763
 1715.50000   60.99297   17.82592    9.00444   68.94969    2.33383    0.23122    8.71315
 1716.00000   61.24521   18.15526    8.49448   64.85269    2.31145    0.27951    8.65325
 1716.50000   54.05622   18.18627    8.91460   67.22756    2.29124    0.25462    8.36315
 1717.00000   56.16496   18.61705    8.58561   62.90908    2.28144    0.25360    8.23636
 1717.50000   58.44263   18.46702    8.67539   66.30323    2.37678    0.24189    7.98046
 1718.00000   55.81564   18.14969    8.87516   67.26630    2.32371    0.27918    8.66594
 1718.50000   65.12539   18.45735    9.16339   63.01948    2.34764    0.26025    8.85948
 1719.00000   59.57330   18.68171    8.97793   65.49449    2.39102    0.25770    8.02302
 1719.50000   60.82277   18.67689    8.90288   67.32057    2.32068    0.26622    8.38887
