~Version ---------------------------------------------------
VERS.   2.0 : CWLS log ASCII Standard -VERSION 2.0
WRAP.    NO : One line per depth step
DLM . SPACE : Column Data Section Delimiter
~Well ------------------------------------------------------
STRT.m           1000.00000 : START DEPTH
STOP.m           3499.50000 : STOP DEPTH
STEP.m              0.50000 : STEP
NULL.               -999.25 : NULL VALUE
COMP.                       : COMPANY
WELL.               GEOSX-1 : WELL
FLD .           GEOX-ARIFOS : FIELD
LOC . Kuala Lumpur Malaysia : LOCATION
PROV.                       : PROVINCE
CNTY.                       : COUNTY
STAT.                       : STATE
CTRY.                       : COUNTRY
SRVC.    GEOX Earth Physics : SERVICE COMPANY
DATE.            2026-04-02 : DATE
UWI .                       : UNIQUE WELL ID
API .                       : API NUMBER
~Curve Information -----------------------------------------
DEPT.m      : Measured Depth
GR  .gAPI   : Gamma Ray
RD  .ohm.m  : Deep Resistivity
RS  .ohm.m  : Shallow Resistivity
DT  .us/ft  : Sonic Transit Time
RHOB.g/cm3  : Bulk Density
PHIN.v/v    : Neutron Porosity
CALI.in     : Caliper
~Params ----------------------------------------------------
~Other -----------------------------------------------------
~ASCII -----------------------------------------------------
# ...
 3295.00000   72.42165    2.84713    1.57417   54.54299    2.45863    0.16881    8.72916
 3295.50000   76.40414    2.48900    1.70829   52.51275    2.46532    0.15717    8.42651
 3296.00000   78.08522    2.95663    2.08393   57.54944    2.41080    0.21556    8.59781
 3296.50000   64.43177    2.92025    1.85096   55.40559    2.45966    0.18071    8.50226
 3297.00000   75.18240    2.60863    1.46172   52.84144    2.45244    0.11660    8.66217
 3297.50000   75.94675    2.44065    1.47729   52.38875    2.46317    0.19306    8.51400
 3298.00000   73.70192    2.28263    1.86819   54.97660    2.49490    0.19262    8.30595
 3298.50000   81.47934    2.56160    2.00733   54.43643    2.52545    0.14774    8.22454
 3299.00000   77.06521    2.74219    1.51041   55.99810    2.48427    0.16840    8.56307
 3299.50000   81.44060    2.47240    1.92296   55.41372    2.42693    0.16750    8.88201
 3300.00000   73.74317    1.90880    2.09817   53.77676    2.45364    0.17015    8.43126
 3300.50000   79.44370    2.94706    2.20876   53.20408    2.48192    0.20923    8.28974
 3301.00000   82.86498    2.62191    1.89652   53.95781    2.47858    0.18197    8.42315
 3301.50000   81.18146    2.44935    1.93072   53.16237    2.49374    0.17638    8.33158
 3302.00000   69.09563    2.81879    1.40181   53.98942    2.46124    0.20735    8.29991
 3302.50000   73.22131    3.01743    2.24748   54.26881    2.45329    0.19478    8.06692
 3303.00000   72.69723    1.71787    1.71152   52.42621    2.51681    0.15003    8.42668
 3303.50000   76.80269    2.68712    1.63901   55.46962    2.46604    0.17249    8.57073
 3304.00000   77.72156    2.12725    1.77375   53.45362    2.43382    0.19124    8.17543
 3304.50000   70.02870    2.70338    2.12621   52.49697    2.50861    0.16610    8.23650
 3305.00000   74.49575    2.59043    2.26458   53.46382    2.41952    0.22534    8.21558
 3305.50000   63.99032    2.74117    1.84714   54.63788    2.35959    0.18698    8.08400
 3306.00000   81.23309    2.39909    2.02076   54.30581    2.48756    0.16963    8.21332
 3306.50000   71.39491    1.98530    1.82887   54.97037    2.49184    0.16222    8.44064
 3307.00000   74.16953    2.41057    1.61177   55.90927    2.47698    0.20320    8.09738
 3307.50000   72.27540    2.66614    2.11376   56.70893    2.42553    0.17167    8.45874
 3308.00000   79.48724    2.84712    1.69308   54.65654    2.46287    0.19220    8.28896
 3308.50000   59.50304    2.18936    2.12370   51.93331    2.45633    0.16154    8.22131
 3309.00000   73.54101    2.84744    2.07540   53.52048    2.44860    0.18595    8.61316
 3309.50000   73.02846    2.34337    1.93759   52.03669    2.50712    0.17181    8.30796
 3310.00000   71.22289    2.64488    2.17967   57.42570    2.43340    0.17819    8.35900
 3310.50000   82.05574    2.38160    2.25944   57.99349    2.47432    0.16855    8.88940
 3311.00000   68.92151    2.58763    1.77701   55.30605    2.50070    0.20496    8.22398
 3311.50000   77.15070    2.79896    1.64940   55.70912    2.47636    0.17460    8.96976
 3312.00000   75.00657    2.16171    1.43740   54.48090    2.50219    0.18153    8.39566
 3312.50000   79.46651    2.32427    2.25828   54.69798    2.48191    0.18247    8.15916
 3313.00000   69.75660    2.58215    1.72050   50.75784    2.47792    0.21660    8.33382
 3313.50000   69.36135    3.24555    2.03454   53.79181    2.47609    0.20213    8.52063
 3314.00000   78.44021    2.26454    1.65838   52.16434    2.48352    0.20011    8.87635
 3314.50000   75.02016    3.13396    2.11338   54.47636    2.45359    0.15272    8.73965
 3315.00000   65.10258    3.12168    1.66480   53.78146    2.42614    0.17112    8.51917
 3315.50000   70.06448    2.48958    1.56558   57.78140    2.49386    0.20800    8.87799
 3316.00000   74.62669    2.42775    1.76132   55.70813    2.50013    0.16078    7.93569
 3316.50000   76.81738    2.30801    1.69577   54.43105    2.47288    0.18586    8.57483
 3317.00000   69.16623    2.49359    1.92048   53.31534    2.44891    0.16284    8.59298
 3317.50000   57.92494    2.09047    1.79004   57.18849    2.41867    0.16483    8.59664
 3318.00000   75.04621    2.48804    1.92496   53.76381    2.46801    0.21772    8.01695
 3318.50000   66.26239    2.95841    1.74032   54.47438    2.42501    0.19846    8.19493
 3319.00000   62.21123    2.32445    1.66460   53.88287    2.42085    0.20371    8.45006
 3319.50000   58.07026    2.43399    1.68001   52.97745    2.46494    0.19970    8.83444
 3320.00000   76.23578    1.99430    2.20481   53.84620    2.44269    0.18121    9.07458
 3320.50000   72.74299    2.61530    1.83996   49.83671    2.47600    0.17014    8.30067
 3321.00000   70.90567    2.58086    1.39728   50.65274    2.46090    0.17591    8.10705
 3321.50000   78.91316    2.51906    1.68909   54.43495    2.44752    0.18009    8.74473
 3322.00000   75.08878    2.43334    1.81161   56.85967    2.41461    0.21943    9.28431
 3322.50000   79.91782    2.40900    2.16042   54.40733    2.44021    0.15715    8.83208
 3323.00000   64.80683    2.64584    1.99619   52.25781    2.44136    0.17278    8.27541
 3323.50000   71.53198    2.48507    1.60521   50.80054    2.42912    0.16557    9.35834
 3324.00000   63.55543    2.58665    2.27233   55.24304    2.45605    0.20493    8.70604
 3324.50000   70.42638    2.55509    1.78153   52.52737    2.43154    0.22085    8.26270
 3325.00000   70.26455    2.82607    2.03614   54.93605    2.46109    0.18993    9.08029
 3325.50000   74.57508    2.69058    1.55497   54.41716    2.47325    0.19155    8.23900
 3326.00000   71.60425    2.54379    1.30545   54.58193    2.44129    0.18553    8.31367
 3326.50000   74.42792    2.93990    1.50250   53.68047    2.47888    0.19242    8.71799
 3327.00000   74.76258    2.60891    1.13323   54.36853    2.42532    0.19911    8.49253
 3327.50000   81.95457    2.87276    2.20483   53.35035    2.43283    0.19214    8.51110
 3328.00000   69.53802    2.66181    1.82442   52.30670    2.46284    0.19358    8.51161
 3328.50000   66.34402    1.92560    1.59570   51.63841    2.48689    0.19908    8.83434
 3329.00000   72.21422    2.86808    1.87026   48.78353    2.49234    0.14798    7.80268
 3329.50000   66.90711    2.51563    1.81671   53.17950    2.51473    0.18357    8.58535
 3330.00000   78.26308    2.45795    1.90214   56.56870    2.45510    0.18960    8.41294
 3330.50000   69.37199    2.55639    2.01897   54.97836    2.46261    0.19180    8.27425
 3331.00000   67.89505    2.36695    1.71820   53.96191    2.43550    0.18003    8.27346
 3331.50000   68.30125    2.53701    1.59932   52.02682    2.42891    0.18664    7.70887
 3332.00000   74.18486    2.28979    1.93996   55.47789    2.47342    0.16900    8.26047
 3332.50000   69.73904    2.84810    1.93398   53.23301    2.44332    0.14788    8.88714
 3333.00000   67.25449    2.43020    1.79278   56.60996    2.50361    0.20301    8.74962
 3333.50000   78.72468    2.34796    2.20726   51.48642    2.42281    0.16064    8.44259
 3334.00000   66.05221    2.18372    1.68330   51.93720    2.48131    0.18009    8.07662
 3334.50000   70.44609    2.54029    1.59000   51.73118    2.43659    0.16829    8.74656
 3335.00000   73.46505    2.51425    1.85271   50.45011    2.44219    0.21499    8.89295
 3335.50000   61.98215    2.57311    1.63322   51.52892    2.48301    0.18163    8.81026
 3336.00000   72.47548    2.14687    1.86642   53.59815    2.44660    0.17699    8.20938
 3336.50000   64.73406    1.97316    1.59984   51.95606    2.45145    0.19813    8.24054
 3337.00000   74.05898    2.63966    1.68551   45.65650    2.44260    0.22628    8.99677
 3337.50000   65.06734    2.89584    2.14284   55.50663    2.52055    0.19124    8.13722
 3338.00000   73.28002    2.14101    1.68267   49.97877    2.44852    0.17555    8.64346
 3338.50000   75.28098    2.92422    1.60314   54.51433    2.46863    0.19701    7.96668
 3339.00000   73.99470    2.53103    1.99616   53.38726    2.46106    0.15160    8.40991
 3339.50000   70.87986    2.44221    1.55094   57.54857    2.47380    0.18395    8.67555
