~Version ---------------------------------------------------
VERS.   2.0 : CWLS log ASCII Standard -VERSION 2.0
WRAP.    NO : One line per depth step
DLM . SPACE : Column Data Section Delimiter
~Well ------------------------------------------------------
STRT.m           1000.00000 : START DEPTH
STOP.m           3499.50000 : STOP DEPTH
STEP.m              0.50000 : STEP
NULL.               -999.25 : NULL VALUE
COMP.                       : COMPANY
WELL.               GEOSX-1 : WELL
FLD .           GEOX-ARIFOS : FIELD
LOC . Kuala Lumpur Malaysia : LOCATION
PROV.                       : PROVINCE
CNTY.                       : COUNTY
STAT.                       : STATE
CTRY.                       : COUNTRY
SRVC.    GEOX Earth Physics : SERVICE COMPANY
DATE.            2026-04-02 : DATE
UWI .                       : UNIQUE WELL ID
API .                       : API NUMBER
~Curve Information -----------------------------------------
DEPT.m      : Measured Depth
GR  .gAPI   : Gamma Ray
RD  .ohm.m  : Deep Resistivity
RS  .ohm.m  : Shallow Resistivity
DT  .us/ft  : Sonic Transit Time
RHOB.g/cm3  : Bulk Density
PHIN.v/v    : Neutron Porosity
CALI.in     : Caliper
~Params ----------------------------------------------------
~Other -----------------------------------------------------
~ASCII -----------------------------------------------------
# ...
 2485.00000   50.29881    7.59203    4.10163   59.10404    2.40497    0.20005    7.71415
 2485.50000   59.47343    7.30177    4.30346   56.96086    2.43110    0.24502    8.47573
 2486.00000   52.93172    6.90749    4.08924   59.76549    2.39979    0.21973    8.65531
 2486.50000   69.66654    6.94630    4.17915   61.91252    2.43226    0.20124    8.85331
 2487.00000   64.24400    7.11902    4.36007   58.65494    2.44118    0.26977    9.02706
 2487.50000   60.17316    7.18689    4.28685   59.23219    2.41647    0.20456    8.69528
 2488.00000   65.92029    6.78983    4.28385   63.02792    2.37660    0.24319    8.78007
 2488.50000   55.32772    7.29867    3.89475   56.63637    2.39516    0.21019    8.11463
 2489.00000   62.23441    7.10299    4.22748   61.41389    2.43629    0.22827    8.98655
 2489.50000   60.47395    6.55820    3.94476   61.19299    2.35423    0.20748    8.88021
 2490.00000   60.75306    6.78981    3.86212   60.77977    2.38744    0.20071    8.38987
 2490.50000   65.75296    6.91284    4.10200   61.67450    2.38895    0.23592    8.70450
 2491.00000   63.01206    7.03780    3.93343   59.67203    2.37332    0.23356    8.67432
 2491.50000   60.75179    7.62203    4.27035   57.96490    2.42551    0.24832    8.94106
 2492.00000   50.99249    7.12229    4.27308   61.33979    2.41066    0.22471    8.45467
 2492.50000   54.42562    6.79421    3.72759   61.43621    2.37807    0.26978    8.27613
 2493.00000   58.57141    7.10822    3.94040   61.40105    2.41761    0.23072    8.35300
 2493.50000   59.61110    6.93201    3.81205   59.29933    2.39473    0.23666    8.76904
 2494.00000   53.45267    7.13067    4.00943   57.79784    2.37281    0.19813    7.92404
 2494.50000   71.12171    7.20301    4.19095   59.63286    2.37817    0.21299    7.60088
 2495.00000   66.60510    7.38722    4.04940   61.15451    2.41268    0.23564    8.76827
 2495.50000   61.99371    7.01278    3.97786   61.33867    2.42781    0.22354    8.58244
 2496.00000   59.30347    7.50736    4.35380   58.45054    2.38508    0.22895    8.50554
 2496.50000   57.84258    7.28370    3.63075   59.96057    2.41605    0.20885    8.10834
 2497.00000   54.10455    6.79468    4.33705   56.73220    2.44721    0.22759    7.98703
 2497.50000   59.21225    7.66549    3.97877   61.33959    2.36203    0.22750    8.30964
 2498.00000   60.07449    7.09626    4.06996   57.82301    2.41051    0.20149    8.60851
 2498.50000   52.53798    6.74325    3.97807   60.98008    2.42480    0.23793    8.32427
 2499.00000   60.37891    7.48529    4.39008   57.13091    2.39707    0.19105    8.77003
 2499.50000   57.89316    7.60838    3.83327   61.51230    2.43711    0.22871    8.21378
 2500.00000   49.09202    6.97078    4.07977   60.11310    2.46597    0.26031    8.34420
 2500.50000   54.29092    6.82523    4.18087   57.92667    2.41034    0.23859    8.71096
 2501.00000   56.48678    6.92025    3.75115   60.89206    2.39307    0.23844    8.38693
 2501.50000   67.95540    7.18203    3.88733   58.34858    2.42943    0.20698    8.40180
 2502.00000   61.26206    7.34661    4.03964   61.04838    2.42542    0.26028    8.30695
 2502.50000   51.76440    7.13005    3.88991   59.02102    2.32464    0.25241    8.25132
 2503.00000   60.83469    6.98507    3.90209   56.14712    2.40016    0.20798    8.60625
 2503.50000   50.63088    7.39962    3.99320   57.64436    2.38844    0.21533    8.64511
 2504.00000   63.74392    6.85202    4.19106   58.76834    2.41222    0.24989    8.56814
 2504.50000   55.93810    7.25081    3.99057   62.38553    2.39455    0.26070    8.31514
 2505.00000   57.78898    6.85077    4.27277   61.47142    2.39784    0.19946    8.43955
 2505.50000   64.84978    7.06217    3.85551   62.93684    2.37454    0.20465    8.97878
 2506.00000   51.74879    6.89446    3.80265   63.01637    2.42252    0.22182    8.07367
 2506.50000   51.16302    6.90744    4.43627   58.65959    2.45017    0.18125    9.06577
 2507.00000   55.19480    6.80666    3.91739   59.37210    2.37513    0.22503    8.52992
 2507.50000   63.26906    7.31900    3.78477   58.94651    2.35869    0.24834    8.44596
 2508.00000   50.44500    6.69135    3.69652   58.44604    2.40124    0.19583    8.78601
 2508.50000   43.84571    6.68484    4.25793   56.12606    2.39982    0.22712    7.87982
 2509.00000   55.71563    7.53889    3.97263   59.79955    2.43585    0.21291    8.91410
 2509.50000   60.69526    7.19163    3.98813   57.27791    2.36388    0.25732    9.05732
 2510.00000   63.90318    6.17844    4.00501   59.80070    2.38466    0.21310    8.82639
 2510.50000   55.55158    6.72009    4.23742   64.12058    2.33641    0.25485    7.86931
 2511.00000   55.77595    6.34176    3.99691   58.89035    2.44213    0.21250    8.72925
 2511.50000   63.56848    6.59585    4.49961   60.31858    2.40844    0.23985    8.99380
 2512.00000   48.41635    5.93520    4.05554   61.76233    2.38706    0.22944    8.96282
 2512.50000   55.78873    6.83136    4.23913   60.52962    2.36133    0.22161    8.07757
 2513.00000   58.64992    6.52558    4.18581   60.57400    2.36413    0.20854    8.80491
 2513.50000   59.91055    6.88185    4.01546   59.28423    2.41351    0.23079    9.03867
 2514.00000   55.08227    6.37205    3.90334   59.56528    2.36790    0.21549    8.50884
 2514.50000   57.77055    6.88017    4.08512   58.12901    2.40428    0.21048    8.06419
 2515.00000   45.12395    6.72654    4.11874   61.76112    2.46249    0.25370    8.74860
 2515.50000   54.24177    7.29732    3.90019   56.60605    2.39081    0.23518    8.81616
 2516.00000   59.76818    7.26587    4.04597   62.05121    2.37244    0.23707    8.45824
 2516.50000   52.55699    7.07379    4.25794   57.32163    2.41278    0.21634    8.14278
 2517.00000   57.73139    6.73593    4.42268   62.07424    2.36459    0.22043    8.79456
 2517.50000   59.63904    7.42526    4.17756   59.46139    2.45300    0.21915    8.26936
 2518.00000   55.66034    6.35946    4.37724   57.72528    2.44355    0.23084    8.61920
 2518.50000   58.19400    6.40004    3.87681   61.36761    2.39655    0.23691    8.96745
 2519.00000   52.49681    6.79171    4.14106   62.08654    2.37460    0.22344    8.00236
 2519.50000   56.24641    7.48880    4.26639   59.37284    2.38879    0.20817    8.77233
 2520.00000   60.29974    6.74763    3.81742   61.71021    2.39273    0.23921    8.43803
 2520.50000   58.00291    6.74910    3.89757   55.71880    2.41315    0.22464    8.44580
 2521.00000   54.25497    6.36725    4.34027   57.66777    2.43287    0.19513    8.65429
 2521.50000   58.27849    7.07936    3.79567   62.91376    2.37062    0.18122    8.26858
 2522.00000   60.70044    7.07729    3.72047   59.90159    2.43209    0.22986    8.14749
 2522.50000   46.84787    7.02381    4.29230   56.64448    2.42033    0.20729    7.96474
 2523.00000   62.86332    6.59408    4.22406   58.99115    2.38661    0.23247    8.86953
 2523.50000   55.35725    6.56660    4.06914   58.56206    2.36928    0.20831    8.38850
 2524.00000   59.13675    6.38644    3.97159   60.09691    2.40541    0.22646    8.67098
 2524.50000   62.96652    6.79530    3.89103   59.70730    2.37017    0.21621    8.35449
 2525.00000   50.09309    6.44179    4.03314   60.82663    2.43271    0.25879    8.15147
 2525.50000   53.37563    6.40846    4.29072   60.34980    2.36832    0.24273    8.69569
 2526.00000   55.45167    6.63035    4.02049   63.22817    2.41851    0.25065    8.59839
 2526.50000   52.94743    6.60649    4.40418   61.37775    2.39970    0.22416    8.42893
 2527.00000   65.51286    6.58763    3.78922   61.46395    2.38534    0.24010    8.59057
 2527.50000   52.52650    6.88474    3.96289   62.89887    2.39912    0.22546    8.21185
 2528.00000   54.00501    6.76430    3.89023   59.81097    2.43464    0.25299    8.81818
 2528.50000   57.77727    6.64993    3.74583   58.08469    2.36651    0.22212    8.88772
 2529.00000   50.71737    6.78707    3.93026   63.04233    2.38996    0.19560    8.72779
 2529.50000   54.72271    6.43050    4.04236   60.92001    2.37981    0.18355    8.38840
