~Version ---------------------------------------------------
VERS.   2.0 : CWLS log ASCII Standard -VERSION 2.0
WRAP.    NO : One line per depth step
DLM . SPACE : Column Data Section Delimiter
~Well ------------------------------------------------------
STRT.m           1000.00000 : START DEPTH
STOP.m           3499.50000 : STOP DEPTH
STEP.m              0.50000 : STEP
NULL.               -999.25 : NULL VALUE
COMP.                       : COMPANY
WELL.               GEOSX-1 : WELL
FLD .           GEOX-ARIFOS : FIELD
LOC . Kuala Lumpur Malaysia : LOCATION
PROV.                       : PROVINCE
CNTY.                       : COUNTY
STAT.                       : STATE
CTRY.                       : COUNTRY
SRVC.    GEOX Earth Physics : SERVICE COMPANY
DATE.            2026-04-02 : DATE
UWI .                       : UNIQUE WELL ID
API .                       : API NUMBER
~Curve Information -----------------------------------------
DEPT.m      : Measured Depth
GR  .gAPI   : Gamma Ray
RD  .ohm.m  : Deep Resistivity
RS  .ohm.m  : Shallow Resistivity
DT  .us/ft  : Sonic Transit Time
RHOB.g/cm3  : Bulk Density
PHIN.v/v    : Neutron Porosity
CALI.in     : Caliper
~Params ----------------------------------------------------
~Other -----------------------------------------------------
~ASCII -----------------------------------------------------
# ...
 2980.00000   88.35369    3.96921    2.38956   65.40911    2.44601    0.19004    8.19923
 2980.50000  101.49901    3.78683    2.59381   62.95968    2.43816    0.23964    8.41758
 2981.00000   92.32812    3.90333    2.60401   65.06159    2.41167    0.19034    8.95563
 2981.50000   95.96036    3.75536    2.53549   62.38216    2.43203    0.19317    8.44410
 2982.00000   89.10942    4.02164    2.55374   67.22012    2.42320    0.23322    8.96982
 2982.50000   94.00033    3.35561    2.48198   67.24651    2.45576    0.21241    8.63033
 2983.00000   93.77431    3.70775    2.71467   67.26783    2.41314    0.22057    8.82501
 2983.50000   82.80433    3.90333    2.66147   65.74318    2.45562    0.18270    8.61615
 2984.00000  102.36258    3.97208    2.31635   63.91161    2.41355    0.19020    8.61377
 2984.50000   98.77286    4.25748    2.30960   64.05654    2.43089    0.17998    8.72581
 2985.00000   90.36691    3.68990    2.45958   68.70341    2.45728    0.21678    8.32999
 2985.50000   86.87458    4.24868    2.65657   68.50022    2.41773    0.22523    8.33329
 2986.00000   94.15660    3.60475    2.53756   65.85975    2.45840    0.18870    8.60486
 2986.50000   92.88494    4.19867    2.37806   64.56911    2.45551    0.19339    9.08233
 2987.00000   94.26226    4.04295    2.55775   68.32332    2.43083    0.19424    8.03777
 2987.50000   93.47408    3.52130    2.43803   64.18274    2.47385    0.16968    7.89124
 2988.00000   95.07948    3.88507    2.67903   66.01507    2.44137    0.18712    8.42088
 2988.50000   99.81669    3.77522    2.56830   68.24688    2.47215    0.21604    8.80925
 2989.00000   95.45236    3.97590    2.43738   63.85585    2.49292    0.18304    8.51541
 2989.50000   87.39506    3.71888    2.54549   67.17250    2.43192    0.20238    8.14920
 2990.00000   99.48745    3.69132    2.76095   66.54067    2.45855    0.17434    8.52373
 2990.50000  100.90881    4.19186    2.38276   65.40597    2.42011    0.19759    7.98011
 2991.00000  108.49693    3.74915    2.57597   63.48356    2.40830    0.18918    8.68868
 2991.50000   87.14988    4.02433    2.48010   64.00694    2.43346    0.17599    8.40727
 2992.00000   94.01227    3.70644    2.57834   66.02008    2.39848    0.21621    8.47539
 2992.50000   82.41768    4.27169    2.36079   62.57982    2.41127    0.21731    8.62816
 2993.00000   95.62403    3.56583    2.51252   65.67327    2.45718    0.18096    8.56171
 2993.50000   90.14720    3.58273    2.71077   66.47914    2.42407    0.19600    8.33762
 2994.00000  102.53515    4.22198    2.30056   67.35270    2.46084    0.20119    8.81008
 2994.50000   89.07436    3.62878    2.22084   62.57073    2.44854    0.16398    8.73908
 2995.00000   84.53084    4.24024    2.22719   67.98509    2.49513    0.17231    7.96771
 2995.50000   90.64956    4.02512    2.25010   68.72845    2.45537    0.22595    8.43093
 2996.00000   83.15736    3.70883    2.60206   66.14311    2.47311    0.17890    8.17591
 2996.50000   96.81901    3.20889    2.20058   63.23176    2.45178    0.22534    8.11958
 2997.00000   82.76662    3.74473    2.42093   64.63666    2.44910    0.17324    8.66054
 2997.50000   93.26264    3.77868    2.60293   65.18267    2.47474    0.21330    8.37422
 2998.00000   82.75940    4.09601    2.56136   65.80374    2.45990    0.19387    8.45717
 2998.50000   91.57489    4.22004    2.39968   65.29170    2.44618    0.19666    8.29909
 2999.00000  101.42098    3.53567    2.51374   65.79496    2.44609    0.23717    8.61105
 2999.50000   95.03484    3.97918    2.49575   65.03599    2.45611    0.17494    8.70350
 3000.00000   88.94144    3.96611    2.42823   65.73252    2.41986    0.21190    9.15108
 3000.50000   93.12999    4.05618    2.42968   64.26605    2.41863    0.21104    8.44571
 3001.00000   93.40299    3.88143    2.91770   64.49548    2.48284    0.26704    8.06547
 3001.50000   95.70276    3.14674    2.63124   64.00453    2.49605    0.17838    8.34883
 3002.00000   86.53181    3.68054    2.96427   68.97579    2.41229    0.18738    8.75412
 3002.50000   96.35523    3.37812    2.36751   68.05373    2.42013    0.21619    8.26821
 3003.00000   79.89652    3.66172    2.44868   66.22115    2.47452    0.19584    8.05536
 3003.50000   90.29493    4.01418    2.19802   67.74577    2.45629    0.19056    8.27445
 3004.00000   91.02866    3.80940    2.30130   66.67664    2.46061    0.21895    8.33999
 3004.50000   96.66214    4.05996    2.84236   65.42680    2.46726    0.19444    8.17520
 3005.00000   93.63392    3.81574    2.35634   62.03761    2.43318    0.18191    8.56524
 3005.50000   86.51801    3.32139    2.84337   64.50890    2.45034    0.21425    8.47629
 3006.00000   88.64571    2.95232    2.20962   64.34759    2.44805    0.20721    8.73691
 3006.50000   94.58873    3.75090    2.24637   62.73592    2.41477    0.19342    8.36624
 3007.00000   93.22443    3.63976    2.38758   62.01412    2.45001    0.19244    8.66742
 3007.50000   90.74838    3.40854    2.44185   65.95623    2.47773    0.18133    8.35232
 3008.00000   91.26386    3.18913    2.63799   65.60411    2.43062    0.21410    8.16112
 3008.50000   97.17268    3.47658    2.54230   62.60459    2.44526    0.19237    8.33709
 3009.00000   91.12699    3.63634    2.36766   63.43188    2.44692    0.18415    8.01452
 3009.50000   93.29840    3.89215    2.42304   67.23031    2.43222    0.17381    9.03646
 3010.00000  104.61173    3.74667    2.38466   63.13666    2.46111    0.20734    8.54275
 3010.50000   86.66662    4.17019    2.26432   65.21781    2.42044    0.18930    8.26138
 3011.00000   84.54860    3.37479    2.26843   64.48079    2.48086    0.15920    8.38671
 3011.50000   97.74833    3.94748    2.65038   65.85717    2.45971    0.17536    7.76486
 3012.00000   90.45953    3.69505    2.07795   63.11629    2.41286    0.19473    8.93031
 3012.50000   92.28370    3.88696    2.76583   64.99272    2.49194    0.19526    8.90096
 3013.00000   89.99105    3.54531    2.37254   65.13400    2.44608    0.19448    8.53226
 3013.50000   92.61956    3.99547    2.28542   65.24090    2.41939    0.19167    8.59584
 3014.00000  101.93277    3.76024    2.58665   64.92263    2.47426    0.16978    8.11970
 3014.50000   97.97203    3.46554    2.73452   65.43762    2.45600    0.18178    8.14151
 3015.00000   98.29361    3.66348    2.65979   69.11583    2.38804    0.22293    7.99081
 3015.50000   86.92224    3.59293    2.53542   69.83875    2.42547    0.21995    8.45168
 3016.00000   88.26829    3.80926    2.65120   63.42155    2.44965    0.21076    8.81831
 3016.50000   79.84913    3.30628    2.08931   60.04730    2.37653    0.20897    8.38504
 3017.00000   90.01787    3.64912    2.32703   65.85855    2.44391    0.21725    8.60431
 3017.50000   98.86833    3.77424    2.24795   65.02380    2.44614    0.17671    8.79365
 3018.00000   96.68938    3.66327    2.67389   66.75709    2.40594    0.19976    8.01277
 3018.50000   93.01670    4.05516    2.35105   65.18847    2.44960    0.17667    9.05367
 3019.00000   94.03217    3.88100    2.59562   64.71956    2.44174    0.17699    8.84720
 3019.50000   90.71843    3.64427    2.53250   66.84379    2.40582    0.20639    8.65417
 3020.00000   95.20564    3.70924    2.25165   67.10714    2.46919    0.21794    8.77723
 3020.50000   98.03000    3.73066    2.30551   61.78002    2.46678    0.19510    8.79132
 3021.00000   86.13973    3.76068    2.68045   62.90347    2.43299    0.23193    8.58779
 3021.50000   95.73574    3.08971    2.26538   64.30901    2.43576    0.20316    8.92848
 3022.00000   98.91780    3.54468    2.44424   64.70056    2.46355    0.18336    8.36420
 3022.50000   92.19804    3.18754    2.26155   64.03517    2.43578    0.17714    8.63854
 3023.00000   97.79474    4.01408    2.35406   65.33898    2.38391    0.21921    8.89649
 3023.50000  108.38199    3.61007    2.40641   66.44618    2.45649    0.20139    7.69264
 3024.00000   93.80427    3.56806    2.25786   67.88276    2.41752    0.21232    8.63139
 3024.50000   96.30958    3.89284    2.22114   65.57851    2.43026    0.14562    8.71738
