~Version ---------------------------------------------------
VERS.   2.0 : CWLS log ASCII Standard -VERSION 2.0
WRAP.    NO : One line per depth step
DLM . SPACE : Column Data Section Delimiter
~Well ------------------------------------------------------
STRT.m           1000.00000 : START DEPTH
STOP.m           3499.50000 : STOP DEPTH
STEP.m              0.50000 : STEP
NULL.               -999.25 : NULL VALUE
COMP.                       : COMPANY
WELL.               GEOSX-1 : WELL
FLD .           GEOX-ARIFOS : FIELD
LOC . Kuala Lumpur Malaysia : LOCATION
PROV.                       : PROVINCE
CNTY.                       : COUNTY
STAT.                       : STATE
CTRY.                       : COUNTRY
SRVC.    GEOX Earth Physics : SERVICE COMPANY
DATE.            2026-04-02 : DATE
UWI .                       : UNIQUE WELL ID
API .                       : API NUMBER
~Curve Information -----------------------------------------
DEPT.m      : Measured Depth
GR  .gAPI   : Gamma Ray
RD  .ohm.m  : Deep Resistivity
RS  .ohm.m  : Shallow Resistivity
DT  .us/ft  : Sonic Transit Time
RHOB.g/cm3  : Bulk Density
PHIN.v/v    : Neutron Porosity
CALI.in     : Caliper
~Params ----------------------------------------------------
~Other -----------------------------------------------------
~ASCII -----------------------------------------------------
# ...
 2800.00000   67.24289    4.68250    2.84249   67.83549    2.39962    0.21380    8.78145
 2800.50000   67.83260    4.56611    3.03025   67.15008    2.39545    0.20907    8.26425
 2801.00000   81.74282    5.56755    3.38097   66.99014    2.44937    0.26033    9.26261
 2801.50000   71.56283    4.91448    3.28564   68.57385    2.43038    0.21246    8.04012
 2802.00000   75.53576    4.96975    3.19635   64.29408    2.47956    0.20232    8.24449
 2802.50000   67.73634    5.12411    3.17222   67.47973    2.45336    0.21190    8.57019
 2803.00000   67.85734    4.35339    3.15147   72.57508    2.40230    0.23025    9.17406
 2803.50000   77.23233    5.30249    3.24183   65.77057    2.44949    0.20883    8.33122
 2804.00000   65.14036    4.02113    2.91724   70.51615    2.41517    0.22349    8.18028
 2804.50000   69.87804    4.54021    2.73605   68.05678    2.46087    0.21770    8.66477
 2805.00000   72.19016    4.63015    3.01936   66.74381    2.40981    0.20394    8.42542
 2805.50000   72.64282    4.93940    2.84054   65.31066    2.39287    0.21194    8.69958
 2806.00000   71.25646    4.82752    2.79156   68.23347    2.40061    0.24168    8.47877
 2806.50000   74.19703    4.70888    2.85700   70.86301    2.40218    0.21454    8.24285
 2807.00000   75.74825    4.75235    3.49662   67.17986    2.39935    0.18993    9.20466
 2807.50000   76.02322    4.45957    3.02528   67.79838    2.40742    0.20323    7.61368
 2808.00000   67.48710    4.30084    3.06894   69.98301    2.45034    0.16732    9.04607
 2808.50000   71.06147    4.96500    2.75059   68.64592    2.47856    0.21232    8.77998
 2809.00000   78.52221    4.95219    2.62481   64.82149    2.38481    0.23579    8.27632
 2809.50000   77.08781    5.21646    2.82826   68.16564    2.46267    0.18270    9.06173
 2810.00000   65.81648    4.50115    3.27821   70.99410    2.41047    0.21249    8.08857
 2810.50000   74.50441    4.94304    3.05593   67.89746    2.43528    0.22918    8.80243
 2811.00000   62.92214    4.64712    3.10730   62.49003    2.37526    0.23127    7.87521
 2811.50000   73.11422    5.08642    3.13380   68.75106    2.44064    0.23502    8.15624
 2812.00000   82.43468    5.03291    2.86633   67.57928    2.36480    0.17203    8.15549
 2812.50000   68.27271    4.78673    3.26070   64.31952    2.43442    0.21947    8.27480
 2813.00000   68.90690    4.61856    2.85505   64.62076    2.43276    0.17924    8.50347
 2813.50000   76.96503    5.00575    3.26137   69.93081    2.43081    0.18936    8.25221
 2814.00000   65.49727    4.90859    3.06710   66.51720    2.40307    0.22572    7.88908
 2814.50000   70.11391    4.50624    2.61934   66.16829    2.44165    0.21244    8.63904
 2815.00000   76.32632    4.31029    2.82606   67.91327    2.43693    0.22378    8.51469
 2815.50000   70.23913    4.61913    2.61718   66.69736    2.41894    0.19064    8.62268
 2816.00000   72.29717    5.15737    3.20534   68.18703    2.44544    0.23867    8.55158
 2816.50000   77.26443    5.04376    2.96625   67.58261    2.42245    0.22294    8.78627
 2817.00000   75.71773    4.36318    2.52404   65.58913    2.44122    0.22694    8.47736
 2817.50000   75.01061    4.34361    3.04338   66.96774    2.42162    0.18752    8.80376
 2818.00000   72.04743    5.07341    2.85931   68.87661    2.43194    0.23253    8.26729
 2818.50000   75.65989    4.34738    2.66850   68.07586    2.44272    0.20275    8.28440
 2819.00000   73.25748    4.83794    3.29937   67.82900    2.41358    0.19683    8.91281
 2819.50000   76.23174    4.49740    2.98375   71.86848    2.38854    0.22153    8.90670
 2820.00000   71.52463    5.16441    2.90213   69.45655    2.43388    0.22066    8.67212
 2820.50000   73.16303    4.44524    2.87945   69.70008    2.46132    0.19204    8.23327
 2821.00000   69.19269    5.01646    2.65520   67.66392    2.43465    0.25008    8.20911
 2821.50000   74.03405    4.72599    2.69547   68.43677    2.43526    0.24521    8.89842
 2822.00000   70.22070    4.74327    3.21188   67.13485    2.42449    0.22100    8.88180
 2822.50000   68.77210    4.07360    2.85865   69.55267    2.44797    0.21748    8.48093
 2823.00000   75.70227    4.00091    2.95636   67.77723    2.42026    0.21545    9.20257
 2823.50000   75.53931    4.59270    2.54161   68.44321    2.41226    0.17783    8.63767
 2824.00000   78.45662    4.73003    2.68538   68.32004    2.45908    0.21106    8.16784
 2824.50000   72.45328    4.31549    3.06949   67.96281    2.41004    0.21077    8.41731
 2825.00000   76.71583    4.32353    3.02159   73.87578    2.45268    0.19723    8.50164
 2825.50000   77.49621    4.81568    3.29525   66.66639    2.45922    0.20254    8.52592
 2826.00000   77.03275    4.81319    3.21170   66.64837    2.44308    0.16107    8.87500
 2826.50000   70.74728    4.60011    2.89549   69.38811    2.38864    0.18673    8.21311
 2827.00000   75.68903    4.87259    3.03475   66.80964    2.42697    0.22709    8.10055
 2827.50000   76.82958    4.28337    2.87537   67.41719    2.42014    0.24325    8.68070
 2828.00000   75.11144    4.52595    3.34819   65.82715    2.41136    0.18973    8.34790
 2828.50000   64.70983    5.12420    3.16556   68.98300    2.43056    0.21223    9.22705
 2829.00000   76.01133    4.64744    2.96823   69.00827    2.44940    0.23052    8.78297
 2829.50000   86.33819    4.66195    2.97290   67.36919    2.41260    0.19812    8.34238
 2830.00000   73.54200    5.31295    3.22033   69.42897    2.42126    0.22202    8.86386
 2830.50000   71.76847    4.19848    3.04581   64.28281    2.41921    0.20780    8.71912
 2831.00000   77.34225    4.85432    3.24015   66.58502    2.46140    0.23226    8.69011
 2831.50000   77.10404    5.11171    2.48823   67.65839    2.41881    0.18278    8.46333
 2832.00000   81.57246    4.51217    3.01774   65.65335    2.38953    0.18631    8.62614
 2832.50000   69.38608    4.86464    2.82095   64.50001    2.37940    0.21397    7.86911
 2833.00000   79.39895    4.30926    3.27385   67.38111    2.43752    0.21027    8.89513
 2833.50000   78.76077    4.39497    3.23039   69.38436    2.40386    0.20720    7.46918
 2834.00000   75.16454    4.71361    2.92622   70.55991    2.44678    0.21982    8.36736
 2834.50000   77.63530    4.83482    3.22532   66.90043    2.38682    0.18966    8.02129
 2835.00000   81.15574    4.92866    3.27336   69.46071    2.41063    0.18086    8.34974
 2835.50000   80.43661    5.06039    2.93016   69.26658    2.38692    0.19822    8.47776
 2836.00000   70.42650    4.56640    3.40821   70.42988    2.43992    0.20043    8.14096
 2836.50000   80.30894    4.94186    2.90610   67.29140    2.44639    0.20250    7.66766
 2837.00000   75.95124    4.47822    2.86800   64.39385    2.43712    0.23353    8.56212
 2837.50000   76.70558    4.84867    3.08263   68.13024    2.39442    0.22353    9.12593
 2838.00000   76.77370    4.63743    2.83724   65.96125    2.40467    0.21876    8.39462
 2838.50000   75.72300    4.70603    2.92361   66.54075    2.43411    0.21251    8.78780
 2839.00000   82.49922    4.69652    3.18698   67.38419    2.37649    0.19937    8.95132
 2839.50000   76.18856    4.08520    2.90748   67.30759    2.41993    0.19095    7.92999
 2840.00000   71.07586    4.22652    2.56318   68.26733    2.47271    0.18406    8.36282
 2840.50000   74.77236    4.59167    2.97420   69.38925    2.42184    0.19408    8.11708
 2841.00000   77.69989    4.05188    2.76003   67.24613    2.38262    0.20709    8.25812
 2841.50000   83.01887    4.80458    3.07089   68.77162    2.40910    0.18483    9.01060
 2842.00000   79.95464    4.81383    3.03563   68.00842    2.40844    0.21129    8.56710
 2842.50000   72.75283    4.64767    3.18922   69.84830    2.49161    0.20399    8.73665
 2843.00000   89.49777    4.21034    3.07500   67.59860    2.47741    0.19990    8.48683
 2843.50000   78.46200    4.95788    3.11010   67.81635    2.44941    0.23106    8.13683
 2844.00000   83.58135    5.15216    2.75678   67.22377    2.41723    0.15859    8.70343
 2844.50000   76.51207    4.58229    3.04996   67.64639    2.46358    0.20010    8.87577
