~Version ---------------------------------------------------
VERS.   2.0 : CWLS log ASCII Standard -VERSION 2.0
WRAP.    NO : One line per depth step
DLM . SPACE : Column Data Section Delimiter
~Well ------------------------------------------------------
STRT.m           1000.00000 : START DEPTH
STOP.m           3499.50000 : STOP DEPTH
STEP.m              0.50000 : STEP
NULL.               -999.25 : NULL VALUE
COMP.                       : COMPANY
WELL.               GEOSX-1 : WELL
FLD .           GEOX-ARIFOS : FIELD
LOC . Kuala Lumpur Malaysia : LOCATION
PROV.                       : PROVINCE
CNTY.                       : COUNTY
STAT.                       : STATE
CTRY.                       : COUNTRY
SRVC.    GEOX Earth Physics : SERVICE COMPANY
DATE.            2026-04-02 : DATE
UWI .                       : UNIQUE WELL ID
API .                       : API NUMBER
~Curve Information -----------------------------------------
DEPT.m      : Measured Depth
GR  .gAPI   : Gamma Ray
RD  .ohm.m  : Deep Resistivity
RS  .ohm.m  : Shallow Resistivity
DT  .us/ft  : Sonic Transit Time
RHOB.g/cm3  : Bulk Density
PHIN.v/v    : Neutron Porosity
CALI.in     : Caliper
~Params ----------------------------------------------------
~Other -----------------------------------------------------
~ASCII -----------------------------------------------------
# ...
 1810.00000   65.98304   15.82425    8.06633   61.69173    2.45314    0.28229    8.36626
 1810.50000   58.28386   16.58524    8.39026   63.32367    2.38080    0.25935    8.46468
 1811.00000   70.13007   16.62673    8.08780   65.55288    2.37288    0.26020    8.48774
 1811.50000   62.25199   16.49505    7.92280   62.19394    2.33433    0.24205    8.85282
 1812.00000   75.01808   16.30012    8.54844   64.50724    2.32621    0.26680    8.95606
 1812.50000   71.11082   15.87132    7.74393   59.96450    2.33660    0.27111    8.69521
 1813.00000   63.53306   16.58793    7.95712   59.92909    2.37748    0.24779    8.88147
 1813.50000   72.23394   16.90221    7.97541   61.83220    2.31536    0.24088    8.75624
 1814.00000   66.22743   16.27799    8.59843   65.65511    2.31307    0.31183    8.64838
 1814.50000   70.21142   16.57703    8.45409   62.89804    2.36135    0.25742    8.93654
 1815.00000   68.43071   15.96429    8.38746   63.32114    2.35478    0.24558    8.10746
 1815.50000   61.83486   16.56163    8.01850   63.27888    2.32213    0.27336    8.29466
 1816.00000   62.90859   16.29619    8.56583   64.92232    2.31254    0.25818    8.25373
 1816.50000   71.33594   16.17522    8.15022   61.46463    2.38846    0.23746    8.40958
 1817.00000   64.57215   16.16559    8.26797   64.04279    2.35607    0.26881    8.70577
 1817.50000   64.28778   16.26537    8.10442   60.98559    2.30449    0.24206    8.16547
 1818.00000   61.59049   16.48795    8.05455   66.59502    2.30663    0.29063    8.65084
 1818.50000   68.54429   15.96934    8.01006   61.00880    2.33463    0.26897    8.32388
 1819.00000   76.79919   16.23363    8.01446   60.82589    2.36751    0.25351    8.39588
 1819.50000   61.20928   16.33011    8.17406   63.67107    2.36341    0.26121    8.56012
 1820.00000   66.72850   16.00263    8.12177   62.71236    2.37955    0.27707    9.00437
 1820.50000   73.72907   16.86113    8.03802   63.18753    2.30093    0.26269    8.28630
 1821.00000   66.33041   16.05589    8.34219   62.96947    2.35240    0.30139    8.47597
 1821.50000   69.05122   16.10091    7.44292   60.31507    2.38850    0.28164    8.17653
 1822.00000   61.53823   15.99807    8.13423   65.70356    2.38574    0.26865    8.28342
 1822.50000   69.05266   16.82092    8.17179   64.24490    2.35657    0.24014    8.17380
 1823.00000   66.03642   16.43708    8.25362   65.15668    2.41628    0.25591    8.57344
 1823.50000   71.96189   15.98006    8.00724   61.36306    2.36416    0.26840    8.62759
 1824.00000   73.03137   16.58275    8.05779   63.23370    2.37720    0.24234    8.70611
 1824.50000   80.10354   16.30094    8.20939   62.77630    2.34729    0.28464    8.27391
 1825.00000   70.11525   16.30776    8.30643   64.61847    2.32257    0.23927    8.65238
 1825.50000   68.90752   16.11710    7.94408   64.66385    2.31978    0.24598    8.53393
 1826.00000   68.31200   15.98548    8.05358   62.71032    2.35153    0.24745    8.48267
 1826.50000   65.63588   16.30151    8.33190   59.26917    2.33977    0.27355    8.12757
 1827.00000   69.15584   16.02653    7.56739   65.84524    2.29310    0.24255    8.54598
 1827.50000   66.04821   16.72497    7.85019   63.37872    2.31543    0.22263    8.55549
 1828.00000   68.42939   15.78904    8.27737   61.03068    2.33669    0.28036    8.53052
 1828.50000   74.23704   16.62057    8.19872   63.04144    2.36810    0.24969    8.62002
 1829.00000   62.67838   16.11624    8.08071   59.18695    2.34584    0.23718    8.70838
 1829.50000   73.47260   16.22927    7.88252   64.30061    2.34420    0.24343    8.17059
 1830.00000   74.42099   16.37940    7.79189   59.22824    2.31679    0.29284    8.43499
 1830.50000   67.30735   15.93030    7.84603   61.70974    2.34713    0.24533    8.65473
 1831.00000   57.35078   16.36858    8.26989   62.62105    2.38605    0.25598    8.41948
 1831.50000   64.98339   15.28698    7.83062   64.19054    2.35119    0.24949    8.78783
 1832.00000   74.56999   15.87319    7.97262   62.30665    2.30134    0.23375    8.52705
 1832.50000   68.03327   15.80191    7.79761   63.34418    2.30905    0.24352    7.91352
 1833.00000   63.21376   15.69303    8.11294   61.99859    2.36430    0.23233    8.75183
 1833.50000   65.74915   15.99456    7.83267   61.97122    2.33995    0.27744    8.46487
 1834.00000   72.53894   16.16474    7.91692   62.18720    2.34448    0.26032    7.96909
 1834.50000   71.13240   16.24978    7.59580   61.61877    2.32838    0.30793    8.42431
 1835.00000   67.26704   16.10122    7.60584   58.60437    2.36190    0.24407    8.11949
 1835.50000   66.69062   15.81924    7.92608   60.42148    2.33781    0.24105    8.72594
 1836.00000   66.62906   16.11964    7.65555   62.42828    2.34128    0.28888    8.48925
 1836.50000   64.03899   16.03622    8.33764   61.42108    2.32138    0.27933    8.22288
 1837.00000   76.79117   16.26976    7.50036   61.58828    2.37461    0.26585    8.74325
 1837.50000   67.16601   16.21203    7.74868   61.23375    2.34037    0.23585    8.63756
 1838.00000   74.92680   15.97811    7.90810   60.13382    2.36528    0.29300    8.42927
 1838.50000   76.51105   15.68981    7.82778   60.85536    2.31127    0.25663    8.12632
 1839.00000   73.95955   15.75313    7.67603   61.20843    2.39914    0.24944    8.24726
 1839.50000   66.87349   15.77411    7.70133   61.81290    2.38548    0.28088    8.24276
 1840.00000   71.11390   15.83451    7.69084   62.56988    2.28991    0.25755    8.72395
 1840.50000   69.03800   15.99956    7.82768   61.40252    2.32318    0.23466    7.99573
 1841.00000   64.70426   16.12375    8.27147   59.68479    2.36161    0.25876    8.48583
 1841.50000   70.90843   15.88392    7.89273   58.92842    2.30773    0.24230    8.42491
 1842.00000   63.45535   15.89416    8.10978   66.89992    2.34341    0.19771    8.81066
 1842.50000   75.35293   15.92238    7.97066   59.42587    2.36020    0.24024    8.56982
 1843.00000   67.15549   15.71470    8.08811   60.62869    2.34190    0.24730    8.66056
 1843.50000   70.54848   15.58194    7.30141   62.68038    2.36365    0.23471    8.34239
 1844.00000   71.02329   15.32301    7.79658   62.34852    2.32672    0.26930    8.13070
 1844.50000   68.37655   15.63120    8.11497   62.64894    2.28023    0.24223    8.40236
 1845.00000   72.66883   15.97179    7.73527   60.70218    2.37706    0.26732    8.73315
 1845.50000   67.42519   15.60908    8.19819   62.04512    2.37691    0.23306    8.73247
 1846.00000   74.22060   15.73873    8.13855   61.67108    2.42279    0.27588    8.37082
 1846.50000   63.19867   15.94012    7.74403   60.90450    2.28150    0.23215    8.24178
 1847.00000   70.62498   15.94653    7.73330   61.99995    2.37028    0.21082    8.18300
 1847.50000   79.75230   15.45660    7.62730   63.60021    2.28874    0.28237    8.45901
 1848.00000   65.12063   16.06971    7.70019   61.42543    2.40053    0.24048    8.54097
 1848.50000   66.79824   16.09895    7.57568   61.41907    2.36252    0.29271    8.94196
 1849.00000   72.82124   15.41194    7.90405   63.56681    2.31936    0.26884    8.53700
 1849.50000   71.21439   15.49390    7.52317   63.33353    2.37137    0.27333    8.68413
 1850.00000   72.13448   16.08855    7.93122   64.55899    2.33141    0.27841    8.26586
 1850.50000   72.89215   15.67733    7.93218   57.85896    2.35705    0.25973    8.51251
 1851.00000   73.68476   15.04563    7.47042   63.16195    2.35426    0.25993    8.54202
 1851.50000   76.12465   15.28185    8.10873   62.53515    2.40045    0.28305    8.45784
 1852.00000   72.69028   15.61713    7.89759   59.54096    2.40261    0.25963    8.49345
 1852.50000   69.49999   15.33322    7.94091   61.79571    2.33028    0.24281    8.53787
 1853.00000   74.13428   15.54831    7.63534   63.37504    2.37998    0.26907    8.64431
 1853.50000   80.33600   15.67226    7.90766   59.59472    2.35893    0.21505    8.85074
 1854.00000   70.23865   16.09144    8.00457   62.11841    2.30594    0.28369    7.82034
 1854.50000   66.09445   15.55584    7.75568   62.95623    2.32747    0.28408    8.83412
