~Version ---------------------------------------------------
VERS.   2.0 : CWLS log ASCII Standard -VERSION 2.0
WRAP.    NO : One line per depth step
DLM . SPACE : Column Data Section Delimiter
~Well ------------------------------------------------------
STRT.m           1000.00000 : START DEPTH
STOP.m           3499.50000 : STOP DEPTH
STEP.m              0.50000 : STEP
NULL.               -999.25 : NULL VALUE
COMP.                       : COMPANY
WELL.               GEOSX-1 : WELL
FLD .           GEOX-ARIFOS : FIELD
LOC . Kuala Lumpur Malaysia : LOCATION
PROV.                       : PROVINCE
CNTY.                       : COUNTY
STAT.                       : STATE
CTRY.                       : COUNTRY
SRVC.    GEOX Earth Physics : SERVICE COMPANY
DATE.            2026-04-02 : DATE
UWI .                       : UNIQUE WELL ID
API .                       : API NUMBER
~Curve Information -----------------------------------------
DEPT.m      : Measured Depth
GR  .gAPI   : Gamma Ray
RD  .ohm.m  : Deep Resistivity
RS  .ohm.m  : Shallow Resistivity
DT  .us/ft  : Sonic Transit Time
RHOB.g/cm3  : Bulk Density
PHIN.v/v    : Neutron Porosity
CALI.in     : Caliper
~Params ----------------------------------------------------
~Other -----------------------------------------------------
~ASCII -----------------------------------------------------
# ...
 2665.00000   61.90254    5.61513    3.29154   65.44752    2.47541    0.23002    8.40413
 2665.50000   49.63638    6.01916    3.30447   67.17660    2.40213    0.20313    8.09286
 2666.00000   65.34577    5.71764    3.55153   63.82018    2.41635    0.19137    8.32853
 2666.50000   60.29868    5.88280    3.92896   63.63739    2.42914    0.22878    8.08216
 2667.00000   64.45823    5.97493    3.65098   65.02806    2.41299    0.20404    8.12896
 2667.50000   50.78175    5.77843    3.70169   64.59181    2.39102    0.22513    8.15772
 2668.00000   50.69559    5.36735    3.40846   63.98321    2.38656    0.22659    8.78604
 2668.50000   56.81239    5.24904    3.32510   69.26512    2.41990    0.22750    8.94675
 2669.00000   60.10387    5.69600    3.28726   69.96242    2.38151    0.21119    8.03918
 2669.50000   66.60466    5.59646    3.34404   64.92524    2.38071    0.23025    8.97406
 2670.00000   61.18635    5.67052    3.02942   65.83028    2.42541    0.19805    8.16202
 2670.50000   56.47584    5.63596    3.29327   65.28530    2.41079    0.16739    8.72406
 2671.00000   52.59089    6.41233    3.32447   67.89010    2.44180    0.23059    8.57757
 2671.50000   63.90642    5.23466    3.39975   68.30047    2.40097    0.21974    8.69076
 2672.00000   52.96676    5.03323    3.45946   62.14870    2.39632    0.20420    8.15028
 2672.50000   65.96669    5.72641    3.50388   66.66925    2.42651    0.18695    7.95629
 2673.00000   56.43667    5.51025    3.42669   63.11756    2.38948    0.17562    8.25913
 2673.50000   65.84595    5.71449    3.31167   69.26168    2.39414    0.21736    8.62806
 2674.00000   61.32232    5.79132    3.03357   66.63954    2.39537    0.24928    9.08707
 2674.50000   57.27751    5.99788    3.30947   64.12620    2.40767    0.21350    8.19108
 2675.00000   55.40052    5.15697    3.22833   65.30409    2.46717    0.20902    8.47035
 2675.50000   56.32816    5.43862    3.51432   65.22257    2.37274    0.21574    8.27528
 2676.00000   60.20967    5.73076    3.60126   66.86450    2.45295    0.25978    8.49483
 2676.50000   58.48945    5.82977    3.60540   67.91182    2.43625    0.23121    7.92076
 2677.00000   55.17037    6.25317    3.56737   63.54527    2.46117    0.19748    8.94941
 2677.50000   57.34722    5.87835    3.38757   69.53284    2.50830    0.21669    8.50721
 2678.00000   58.60440    5.57111    3.30818   69.08032    2.45718    0.22275    8.77515
 2678.50000   47.60417    5.31752    3.26144   64.13186    2.44205    0.19495    8.43034
 2679.00000   60.57520    5.41188    3.10766   66.04165    2.37495    0.23123    8.55719
 2679.50000   53.42245    5.39987    3.60582   69.33116    2.37877    0.19967    8.83866
 2680.00000   52.59127    5.77076    3.37081   68.38884    2.42521    0.18578    8.53952
 2680.50000   49.95828    5.64781    3.15478   65.26295    2.36350    0.21750    8.55031
 2681.00000   49.46279    5.17013    3.23705   67.57850    2.43294    0.21431    8.26182
 2681.50000   51.69245    5.43298    3.22725   71.95757    2.35047    0.21590    8.33967
 2682.00000   54.96220    5.82354    3.40755   66.18681    2.44913    0.20061    8.19616
 2682.50000   68.31141    5.66230    3.61074   64.72447    2.40495    0.20337    8.27859
 2683.00000   55.95370    5.72392    3.32595   66.34784    2.41844    0.23842    8.87537
 2683.50000   59.51001    5.66473    2.94334   66.50931    2.39223    0.22465    9.04258
 2684.00000   60.66202    6.03432    3.35432   64.98029    2.35776    0.19667    8.12582
 2684.50000   59.35347    5.61374    3.35922   66.92574    2.45180    0.17676    8.61855
 2685.00000   58.34964    5.42365    3.34378   63.54678    2.45487    0.19746    8.40469
 2685.50000   52.79928    5.26127    3.26158   64.73756    2.40430    0.21887    8.91909
 2686.00000   66.06946    5.60742    3.42886   67.59813    2.43474    0.20306    8.54046
 2686.50000   67.89006    4.79687    3.39691   62.58488    2.40319    0.20148    8.49776
 2687.00000   50.48022    5.47034    3.37703   67.91389    2.42361    0.20387    8.27657
 2687.50000   53.81298    5.46043    3.46283   62.09649    2.43777    0.21417    8.04047
 2688.00000   57.57386    5.10939    3.29265   62.67066    2.43169    0.23129    8.72828
 2688.50000   54.19019    5.23680    3.27961   65.14818    2.45531    0.21557    8.60589
 2689.00000   61.58285    5.75473    3.65126   66.73265    2.43069    0.21679    8.61323
 2689.50000   55.45199    5.57760    3.48542   68.82219    2.41600    0.21103    8.32020
 2690.00000   69.95913    5.53548    3.53725   66.29962    2.39236    0.20551    8.45627
 2690.50000   65.12727    5.59341    3.61540   65.70393    2.40088    0.23336    8.73732
 2691.00000   60.27825    5.52586    3.47368   67.36883    2.43958    0.23030    8.79463
 2691.50000   64.39134    5.86749    3.55249   64.48046    2.37027    0.25633    8.14646
 2692.00000   64.82711    5.52823    3.04926   66.51364    2.44853    0.22761    8.31000
 2692.50000   56.51925    5.05031    3.40427   63.84843    2.40697    0.20541    8.08303
 2693.00000   55.29945    5.97338    3.32522   66.42497    2.39088    0.19726    8.56038
 2693.50000   59.81297    5.59202    3.69562   66.01255    2.38252    0.23438    8.76530
 2694.00000   63.77234    5.30072    3.54393   64.67609    2.43575    0.19900    8.41639
 2694.50000   60.20153    5.09805    3.23063   66.62706    2.41512    0.23147    8.30114
 2695.00000   51.66349    5.58942    3.42960   66.62639    2.46326    0.20005    8.39941
 2695.50000   55.57676    5.43208    3.38690   68.67248    2.37775    0.22221    9.19189
 2696.00000   59.26360    5.93606    3.44256   63.12254    2.39834    0.19400    8.85758
 2696.50000   59.29790    5.35663    3.14625   66.19391    2.41295    0.23077    8.71930
 2697.00000   69.58186    5.20577    3.42034   64.83764    2.39320    0.19048    8.59602
 2697.50000   52.83231    5.72232    3.30104   68.10981    2.41598    0.22058    8.49618
 2698.00000   62.33346    5.72776    3.40148   67.89019    2.42543    0.21114    8.22801
 2698.50000   67.29451    5.49736    3.19845   67.41016    2.43041    0.21711    8.18149
 2699.00000   71.24980    5.64627    3.22464   64.99873    2.46111    0.20713    8.32963
 2699.50000   57.91433    5.42866    3.57475   68.18930    2.37686    0.20664    8.21387
 2700.00000   62.43740    5.50672    3.12800   63.37001    2.42613    0.21810    8.31766
 2700.50000   62.87316    5.78266    3.14109   62.97153    2.39663    0.19493    8.46943
 2701.00000   61.04604    5.61737    3.32466   63.90225    2.42898    0.19479    8.49241
 2701.50000   59.61884    5.37560    3.17893   66.39884    2.42906    0.20775    8.31389
 2702.00000   62.33755    5.82870    3.15464   67.82788    2.38655    0.20695    8.64856
 2702.50000   47.54121    4.71014    3.35099   60.53720    2.38917    0.19477    8.44330
 2703.00000   63.65772    6.03184    3.02730   69.14643    2.43159    0.23333    8.56441
 2703.50000   60.92335    4.90104    3.12506   66.77480    2.41698    0.20814    8.27662
 2704.00000   59.22535    5.22132    3.73580   63.38863    2.40973    0.21027    8.70786
 2704.50000   70.61746    5.39379    3.41522   66.73762    2.43610    0.18822    8.33955
 2705.00000   57.05406    5.35875    3.17235   68.73229    2.43835    0.25618    8.98257
 2705.50000   58.45909    5.70124    3.40364   67.75759    2.40055    0.26327    8.43250
 2706.00000   70.47815    5.07859    3.43181   68.76829    2.39092    0.19909    8.47159
 2706.50000   56.40614    5.47080    3.51557   63.84904    2.37866    0.23920    8.67808
 2707.00000   57.86210    5.21574    3.28959   65.76487    2.41756    0.21281    8.74356
 2707.50000   59.92394    5.47438    3.50867   64.75480    2.37391    0.24670    8.77588
 2708.00000   64.90929    5.36304    2.90402   70.05062    2.41962    0.22132    9.03268
 2708.50000   61.79133    5.40699    3.09879   67.90541    2.45319    0.21657    8.69857
 2709.00000   54.33606    5.21077    3.34118   72.33188    2.40612    0.16456    8.47990
 2709.50000   58.18537    5.21937    3.37267   65.71379    2.40067    0.19695    8.34111
