~Version ---------------------------------------------------
VERS.   2.0 : CWLS log ASCII Standard -VERSION 2.0
WRAP.    NO : One line per depth step
DLM . SPACE : Column Data Section Delimiter
~Well ------------------------------------------------------
STRT.m           1000.00000 : START DEPTH
STOP.m           3499.50000 : STOP DEPTH
STEP.m              0.50000 : STEP
NULL.               -999.25 : NULL VALUE
COMP.                       : COMPANY
WELL.               GEOSX-1 : WELL
FLD .           GEOX-ARIFOS : FIELD
LOC . Kuala Lumpur Malaysia : LOCATION
PROV.                       : PROVINCE
CNTY.                       : COUNTY
STAT.                       : STATE
CTRY.                       : COUNTRY
SRVC.    GEOX Earth Physics : SERVICE COMPANY
DATE.            2026-04-02 : DATE
UWI .                       : UNIQUE WELL ID
API .                       : API NUMBER
~Curve Information -----------------------------------------
DEPT.m      : Measured Depth
GR  .gAPI   : Gamma Ray
RD  .ohm.m  : Deep Resistivity
RS  .ohm.m  : Shallow Resistivity
DT  .us/ft  : Sonic Transit Time
RHOB.g/cm3  : Bulk Density
PHIN.v/v    : Neutron Porosity
CALI.in     : Caliper
~Params ----------------------------------------------------
~Other -----------------------------------------------------
~ASCII -----------------------------------------------------
# ...
 3160.00000   90.86681    2.92451    1.88354   61.57321    2.42049    0.20052    8.77091
 3160.50000   90.38961    2.93544    2.01173   58.99835    2.47453    0.22079    8.63846
 3161.00000   96.98694    3.08439    2.45797   63.34535    2.47239    0.22580    7.98160
 3161.50000   85.46154    2.56903    2.05280   58.30939    2.41951    0.16744    8.68464
 3162.00000   86.99157    2.61789    1.54019   63.18102    2.46917    0.18384    8.73174
 3162.50000   95.94473    3.15821    2.06157   57.21576    2.42151    0.16229    8.91811
 3163.00000   87.74443    2.80850    2.12810   60.18031    2.38016    0.18084    8.21503
 3163.50000   95.18347    3.36819    1.57664   57.84039    2.44828    0.21428    8.48302
 3164.00000   99.13652    3.11150    2.36580   61.34471    2.46085    0.19154    8.67026
 3164.50000   88.58872    3.22405    1.95522   58.12924    2.44971    0.18430    8.34173
 3165.00000   93.96269    3.46333    2.16262   59.64758    2.53921    0.20265    8.66557
 3165.50000   84.74543    2.94531    2.05067   57.74490    2.46461    0.17582    8.49279
 3166.00000   94.24540    2.86398    1.83714   60.90058    2.45769    0.22356    8.24606
 3166.50000   91.42652    3.29594    1.87967   57.69478    2.46621    0.19182    8.27163
 3167.00000   92.75209    3.18538    1.90570   62.35327    2.44012    0.18361    8.87479
 3167.50000   87.11637    2.97444    2.30881   56.97461    2.48128    0.20336    8.20107
 3168.00000   81.99596    3.44618    2.06112   56.25552    2.46427    0.21039    8.14960
 3168.50000   92.77463    2.96318    1.98521   60.83005    2.46294    0.22349    8.60331
 3169.00000   79.89817    3.03479    1.90162   57.72385    2.43480    0.18735    8.49083
 3169.50000   88.58508    3.02943    2.32673   58.87285    2.40663    0.21325    8.10651
 3170.00000   94.83422    2.74080    2.37929   58.22304    2.43856    0.19352    8.34417
 3170.50000   91.04411    3.04257    2.32236   56.22251    2.46212    0.17925    8.25497
 3171.00000   99.78247    3.43643    2.18285   58.67395    2.44034    0.17591    8.30750
 3171.50000   95.12228    3.14901    2.14129   61.33799    2.46247    0.16949    9.25749
 3172.00000   86.68305    3.02295    1.83910   60.79466    2.44679    0.17657    8.40923
 3172.50000   90.04475    2.96322    2.03208   59.23221    2.46672    0.21369    8.23562
 3173.00000   89.62681    3.10913    1.94343   60.97340    2.42454    0.20548    9.10654
 3173.50000   81.90809    3.23292    1.71406   56.61008    2.45967    0.16650    8.76648
 3174.00000   85.07213    3.18888    2.28953   58.05846    2.43469    0.15637    8.71745
 3174.50000   86.92530    2.90467    1.93792   59.48125    2.40781    0.16903    8.25007
 3175.00000   79.50282    3.09979    2.31523   58.40908    2.44905    0.17572    8.85745
 3175.50000   89.87605    3.14446    2.25136   58.15655    2.50013    0.18516    8.74488
 3176.00000   88.34771    2.69645    2.18531   56.22920    2.41032    0.21466    8.54413
 3176.50000   81.18293    3.04720    2.19551   54.44810    2.45770    0.18022    7.98511
 3177.00000   91.52264    2.34647    1.94884   60.22683    2.47809    0.22476    8.49402
 3177.50000   93.03494    3.13775    2.44243   59.05785    2.52320    0.15752    9.01898
 3178.00000   90.54460    3.18922    2.07845   60.35573    2.43945    0.18413    8.56611
 3178.50000   87.74278    3.21351    2.12918   57.65760    2.43532    0.20679    8.38706
 3179.00000   92.27386    2.86887    1.93794   57.08686    2.41932    0.20799    8.43146
 3179.50000   92.67112    3.07823    1.88049   58.50586    2.48858    0.18431    8.45222
 3180.00000   90.76024    3.41084    2.16115   60.18153    2.42838    0.21104    8.26012
 3180.50000   85.05322    3.40592    2.10816   57.99060    2.44332    0.20722    8.48763
 3181.00000   90.51218    2.97117    1.90576   60.03746    2.39901    0.17731    8.93282
 3181.50000   95.05931    3.01986    1.77491   56.40166    2.48104    0.19722    8.89884
 3182.00000   86.05135    3.30947    1.80758   58.07179    2.48931    0.20497    8.27370
 3182.50000   99.47661    2.52410    2.29976   58.23486    2.47997    0.17866    8.88277
 3183.00000   86.31103    2.87556    1.93685   60.80829    2.40648    0.22474    8.72834
 3183.50000   89.05334    3.37130    1.99069   58.75120    2.47289    0.17412    8.69000
 3184.00000   85.48084    3.26133    2.34751   61.80854    2.40454    0.19368    8.62957
 3184.50000   89.91142    3.07769    1.83199   55.60147    2.45650    0.16578    8.22089
 3185.00000   80.03562    2.51331    1.90999   58.53714    2.46095    0.19282    8.37833
 3185.50000   85.96802    2.94823    1.90061   58.61658    2.46415    0.16938    8.74988
 3186.00000   83.18897    2.78438    2.37695   59.47845    2.47092    0.18482    8.13794
 3186.50000   89.27746    3.05882    2.45098   56.59204    2.45468    0.15894    8.18777
 3187.00000   93.52405    2.71485    2.20159   61.56816    2.39609    0.20665    8.59186
 3187.50000   91.73274    2.64809    2.20693   58.20572    2.47105    0.19775    8.26314
 3188.00000   76.59516    2.33450    1.93316   55.98618    2.45797    0.21235    8.74717
 3188.50000   98.61440    3.31866    2.43767   58.10881    2.42800    0.18362    8.27373
 3189.00000   89.83090    2.83034    2.10072   57.49509    2.40804    0.21323    8.57331
 3189.50000   84.42230    2.99557    2.21678   63.66845    2.50136    0.19131    8.59842
 3190.00000   89.04059    2.94591    2.02403   60.18244    2.49214    0.19276    8.35537
 3190.50000   89.08590    2.62451    1.99051   58.16247    2.47642    0.23276    8.42811
 3191.00000   84.82057    2.56519    2.37570   57.81991    2.43499    0.18076    8.29600
 3191.50000   89.09411    2.63947    2.15002   59.92647    2.37981    0.21497    8.49442
 3192.00000   85.01673    2.72228    2.33133   60.00271    2.47830    0.19999    8.21149
 3192.50000   85.98170    3.04737    2.09110   52.16252    2.46640    0.17894    8.43295
 3193.00000   84.52139    2.69684    1.86934   59.25226    2.44420    0.16404    8.72455
 3193.50000   80.73856    3.45767    1.92132   58.00287    2.48922    0.16966    8.15897
 3194.00000   88.58009    3.24004    2.05757   55.30533    2.48096    0.21291    8.35388
 3194.50000   90.72625    3.17257    1.91066   59.66873    2.46084    0.22496    8.65548
 3195.00000   90.32287    2.89233    1.81345   62.38138    2.45665    0.19208    7.87671
 3195.50000   91.79664    3.38068    2.27420   58.98331    2.45717    0.19310    9.05668
 3196.00000   89.26714    2.85917    1.92393   60.05131    2.47608    0.20573    8.81358
 3196.50000   84.93009    2.91336    2.05953   61.43943    2.43000    0.19164    8.03850
 3197.00000   91.74017    2.97191    2.09010   56.15142    2.46854    0.21214    7.86874
 3197.50000   80.70227    3.12964    1.91223   54.07757    2.42818    0.19596    8.50889
 3198.00000   82.93436    3.10834    2.31900   59.08723    2.49594    0.19281    8.16393
 3198.50000   82.56444    2.77291    1.80440   57.25907    2.47184    0.17609    8.78845
 3199.00000   92.73331    2.75372    2.07914   54.98676    2.43527    0.17114    8.61820
 3199.50000   91.99442    3.10377    2.07502   57.55959    2.45838    0.12684    8.53701
 3200.00000   89.66432    3.12455    2.01394   59.15187    2.43039    0.21468    8.32892
 3200.50000   92.53462    2.79016    1.76439   57.37968    2.50116    0.18704    8.98000
 3201.00000   82.72559    2.43019    2.19693   56.08484    2.50477    0.18194    8.72604
 3201.50000   88.81189    2.84234    2.17046   57.19237    2.47701    0.15089    8.68095
 3202.00000   86.38981    3.08977    1.88563   57.58132    2.50286    0.17710    8.86002
 3202.50000   91.19674    3.44253    2.16123   53.74223    2.46075    0.17444    8.19434
 3203.00000   86.33271    2.53970    2.09370   57.29657    2.47915    0.17395    8.88542
 3203.50000   84.93049    2.76931    1.76159   54.87438    2.49302    0.19648    8.42062
 3204.00000   89.50599    2.77865    1.84592   58.86207    2.45615    0.19224    8.60042
 3204.50000   91.12841    3.30040    2.24335   54.40291    2.45849    0.16255    8.45306
