~Version ---------------------------------------------------
VERS.   2.0 : CWLS log ASCII Standard -VERSION 2.0
WRAP.    NO : One line per depth step
DLM . SPACE : Column Data Section Delimiter
~Well ------------------------------------------------------
STRT.m           1000.00000 : START DEPTH
STOP.m           3499.50000 : STOP DEPTH
STEP.m              0.50000 : STEP
NULL.               -999.25 : NULL VALUE
COMP.                       : COMPANY
WELL.               GEOSX-1 : WELL
FLD .           GEOX-ARIFOS : FIELD
LOC . Kuala Lumpur Malaysia : LOCATION
PROV.                       : PROVINCE
CNTY.                       : COUNTY
STAT.                       : STATE
CTRY.                       : COUNTRY
SRVC.    GEOX Earth Physics : SERVICE COMPANY
DATE.            2026-04-02 : DATE
UWI .                       : UNIQUE WELL ID
API .                       : API NUMBER
~Curve Information -----------------------------------------
DEPT.m      : Measured Depth
GR  .gAPI   : Gamma Ray
RD  .ohm.m  : Deep Resistivity
RS  .ohm.m  : Shallow Resistivity
DT  .us/ft  : Sonic Transit Time
RHOB.g/cm3  : Bulk Density
PHIN.v/v    : Neutron Porosity
CALI.in     : Caliper
~Params ----------------------------------------------------
~Other -----------------------------------------------------
~ASCII -----------------------------------------------------
# ...
 1315.00000   78.77015   30.48198   13.57896   64.58563    2.34630    0.31117    8.47779
 1315.50000   94.82741   30.94439   13.35046   61.26548    2.29162    0.28219    8.18375
 1316.00000   86.33668   30.71119   13.25629   57.31936    2.27830    0.26653    9.20411
 1316.50000   84.93923   30.73615   13.01027   62.28162    2.32363    0.29332    8.98116
 1317.00000   81.95990   30.39269   13.37144   62.41239    2.35359    0.26929    8.52496
 1317.50000   78.69279   30.82044   13.07963   63.84527    2.31789    0.26514    9.15425
 1318.00000   91.02944   31.21462   13.13740   66.43800    2.34325    0.27659    8.68972
 1318.50000   87.22656   30.26772   13.05123   61.67514    2.35578    0.27077    8.37075
 1319.00000   80.35642   30.44907   13.19066   60.74171    2.27786    0.26581    8.77194
 1319.50000   80.27696   30.60139   13.27050   60.13948    2.33371    0.30015    8.61959
 1320.00000   85.01942   30.74875   13.32418   62.88849    2.25990    0.28172    8.75136
 1320.50000   94.98931   30.32590   13.14272   63.47004    2.31839    0.30902    8.08927
 1321.00000   85.29198   29.62480   13.47005   61.43900    2.30354    0.26686    8.25691
 1321.50000   79.01983   30.86343   13.20793   64.10664    2.34301    0.24937    8.94654
 1322.00000   85.25230   30.66479   13.08540   63.49899    2.34093    0.28688    9.00794
 1322.50000   85.06275   29.89474   13.28159   62.67362    2.32289    0.32099    8.92453
 1323.00000   72.88716   30.21635   13.62242   60.80124    2.31479    0.29447    9.16559
 1323.50000   86.04521   30.85008   13.29013   61.66125    2.32113    0.34813    8.67321
 1324.00000   85.10698   30.79498   13.14392   57.78435    2.30777    0.29044    8.65213
 1324.50000   89.68753   30.62327   12.90439   63.13430    2.30412    0.28849    8.22604
 1325.00000   95.39600   30.26988   13.15940   62.73426    2.34928    0.24064    8.32584
 1325.50000   91.72864   30.32867   13.24366   63.07737    2.35293    0.29228    7.90352
 1326.00000   84.69584   30.24556   13.11256   63.72787    2.30183    0.28707    8.40355
 1326.50000   80.45201   30.60439   12.85041   63.50967    2.31325    0.27553    7.88244
 1327.00000   98.79566   29.98425   13.00678   62.53605    2.30861    0.28091    8.82429
 1327.50000   86.16906   29.98637   13.46122   62.87292    2.25785    0.28226    8.61652
 1328.00000   85.88660   30.51230   13.45053   59.98570    2.29615    0.28000    7.89215
 1328.50000   85.64019   30.17704   12.97982   61.64562    2.35427    0.32537    8.44304
 1329.00000   86.69499   30.58502   13.28512   62.93272    2.28383    0.27613    9.09030
 1329.50000   84.92639   29.95118   12.90828   61.37877    2.36980    0.28691    8.46230
 1330.00000   82.72339   30.11736   13.41829   64.58945    2.34156    0.27542    8.20049
 1330.50000   82.80080   29.83824   13.17991   61.57055    2.31848    0.29914    7.96435
 1331.00000   85.31460   30.09836   13.31422   63.33906    2.32331    0.28699    7.97331
 1331.50000   82.70440   29.63378   12.77472   63.15821    2.27900    0.27783    8.66067
 1332.00000   81.80034   29.91226   13.24670   64.43624    2.29860    0.24488    8.36984
 1332.50000   85.83964   29.60889   13.10309   64.76385    2.34984    0.28824    8.39470
 1333.00000   83.97542   30.22918   13.26846   64.36891    2.28820    0.27716    8.37108
 1333.50000   92.71297   30.21722   13.27450   58.78738    2.33851    0.28211    8.45793
 1334.00000   71.88074   29.46442   13.09814   65.40622    2.26541    0.25965    8.13185
 1334.50000   90.53559   30.36493   12.95827   66.09105    2.27082    0.31194    8.59483
 1335.00000   91.25084   30.69527   13.22784   62.09068    2.36384    0.30038    8.07319
 1335.50000   74.59571   29.94113   13.05334   63.54670    2.30648    0.31184    8.27325
 1336.00000   83.19137   29.71630   12.88428   61.31020    2.29073    0.30614    8.80325
 1336.50000   82.98963   30.73725   12.86828   59.21354    2.34780    0.29502    8.61286
 1337.00000   77.75119   29.47558   12.75035   61.65128    2.34433    0.26030    8.70570
 1337.50000   80.84148   29.85864   12.93721   62.06683    2.33462    0.31999    9.14512
 1338.00000   79.11938   29.88784   13.25328   62.45579    2.28994    0.26455    8.48210
 1338.50000   93.37521   30.21886   13.06180   61.26602    2.29847    0.27771    8.50644
 1339.00000   89.23374   29.90461   12.91377   61.73533    2.31647    0.29719    8.42070
 1339.50000   90.85450   29.62848   13.17418   63.19849    2.32799    0.29816    8.36698
 1340.00000   88.04636   29.47411   12.84021   61.69835    2.29195    0.29444    8.19682
 1340.50000   78.73391   29.63832   13.01927   64.34413    2.31236    0.27497    8.52522
 1341.00000   81.69764   29.42021   12.95778   64.63866    2.31530    0.27081    8.60651
 1341.50000   86.70807   29.71806   13.14304   68.05435    2.34592    0.33362    8.62323
 1342.00000   78.09142   29.51590   12.66527   65.56315    2.32999    0.28211    8.51931
 1342.50000   87.70781   29.21840   12.80419   63.81619    2.26220    0.27964    8.77785
 1343.00000   82.88185   30.02462   12.64010   62.10763    2.30103    0.26858    8.50883
 1343.50000   82.14993   29.48025   12.90934   63.95381    2.27962    0.28772    8.37721
 1344.00000   87.51929   29.23060   13.19707   64.03764    2.32456    0.28676    8.22190
 1344.50000   86.12616   29.54206   12.84722   62.37593    2.33525    0.28245    8.03531
 1345.00000   82.04027   29.59456   12.83970   64.98811    2.31065    0.29038    8.93812
 1345.50000   89.58191   29.03163   13.10971   60.64252    2.29960    0.31800    8.29028
 1346.00000   78.32000   29.63660   13.14261   62.96796    2.30976    0.27080    8.22230
 1346.50000   86.74496   29.20450   12.90472   64.58650    2.31399    0.28354    8.37474
 1347.00000   86.57066   30.01351   13.05292   62.91762    2.28856    0.26969    8.41648
 1347.50000   81.99719   29.63896   12.69413   63.09726    2.27124    0.28852    8.99155
 1348.00000   85.11526   29.34338   13.17866   63.25316    2.24634    0.27123    8.40156
 1348.50000   77.16861   29.22139   13.32636   61.87547    2.34590    0.27207    9.29002
 1349.00000   87.98380   29.39506   12.99441   65.91239    2.32281    0.25336    8.51911
 1349.50000   82.37856   29.59200   12.46686   61.54641    2.31884    0.28448    9.11711
 1350.00000   80.62875   29.38214   12.76564   64.23667    2.34596    0.29110    8.76818
 1350.50000   88.42663   29.30627   12.99342   64.44550    2.27038    0.31968    8.60831
 1351.00000   79.59898   29.37058   12.78012   61.73878    2.25601    0.29184    8.97335
 1351.50000   76.01743   29.15357   13.11243   63.80004    2.31965    0.27343    8.83667
 1352.00000   75.21553   29.21344   12.96919   61.85235    2.31696    0.25521    8.69040
 1352.50000   85.96758   28.67235   12.70384   66.47145    2.25626    0.25795    9.19528
 1353.00000   76.47415   29.57190   12.84517   61.42954    2.31903    0.25644    8.35048
 1353.50000   91.58894   29.35113   12.65353   62.41702    2.29627    0.31989    8.20153
 1354.00000   72.34391   29.01117   12.78936   61.29405    2.28411    0.28806    8.29713
 1354.50000   91.17435   29.79455   12.70855   61.04477    2.29836    0.27062    9.02568
 1355.00000   83.68557   29.23278   13.04801   66.96024    2.23515    0.26305    8.93523
 1355.50000   82.08525   28.87758   13.22986   64.88098    2.29070    0.26510    8.34242
 1356.00000   79.78247   29.42721   12.51402   64.09361    2.28735    0.27001    7.79360
 1356.50000   84.44091   29.27138   12.40921   62.51744    2.32523    0.30850    8.43825
 1357.00000   82.19514   29.25212   12.73843   65.66336    2.30381    0.28155    8.19602
 1357.50000   87.83783   28.98782   12.47739   62.21722    2.32777    0.25318    8.35182
 1358.00000   82.83038   29.23250   12.78392   65.47044    2.23215    0.32831    8.18368
 1358.50000   82.94859   29.00064   12.91808   62.15561    2.28351    0.25927    8.01714
 1359.00000   80.31678   29.22779   13.06074   62.62907    2.32540    0.27023    9.06496
 1359.50000   81.78779   28.47136   12.79581   65.45207    2.29949    0.30823    8.29490
