~Version ---------------------------------------------------
VERS.   2.0 : CWLS log ASCII Standard -VERSION 2.0
WRAP.    NO : One line per depth step
DLM . SPACE : Column Data Section Delimiter
~Well ------------------------------------------------------
STRT.m           1000.00000 : START DEPTH
STOP.m           3499.50000 : STOP DEPTH
STEP.m              0.50000 : STEP
NULL.               -999.25 : NULL VALUE
COMP.                       : COMPANY
WELL.               GEOSX-1 : WELL
FLD .           GEOX-ARIFOS : FIELD
LOC . Kuala Lumpur Malaysia : LOCATION
PROV.                       : PROVINCE
CNTY.                       : COUNTY
STAT.                       : STATE
CTRY.                       : COUNTRY
SRVC.    GEOX Earth Physics : SERVICE COMPANY
DATE.            2026-04-02 : DATE
UWI .                       : UNIQUE WELL ID
API .                       : API NUMBER
~Curve Information -----------------------------------------
DEPT.m      : Measured Depth
GR  .gAPI   : Gamma Ray
RD  .ohm.m  : Deep Resistivity
RS  .ohm.m  : Shallow Resistivity
DT  .us/ft  : Sonic Transit Time
RHOB.g/cm3  : Bulk Density
PHIN.v/v    : Neutron Porosity
CALI.in     : Caliper
~Params ----------------------------------------------------
~Other -----------------------------------------------------
~ASCII -----------------------------------------------------
# ...
 1495.00000   65.72681   24.67908   11.11967   64.94499    2.28083    0.26392    8.62190
 1495.50000   54.41917   24.59434   11.28933   68.71362    2.30723    0.26104    8.56305
 1496.00000   63.33501   24.18763   11.00907   68.37602    2.33098    0.27822    8.46797
 1496.50000   61.10415   24.62746   11.03793   66.73481    2.34046    0.26894    8.12755
 1497.00000   59.44926   24.71559   10.85439   66.87890    2.29716    0.26011    8.23314
 1497.50000   62.99527   24.49269   11.15961   68.40954    2.30658    0.27022    8.79893
 1498.00000   73.33272   24.77177   11.17082   69.85662    2.36366    0.28608    8.32079
 1498.50000   67.49215   24.04549   11.33607   66.91740    2.35474    0.29420    8.46901
 1499.00000   61.37580   24.53585   11.25290   68.79942    2.32617    0.24299    8.05237
 1499.50000   67.03849   24.02914   11.03217   68.62744    2.25286    0.26896    8.75757
 1500.00000   71.11635   24.03076   10.84795   69.26261    2.39533    0.27217    8.10416
 1500.50000   68.68687   24.16049   11.16461   67.58953    2.31944    0.25132    8.77479
 1501.00000   64.30610   24.05193   11.29466   65.69312    2.31070    0.27256    8.18119
 1501.50000   60.71763   24.15495   11.21801   66.59959    2.30445    0.27788    8.80435
 1502.00000   67.38792   24.23991   11.27833   68.21706    2.33145    0.28528    8.50306
 1502.50000   65.80884   24.54011   11.01353   71.17500    2.33180    0.27642    8.33237
 1503.00000   68.26211   24.17744   10.95706   66.57671    2.34876    0.25723    8.98012
 1503.50000   66.90687   23.78294   10.89748   69.16095    2.29250    0.31507    8.47934
 1504.00000   68.92376   24.58549   11.02816   66.90184    2.31095    0.29138    8.39146
 1504.50000   60.94493   23.97719   11.01810   67.78543    2.38128    0.28583    8.77274
 1505.00000   70.15331   24.19557   11.06964   70.60177    2.32714    0.29485    8.05586
 1505.50000   64.49971   24.33201   10.99693   69.10600    2.31526    0.27962    7.74185
 1506.00000   73.83351   24.24282   10.99056   65.10120    2.29223    0.30043    8.84739
 1506.50000   59.95688   24.49608   10.85644   66.44520    2.33570    0.27581    8.24911
 1507.00000   72.02839   24.29643   11.19459   70.10888    2.35149    0.27468    8.75939
 1507.50000   64.28401   23.87924   11.01607   67.88645    2.34684    0.28733    8.51385
 1508.00000   59.98337   24.77612   10.96038   65.31121    2.31288    0.30613    8.15080
 1508.50000   60.76717   24.16578   10.84029   65.97714    2.33152    0.30482    8.68218
 1509.00000   61.53114   24.04822   10.71790   69.02814    2.37087    0.28641    8.37695
 1509.50000   65.20011   24.36654   11.24038   69.61603    2.35289    0.28486    8.17680
 1510.00000   65.63999   24.13716   11.08423   67.66893    2.29728    0.28842    8.18461
 1510.50000   60.10398   24.16706   10.64303   72.58981    2.24446    0.29419    7.98015
 1511.00000   62.79751   24.77992   11.11496   69.29340    2.32978    0.30042    8.62091
 1511.50000   73.57757   23.93471   11.14135   67.16400    2.34488    0.26969    8.21938
 1512.00000   71.45101   23.90691   10.97625   66.02537    2.28828    0.30076    8.48958
 1512.50000   64.94212   24.02222   11.26552   65.71278    2.32074    0.28123    8.44548
 1513.00000   62.89786   24.29371   10.98377   68.33912    2.31313    0.28737    8.21753
 1513.50000   63.25548   23.50532   10.65160   66.69640    2.32421    0.30196    8.04313
 1514.00000   65.67053   23.35264   11.00253   71.02707    2.30478    0.28924    9.26011
 1514.50000   57.43673   23.75122   10.97301   70.61778    2.35988    0.29259    8.48544
 1515.00000   61.21170   23.42222   10.79791   68.95682    2.32564    0.26646    9.04701
 1515.50000   54.10370   23.77001   11.02782   65.33818    2.29487    0.30419    8.84948
 1516.00000   64.39091   24.03328   10.57412   66.35717    2.34880    0.28811    8.40365
 1516.50000   65.57908   23.60038   11.10032   70.21835    2.28339    0.27670    8.55429
 1517.00000   59.87562   23.42465   10.72113   66.58620    2.35989    0.29617    8.54557
 1517.50000   70.11008   23.85859   10.69432   69.96191    2.35113    0.32588    9.05326
 1518.00000   56.06005   24.08166   10.86310   68.67208    2.36313    0.25072    8.74895
 1518.50000   54.81588   23.29952   10.96702   67.83150    2.31673    0.25800    8.25782
 1519.00000   63.20904   24.03921   10.90777   66.32754    2.30664    0.32776    8.60549
 1519.50000   67.27143   24.02346   10.72102   67.54982    2.32408    0.28256    8.74129
 1520.00000   70.40489   24.04964   10.76290   68.12265    2.31907    0.27782    8.14740
 1520.50000   59.64028   24.11411   10.63208   69.81344    2.30206    0.27167    8.64824
 1521.00000   67.27770   24.39433   10.80832   65.98184    2.30507    0.29812    8.90365
 1521.50000   61.64150   23.61207   11.06283   67.23258    2.31073    0.32615    8.24276
 1522.00000   60.92079   23.73695   10.84156   67.85272    2.28666    0.26060    8.28420
 1522.50000   66.15227   23.56434   11.00887   69.09323    2.34214    0.27194    8.84814
 1523.00000   64.94577   23.67506   11.12265   65.95571    2.32027    0.26684    8.39373
 1523.50000   53.75252   24.11954   10.70855   65.14421    2.31263    0.28848    8.20540
 1524.00000   68.96766   23.24139   10.78343   69.12994    2.28861    0.29825    8.76468
 1524.50000   68.43605   23.37181   11.24957   64.75072    2.28715    0.30619    8.67306
 1525.00000   58.35856   24.02851   11.09880   70.36114    2.38008    0.28908    8.52832
 1525.50000   63.41632   23.90661   10.47004   67.48385    2.30322    0.32411    8.83737
 1526.00000   63.85853   23.47692   10.87655   64.70510    2.34040    0.26220    8.85869
 1526.50000   62.64298   23.82744   10.79384   66.84374    2.32700    0.25698    8.47515
 1527.00000   58.53947   23.65876   10.95362   68.56720    2.23890    0.30304    9.09230
 1527.50000   57.88441   23.99176   10.63394   66.74787    2.37597    0.27608    8.97502
 1528.00000   61.06645   23.54932   10.60963   67.85760    2.34276    0.24608    7.90471
 1528.50000   67.00970   23.81995   10.63695   69.30192    2.29925    0.26725    8.19096
 1529.00000   63.81605   24.29018   10.65239   67.42156    2.32147    0.27866    7.82341
 1529.50000   59.19713   23.66232   10.92446   65.95595    2.28788    0.26060    8.40259
 1530.00000   64.86100   23.48302   10.51977   67.23617    2.37719    0.25321    8.13663
 1530.50000   46.71225   23.67029   10.62612   70.66785    2.29521    0.26932    8.25570
 1531.00000   66.65141   23.32932   10.38746   71.21228    2.30679    0.25216    8.82717
 1531.50000   52.16179   24.14065   10.94132   63.80622    2.30063    0.28613    7.97355
 1532.00000   59.00108   23.46364   10.98873   70.03201    2.32497    0.23452    8.53892
 1532.50000   55.16802   23.31312   10.66374   68.35408    2.36371    0.27518    8.53710
 1533.00000   54.24621   23.12967   10.66421   69.70553    2.37632    0.28374    8.47528
 1533.50000   66.47716   23.69494   10.80908   66.76032    2.31071    0.27151    8.53923
 1534.00000   58.28808   23.61133   11.00797   64.32846    2.33407    0.29516    7.83032
 1534.50000   62.31283   23.18738   10.78944   69.03760    2.32522    0.24586    8.25713
 1535.00000   60.29959   23.49494   10.56286   65.99025    2.29335    0.25923    8.96290
 1535.50000   62.87344   22.85486   10.37325   65.09916    2.39552    0.26662    8.14094
 1536.00000   60.82655   23.34836   10.46865   65.24242    2.36376    0.28745    8.99998
 1536.50000   53.98185   23.41414   10.70097   69.08449    2.32859    0.27755    8.07795
 1537.00000   65.33267   23.77597   10.54992   68.16496    2.37042    0.31602    8.04189
 1537.50000   57.83725   23.01799   10.71464   69.45432    2.35936    0.25701    8.21447
 1538.00000   52.47798   22.85120   10.55973   69.23083    2.32550    0.24520    8.83872
 1538.50000   58.07533   22.95156   10.45335   67.05405    2.33286    0.30886    8.33616
 1539.00000   67.67489   22.80471   10.42424   67.75816    2.36848    0.24443    8.60362
 1539.50000   64.37755   23.59218   10.96679   66.87938    2.29478    0.28669    8.52209
