~Version ---------------------------------------------------
VERS.   2.0 : CWLS log ASCII Standard -VERSION 2.0
WRAP.    NO : One line per depth step
DLM . SPACE : Column Data Section Delimiter
~Well ------------------------------------------------------
STRT.m           1000.00000 : START DEPTH
STOP.m           3499.50000 : STOP DEPTH
STEP.m              0.50000 : STEP
NULL.               -999.25 : NULL VALUE
COMP.                       : COMPANY
WELL.               GEOSX-1 : WELL
FLD .           GEOX-ARIFOS : FIELD
LOC . Kuala Lumpur Malaysia : LOCATION
PROV.                       : PROVINCE
CNTY.                       : COUNTY
STAT.                       : STATE
CTRY.                       : COUNTRY
SRVC.    GEOX Earth Physics : SERVICE COMPANY
DATE.            2026-04-02 : DATE
UWI .                       : UNIQUE WELL ID
API .                       : API NUMBER
~Curve Information -----------------------------------------
DEPT.m      : Measured Depth
GR  .gAPI   : Gamma Ray
RD  .ohm.m  : Deep Resistivity
RS  .ohm.m  : Shallow Resistivity
DT  .us/ft  : Sonic Transit Time
RHOB.g/cm3  : Bulk Density
PHIN.v/v    : Neutron Porosity
CALI.in     : Caliper
~Params ----------------------------------------------------
~Other -----------------------------------------------------
~ASCII -----------------------------------------------------
# ...
 1180.00000   97.59512   36.33441   15.28098   53.78295    2.26194    0.31358    8.74157
 1180.50000  102.66113   36.35981   15.10972   57.16650    2.26585    0.28902    8.77148
 1181.00000   94.45245   36.32145   15.29731   55.90871    2.35458    0.28564    8.73943
 1181.50000   97.00341   36.00194   14.99213   58.99728    2.28470    0.28716    8.37233
 1182.00000   98.44395   36.20046   15.04403   54.18854    2.27468    0.26814    8.59175
 1182.50000   92.98528   35.78565   15.35456   56.01780    2.28985    0.29909    8.53327
 1183.00000   96.10978   36.62121   15.01466   60.74643    2.28513    0.28824    8.21912
 1183.50000   95.04999   36.09853   15.31782   55.26007    2.34171    0.27568    8.22205
 1184.00000   95.47290   36.02034   14.92869   56.68491    2.26429    0.27865    8.62359
 1184.50000   91.11673   36.62109   15.54795   54.74499    2.33018    0.26623    8.55894
 1185.00000   95.10138   35.74915   15.03253   54.49854    2.29846    0.28263    8.66601
 1185.50000   97.46564   35.76158   15.13506   60.30876    2.33105    0.28593    8.73731
 1186.00000  102.22797   35.74783   15.23833   57.57497    2.34236    0.28205    8.94981
 1186.50000   99.76498   36.03380   15.05155   57.51903    2.29746    0.29178    8.26723
 1187.00000  105.73070   36.16112   15.18572   53.87783    2.28551    0.28908    8.68907
 1187.50000   91.12398   36.23102   15.26453   58.00675    2.29699    0.29524    8.72476
 1188.00000   99.31803   36.75822   15.33401   59.62294    2.29220    0.30946    8.40636
 1188.50000   95.86863   35.28930   15.29262   59.62589    2.24537    0.30244    8.53656
 1189.00000  105.89621   36.12428   15.09239   58.68246    2.34169    0.30964    8.41403
 1189.50000   90.90075   35.75207   15.08987   55.10570    2.30253    0.27357    9.13258
 1190.00000   90.73846   35.72084   15.58146   58.00981    2.26031    0.28033    8.53146
 1190.50000   91.93471   35.68840   15.29406   58.73764    2.23321    0.30355    8.63545
 1191.00000   84.30658   35.57929   14.91217   53.83251    2.22545    0.30388    8.42080
 1191.50000   92.29144   36.33488   15.10898   55.19778    2.31843    0.27685    8.35611
 1192.00000   91.11849   36.05982   15.01442   59.23561    2.27679    0.30263    8.10940
 1192.50000   95.65984   35.79172   15.04684   59.23036    2.28175    0.27150    8.82996
 1193.00000   96.61015   36.16771   14.82047   54.40009    2.31008    0.29997    8.73053
 1193.50000  104.27550   35.28630   14.97645   59.10630    2.28000    0.28980    8.40967
 1194.00000   99.63983   35.31852   15.41362   57.72588    2.31192    0.26261    8.22989
 1194.50000   91.99602   35.04202   15.15960   59.11633    2.29842    0.28159    8.55397
 1195.00000   90.38108   35.46329   14.53804   56.30432    2.29308    0.33390    8.35069
 1195.50000   97.32514   35.69933   15.27210   58.88279    2.24846    0.29428    8.43339
 1196.00000   88.25655   35.65940   15.23916   59.29916    2.27109    0.33621    8.12093
 1196.50000  104.00697   35.65109   14.94187   56.92793    2.31380    0.26130    8.56512
 1197.00000  100.73860   35.16072   15.14968   57.68522    2.27530    0.30516    8.57110
 1197.50000   92.48704   35.80275   14.82684   56.37179    2.33196    0.23944    8.82842
 1198.00000   86.25853   35.61147   14.89718   60.99125    2.36623    0.29010    8.45478
 1198.50000  101.58464   35.73730   15.28344   57.46659    2.31557    0.30270    8.39993
 1199.00000   94.23343   34.92736   14.92190   55.88225    2.34070    0.30681    8.03297
 1199.50000  100.98584   35.56646   14.59481   56.31383    2.31758    0.27404    8.83029
 1200.00000   86.81503   35.09452   14.94861   58.01822    2.27997    0.31078    8.76785
 1200.50000   91.78048   35.30950   14.93808   59.29055    2.30204    0.27930    8.50862
 1201.00000   94.79354   35.56687   15.18599   55.13146    2.35648    0.28667    8.10123
 1201.50000   94.99198   35.41177   14.94172   61.51767    2.28041    0.28126    8.13564
 1202.00000   92.49628   35.10687   14.84706   58.45895    2.26498    0.26717    8.33587
 1202.50000   97.85017   35.34212   15.13293   58.79378    2.26217    0.32127    8.78957
 1203.00000   89.38691   34.85870   14.94062   57.68576    2.28971    0.29081    8.58710
 1203.50000   94.00199   35.64117   14.75900   57.93795    2.26618    0.31157    8.05199
 1204.00000   95.30402   35.21245   15.13255   57.62217    2.34654    0.31069    8.62126
 1204.50000   97.26317   35.58756   14.93283   59.97365    2.30285    0.27042    8.24826
 1205.00000   98.23727   35.07201   14.88724   57.94153    2.32555    0.31407    8.34334
 1205.50000   89.04398   35.05089   14.91479   59.51083    2.28748    0.29979    8.79152
 1206.00000   86.98440   34.95671   14.65764   57.12839    2.26227    0.26888    8.72965
 1206.50000  101.03091   35.42683   14.75881   58.40674    2.25724    0.29865    8.82793
 1207.00000   96.29144   34.92918   14.85763   56.42700    2.26932    0.26919    8.49306
 1207.50000   90.87456   35.31343   14.81055   60.48729    2.30703    0.32175    8.76491
 1208.00000  102.35966   34.98337   15.09655   56.40614    2.31224    0.30588    8.32416
 1208.50000   95.16897   34.48339   14.87812   57.44310    2.31478    0.28815    8.42273
 1209.00000  100.47355   34.88317   14.99821   57.48256    2.25206    0.31485    8.40211
 1209.50000   94.90091   34.67863   14.82169   57.42402    2.29675    0.25789    8.50716
 1210.00000  104.85309   35.02064   15.02366   59.59637    2.26602    0.27451    8.11405
 1210.50000  103.31188   34.63147   14.88451   57.53753    2.30888    0.28443    8.43250
 1211.00000   93.27595   35.24453   14.80029   60.97817    2.31125    0.33416    8.93550
 1211.50000   99.36401   34.91756   14.78755   56.57286    2.26175    0.26802    8.17224
 1212.00000   97.71821   34.86978   14.59192   58.56806    2.32600    0.25525    8.10120
 1212.50000  101.31944   35.09800   14.87680   56.69724    2.36716    0.26049    8.12539
 1213.00000   89.63640   35.16860   14.75999   59.11028    2.32209    0.30747    9.29856
 1213.50000   97.87579   34.85160   14.66026   58.25597    2.29219    0.27744    8.63946
 1214.00000   99.72196   34.60450   14.97457   57.99728    2.28762    0.28612    8.41892
 1214.50000   85.62023   34.28190   14.49586   60.70391    2.29089    0.30453    8.52050
 1215.00000   88.48150   34.58652   14.65403   57.03784    2.27438    0.28609    8.56829
 1215.50000   84.18529   34.58544   14.93671   59.53913    2.30481    0.29331    8.30787
 1216.00000   93.01786   34.78099   14.78690   56.84776    2.26313    0.29990    8.34483
 1216.50000   97.93583   34.62362   14.70687   58.63064    2.24063    0.28056    8.45270
 1217.00000  101.84291   34.91185   14.75928   56.03373    2.30395    0.28582    8.28257
 1217.50000   94.68440   34.49989   14.73761   57.11946    2.29804    0.29396    8.38092
 1218.00000  102.43958   34.64500   14.39105   58.29983    2.28030    0.30646    8.60593
 1218.50000   87.37837   34.99565   14.61718   62.11304    2.25900    0.27323    8.20085
 1219.00000   85.74411   34.72136   15.00300   58.70500    2.30621    0.22864    9.28298
 1219.50000   93.96522   34.57917   14.54049   61.83238    2.26785    0.30262    8.72595
 1220.00000   96.14502   34.39498   14.60136   58.98335    2.29343    0.30755    8.11897
 1220.50000   94.04273   34.36399   14.54937   57.78820    2.35059    0.29298    7.75663
 1221.00000   83.85029   34.27719   14.63296   61.66076    2.31722    0.29432    8.29375
 1221.50000   93.72298   34.34849   14.52642   59.47577    2.25665    0.27764    8.70531
 1222.00000   87.62711   34.71593   14.73307   57.33599    2.25951    0.29890    8.64714
 1222.50000   97.47847   34.40112   14.66787   59.58228    2.30235    0.30594    8.46675
 1223.00000   95.94355   34.04122   14.77580   58.07566    2.25658    0.28998    8.31957
 1223.50000   89.39139   34.95508   14.40359   54.70251    2.23783    0.33865    8.22876
 1224.00000   91.50148   34.49911   14.53841   60.57225    2.31389    0.25753    8.37923
 1224.50000   88.75456   33.95954   14.55403   60.90991    2.30759    0.29203    8.19629
