~Version ---------------------------------------------------
VERS.   2.0 : CWLS log ASCII Standard -VERSION 2.0
WRAP.    NO : One line per depth step
DLM . SPACE : Column Data Section Delimiter
~Well ------------------------------------------------------
STRT.m           1000.00000 : START DEPTH
STOP.m           3499.50000 : STOP DEPTH
STEP.m              0.50000 : STEP
NULL.               -999.25 : NULL VALUE
COMP.                       : COMPANY
WELL.               GEOSX-1 : WELL
FLD .           GEOX-ARIFOS : FIELD
LOC . Kuala Lumpur Malaysia : LOCATION
PROV.                       : PROVINCE
CNTY.                       : COUNTY
STAT.                       : STATE
CTRY.                       : COUNTRY
SRVC.    GEOX Earth Physics : SERVICE COMPANY
DATE.            2026-04-02 : DATE
UWI .                       : UNIQUE WELL ID
API .                       : API NUMBER
~Curve Information -----------------------------------------
DEPT.m      : Measured Depth
GR  .gAPI   : Gamma Ray
RD  .ohm.m  : Deep Resistivity
RS  .ohm.m  : Shallow Resistivity
DT  .us/ft  : Sonic Transit Time
RHOB.g/cm3  : Bulk Density
PHIN.v/v    : Neutron Porosity
CALI.in     : Caliper
~Params ----------------------------------------------------
~Other -----------------------------------------------------
~ASCII -----------------------------------------------------
# ...
 3475.00000   57.74324    2.32383    1.91158   49.46819    2.46080    0.18881    8.20978
 3475.50000   62.78231    2.13042    1.53642   52.66400    2.46972    0.16707    8.57767
 3476.00000   60.44088    1.79396    1.67653   51.29262    2.50977    0.19871    8.74212
 3476.50000   61.31397    1.77139    1.38475   50.88106    2.45603    0.13939    8.57127
 3477.00000   58.07545    2.13457    1.63552   52.11007    2.43370    0.22506    8.42537
 3477.50000   49.46993    2.26616    1.58915   50.12421    2.43595    0.15840    8.30781
 3478.00000   55.41339    2.17333    1.52206   49.77866    2.42637    0.20470    9.09558
 3478.50000   61.66800    1.74410    1.43225   46.82075    2.43932    0.17469    8.52886
 3479.00000   56.08581    2.24840    1.40423   55.54846    2.44289    0.15968    8.61668
 3479.50000   58.83496    2.17969    1.58754   53.16779    2.51992    0.18133    8.59730
 3480.00000   54.70206    1.72943    1.65609   51.82520    2.47701    0.19658    8.25627
 3480.50000   51.12324    1.81405    1.50410   50.72672    2.46754    0.14492    8.51525
 3481.00000   55.63228    2.25462    1.58623   46.31160    2.43518    0.18998    8.40333
 3481.50000   57.77116    1.97644    1.52043   50.60915    2.47423    0.17568    8.39796
 3482.00000   52.92460    2.52225    1.54695   53.50053    2.42644    0.18744    8.59509
 3482.50000   55.00182    2.19457    1.48639   53.95579    2.46752    0.17609    8.22531
 3483.00000   51.46060    1.89697    1.52931   53.35872    2.54057    0.16441    8.13856
 3483.50000   61.73189    2.03862    2.06456   52.39366    2.49859    0.15356    8.65082
 3484.00000   54.64135    2.05942    1.58652   54.68741    2.47243    0.18925    8.34052
 3484.50000   63.35557    1.82061    1.65249   51.42543    2.49970    0.18912    8.39650
 3485.00000   63.71391    1.76408    1.61027   54.25577    2.46315    0.18900    7.92136
 3485.50000   55.64353    2.24700    1.46935   51.31917    2.45482    0.18428    8.78892
 3486.00000   50.98532    2.28889    1.77995   50.32904    2.53000    0.19459    8.65720
 3486.50000   45.57709    2.21517    1.46215   50.08293    2.44465    0.20380    8.71242
 3487.00000   48.62561    2.48736    1.73064   49.96845    2.46834    0.13812    8.61620
 3487.50000   49.09606    1.86896    1.45203   53.41872    2.48818    0.12879    8.04521
 3488.00000   62.83722    2.53251    1.32611   50.61828    2.45095    0.20996    8.56870
 3488.50000   56.50386    1.75868    1.59043   50.04095    2.49860    0.14875    8.31726
 3489.00000   57.85282    1.72388    1.29566   53.53776    2.46992    0.15383    8.21114
 3489.50000   44.78298    1.49844    1.62296   52.76956    2.49908    0.16977    8.65001
 3490.00000   49.87574    1.89142    1.27624   54.04219    2.49678    0.14242    8.99755
 3490.50000   60.28168    1.87277    1.45052   53.14564    2.47195    0.16784    8.94800
 3491.00000   57.26107    2.18041    1.22721   50.61770    2.53060    0.15649    8.68664
 3491.50000   55.07231    2.09453    2.07764   52.27966    2.45936    0.17076    8.49093
 3492.00000   58.61389    1.66221    1.18126   52.38130    2.51983    0.18100    8.43534
 3492.50000   63.95022    1.90102    1.51326   50.29635    2.51465    0.16850    8.22865
 3493.00000   54.64780    1.90614    1.73920   49.92909    2.53257    0.16747    8.41908
 3493.50000   56.08184    1.48352    1.71706   50.78063    2.48470    0.18048    8.77256
 3494.00000   56.68018    1.72077    1.67930   56.21901    2.45586    0.19619    9.04694
 3494.50000   67.66016    1.78255    1.44483   51.32418    2.54186    0.20733    8.25506
 3495.00000   45.18546    2.44263    1.77774   54.61928    2.46956    0.17088    7.90150
 3495.50000   59.08120    2.06872    1.68944   51.22015    2.45523    0.21172    8.34074
 3496.00000   55.07413    2.20868    1.54847   53.93912    2.47399    0.19273    8.77119
 3496.50000   58.46527    1.55918    1.55338   53.97045    2.45027    0.15053    9.12168
 3497.00000   52.32804    2.36578    1.44372   54.07472    2.49554    0.14993    8.89301
 3497.50000   55.35378    2.39659    1.32182   52.94931    2.46163    0.16358    8.88559
 3498.00000   59.13958    1.40550    1.75043   54.93256    2.47122    0.20399    8.24513
 3498.50000   71.13121    1.79216    1.76469   52.93875    2.50891    0.16505    8.25358
 3499.00000   59.59119    2.15123    1.32468   55.61337    2.49863    0.13720    8.10286
 3499.50000   51.29525    2.19457    1.46999   48.95079    2.48043    0.17045    8.30036
