~Version ---------------------------------------------------
VERS.   2.0 : CWLS log ASCII Standard -VERSION 2.0
WRAP.    NO : One line per depth step
DLM . SPACE : Column Data Section Delimiter
~Well ------------------------------------------------------
STRT.m           1000.00000 : START DEPTH
STOP.m           3499.50000 : STOP DEPTH
STEP.m              0.50000 : STEP
NULL.               -999.25 : NULL VALUE
COMP.                       : COMPANY
WELL.               GEOSX-1 : WELL
FLD .           GEOX-ARIFOS : FIELD
LOC . Kuala Lumpur Malaysia : LOCATION
PROV.                       : PROVINCE
CNTY.                       : COUNTY
STAT.                       : STATE
CTRY.                       : COUNTRY
SRVC.    GEOX Earth Physics : SERVICE COMPANY
DATE.            2026-04-02 : DATE
UWI .                       : UNIQUE WELL ID
API .                       : API NUMBER
~Curve Information -----------------------------------------
DEPT.m      : Measured Depth
GR  .gAPI   : Gamma Ray
RD  .ohm.m  : Deep Resistivity
RS  .ohm.m  : Shallow Resistivity
DT  .us/ft  : Sonic Transit Time
RHOB.g/cm3  : Bulk Density
PHIN.v/v    : Neutron Porosity
CALI.in     : Caliper
~Params ----------------------------------------------------
~Other -----------------------------------------------------
~ASCII -----------------------------------------------------
# ...
 2170.00000   97.41823   10.36506    5.59488   50.96350    2.37540    0.24466    8.51988
 2170.50000   96.00728   10.66195    5.60320   55.47009    2.36583    0.25590    8.39297
 2171.00000   96.34062   10.78726    5.52023   50.69824    2.39717    0.21714    8.70790
 2171.50000   91.22825   10.25229    5.81670   52.95830    2.36942    0.26336    8.16943
 2172.00000   83.06941   10.38323    5.47614   51.45986    2.33795    0.22924    8.23163
 2172.50000   99.29937   10.20668    5.82741   51.45674    2.42392    0.27798    8.06467
 2173.00000   91.39670   10.25883    5.69615   50.83350    2.38691    0.23510    8.87057
 2173.50000   89.45407   10.11264    5.64274   53.46267    2.36626    0.26208    8.28380
 2174.00000   97.21220   10.22222    5.51758   53.76060    2.37886    0.19136    8.62120
 2174.50000   91.76140   10.91164    5.37499   51.93167    2.38818    0.21777    8.46233
 2175.00000   98.99758   10.20461    5.51375   49.33815    2.33113    0.23538    9.36926
 2175.50000   96.75917   10.51064    5.57446   52.86204    2.37877    0.20061    8.63257
 2176.00000   97.06801   10.31530    5.16383   52.89740    2.36058    0.25322    7.94136
 2176.50000   86.79620   10.81328    5.59535   51.61766    2.38934    0.24743    8.85263
 2177.00000   99.66132   10.84643    5.81687   55.78332    2.35195    0.22133    8.38385
 2177.50000   94.88325   10.70578    5.74263   48.91882    2.35606    0.24081    8.43972
 2178.00000   91.70582   10.53187    5.52713   47.60997    2.42413    0.25723    8.29825
 2178.50000   94.24414   10.36419    5.63295   50.58079    2.41121    0.19901    8.55868
 2179.00000   84.62081   10.06942    5.50952   53.46128    2.27545    0.21558    8.55475
 2179.50000   95.51983   11.00353    5.64769   49.92675    2.40906    0.23432    8.30636
 2180.00000   88.30408   10.18606    5.92315   50.07457    2.37219    0.24147    8.34756
 2180.50000   86.66176   10.60655    5.80602   53.93667    2.35319    0.23980    8.53039
 2181.00000   85.78729   10.71882    5.71368   52.95789    2.34426    0.25874    7.79718
 2181.50000   98.93629   10.22787    5.50814   52.78513    2.34605    0.25047    8.06755
 2182.00000   90.20009   10.69936    5.75390   53.59213    2.35416    0.25483    9.00100
 2182.50000  100.98840   10.61073    5.26374   51.17720    2.34079    0.21308    8.59835
 2183.00000   90.61390   10.89337    5.54784   51.26799    2.33400    0.24375    8.34253
 2183.50000   84.72907   10.22769    5.71226   53.64393    2.34347    0.23468    7.99118
 2184.00000   87.65598    9.97626    5.74080   49.33306    2.38442    0.27004    8.48311
 2184.50000   99.39020   10.20390    5.72390   47.73591    2.37626    0.24426    8.79556
 2185.00000   92.40399   10.41173    5.64609   51.15335    2.39148    0.22737    9.29176
 2185.50000   90.41419   10.36007    5.54519   53.88028    2.37285    0.25778    9.06762
 2186.00000   93.92765   10.21812    5.68914   52.52831    2.33568    0.25197    8.23392
 2186.50000   95.60821    9.75693    5.38818   53.73049    2.38975    0.22424    8.35126
 2187.00000   98.65782   10.46438    5.40703   47.98208    2.34482    0.23368    8.05855
 2187.50000  100.28466   10.90849    5.58552   52.64448    2.39440    0.23400    8.24750
 2188.00000   91.21445   10.44961    5.60503   53.32008    2.34006    0.26515    8.43615
 2188.50000   86.35399   10.48664    5.20248   49.30967    2.35446    0.24464    8.38986
 2189.00000   90.88763   10.46919    5.65585   53.73434    2.36428    0.25509    9.11637
 2189.50000   94.22689   10.41014    5.71659   51.78620    2.39539    0.23066    8.10539
 2190.00000   88.07703   10.56410    5.54380   58.15098    2.38048    0.24720    8.48647
 2190.50000   88.08020   10.39678    6.03137   47.65295    2.37584    0.26654    7.88096
 2191.00000   94.55483   10.17794    5.41712   54.74481    2.43185    0.23323    8.59927
 2191.50000   92.56237   10.02653    5.47871   51.21748    2.32021    0.24273    8.09749
 2192.00000   92.93916   10.18422    5.46914   48.77076    2.34421    0.21313    8.83079
 2192.50000   88.95204   10.34675    5.53014   50.95046    2.34296    0.22506    8.41269
 2193.00000   91.56166   10.15128    5.47686   52.55870    2.32232    0.23366    8.07940
 2193.50000   88.06145   10.33400    5.25848   54.07809    2.35389    0.21911    7.86919
 2194.00000   97.10236   10.36505    5.42776   55.44654    2.39615    0.26674    8.20641
 2194.50000   97.79617   10.47686    5.51478   54.84592    2.35781    0.22351    8.57181
 2195.00000   83.35734   10.60536    5.77725   50.07093    2.36561    0.25599    8.62645
 2195.50000   87.90889   10.23753    5.96922   54.26164    2.32396    0.24396    8.35047
 2196.00000   85.04177    9.81542    5.79310   52.78354    2.35178    0.24082    8.77774
 2196.50000   89.24207   10.09784    5.36817   50.69148    2.36187    0.26990    8.15928
 2197.00000   92.04258   10.20822    5.38132   51.57663    2.39503    0.19494    7.62188
 2197.50000   85.17893    9.63790    5.48586   50.58058    2.32555    0.23620    8.58477
 2198.00000   87.78505   10.59886    5.87188   52.07431    2.36219    0.21849    8.88703
 2198.50000   87.34157   10.21861    5.47912   50.54072    2.40848    0.20085    8.88980
 2199.00000   93.36450   10.28395    5.24395   49.94401    2.36257    0.21616    8.11006
 2199.50000   92.64150   10.57285    5.40646   52.95825    2.31249    0.24037    8.33659
 2200.00000   88.65251    9.96780    5.65536   53.25754    2.41438    0.22549    8.71715
 2200.50000   93.11153   10.32270    5.63918   51.62500    2.39809    0.25791    8.31187
 2201.00000   89.46007   10.11119    5.45840   54.73566    2.40216    0.23567    8.53162
 2201.50000   90.80104   10.08259    5.63238   51.47971    2.32381    0.23343    8.28507
 2202.00000  100.49223    9.89982    5.03831   51.39528    2.42153    0.23349    8.17318
 2202.50000   98.79275   10.62483    5.51097   53.32212    2.35300    0.23791    8.23109
 2203.00000   85.55781   10.00617    5.65959   51.73666    2.36096    0.23148    8.78672
 2203.50000   96.16947   10.32234    5.31814   52.17152    2.35520    0.22280    8.50413
 2204.00000   96.04269    9.54368    5.31471   46.96151    2.40473    0.25958    8.88156
 2204.50000   86.20910   10.45386    5.10594   52.03631    2.37097    0.22729    8.65613
 2205.00000   96.00882   10.40922    5.79447   48.34907    2.39085    0.23208    8.98194
 2205.50000   99.56893   10.11648    5.32973   49.56218    2.37872    0.24831    8.74542
 2206.00000   86.23069   10.01286    5.51923   49.33409    2.37363    0.24607    8.72780
 2206.50000   87.21986   10.19465    5.58907   49.92029    2.34812    0.22181    8.46385
 2207.00000   96.85946   10.75499    5.76797   50.90851    2.43092    0.25475    9.40276
 2207.50000   93.09221    9.53309    5.43204   51.03404    2.33270    0.25038    8.53381
 2208.00000   94.45552   10.29038    5.35220   53.33644    2.38901    0.24316    7.90797
 2208.50000   93.36429    9.77601    5.49197   52.45358    2.38798    0.23095    8.58041
 2209.00000   93.57786   10.03724    5.71145   48.20762    2.41135    0.23142    8.20531
 2209.50000   84.95486    9.96257    5.41787   52.17737    2.41840    0.23549    8.80511
 2210.00000   96.78647    9.90217    5.25821   52.64836    2.37268    0.21486    8.71775
 2210.50000   97.36031   10.02126    5.13830   51.35583    2.39275    0.23869    8.44255
 2211.00000   90.32770    9.67789    5.19947   51.89235    2.42983    0.25729    8.23363
 2211.50000   91.21938   10.32063    5.61389   52.39595    2.37496    0.25695    8.54393
 2212.00000   83.74315    9.46738    5.37417   53.54580    2.34497    0.23178    8.30763
 2212.50000   93.93171   10.16130    5.31407   48.86815    2.36547    0.26066    8.73634
 2213.00000   94.18229    9.89516    5.28966   51.53064    2.33790    0.27747    8.66680
 2213.50000   90.97243    9.63560    5.44715   55.03736    2.38823    0.23300    9.38079
 2214.00000   96.86635   10.04135    5.37954   54.85547    2.40905    0.25313    8.36647
 2214.50000   89.53522    9.50732    5.37009   53.72553    2.37353    0.19402    8.40897
