~Version ---------------------------------------------------
VERS.   2.0 : CWLS log ASCII Standard -VERSION 2.0
WRAP.    NO : One line per depth step
DLM . SPACE : Column Data Section Delimiter
~Well ------------------------------------------------------
STRT.m           1000.00000 : START DEPTH
STOP.m           3499.50000 : STOP DEPTH
STEP.m              0.50000 : STEP
NULL.               -999.25 : NULL VALUE
COMP.                       : COMPANY
WELL.               GEOSX-1 : WELL
FLD .           GEOX-ARIFOS : FIELD
LOC . Kuala Lumpur Malaysia : LOCATION
PROV.                       : PROVINCE
CNTY.                       : COUNTY
STAT.                       : STATE
CTRY.                       : COUNTRY
SRVC.    GEOX Earth Physics : SERVICE COMPANY
DATE.            2026-04-02 : DATE
UWI .                       : UNIQUE WELL ID
API .                       : API NUMBER
~Curve Information -----------------------------------------
DEPT.m      : Measured Depth
GR  .gAPI   : Gamma Ray
RD  .ohm.m  : Deep Resistivity
RS  .ohm.m  : Shallow Resistivity
DT  .us/ft  : Sonic Transit Time
RHOB.g/cm3  : Bulk Density
PHIN.v/v    : Neutron Porosity
CALI.in     : Caliper
~Params ----------------------------------------------------
~Other -----------------------------------------------------
~ASCII -----------------------------------------------------
# ...
 2305.00000   84.95179    8.97817    4.99905   51.01236    2.38442    0.21157    8.60929
 2305.50000   75.94290    7.79546    5.28662   51.48040    2.39464    0.24786    8.07761
 2306.00000   80.56094    8.65411    4.64467   54.55137    2.36808    0.20631    9.47929
 2306.50000   81.47278    8.77337    5.25935   57.15395    2.38510    0.19508    8.89347
 2307.00000   84.43628    9.33681    4.96052   53.23869    2.31550    0.24919    8.68669
 2307.50000   84.72086    8.55574    5.04076   51.51207    2.40998    0.26331    8.52269
 2308.00000   77.64507    8.92303    5.27568   53.53394    2.43888    0.22952    8.31438
 2308.50000   81.66263    9.31716    5.05018   55.04504    2.35273    0.22364    8.10694
 2309.00000   83.47569    8.46921    5.01563   54.41940    2.35651    0.26877    8.46585
 2309.50000   88.40498    8.97576    4.98155   58.67409    2.39799    0.23063    8.24207
 2310.00000   84.58490    8.61135    4.83393   51.76770    2.42902    0.23318    8.25957
 2310.50000   84.94409    8.69511    4.92246   53.71339    2.38478    0.26835    8.07497
 2311.00000   81.35431    8.60004    4.78259   56.31736    2.34800    0.22738    8.57490
 2311.50000   87.92377    8.61589    4.91432   56.20247    2.37866    0.22134    8.38690
 2312.00000   82.85653    9.64650    4.45358   49.34068    2.35406    0.25071    8.66052
 2312.50000   76.43845    9.07775    5.00412   53.24484    2.36493    0.22014    8.63713
 2313.00000   87.69685    9.14942    4.89150   56.23136    2.37592    0.23146    8.56884
 2313.50000   84.10556    8.96099    4.84615   59.05440    2.35720    0.20794    9.29783
 2314.00000   78.33681    8.32601    4.95489   54.69156    2.36178    0.23801    8.74711
 2314.50000   78.09049    8.92087    4.62177   52.55913    2.38740    0.23564    8.12183
 2315.00000   81.90669    9.11876    5.29188   51.28738    2.39165    0.25361    8.63762
 2315.50000   82.67554    8.53536    4.88302   57.75424    2.34252    0.25137    8.48379
 2316.00000   81.28182    9.07549    4.87196   54.78525    2.39717    0.24523    8.09754
 2316.50000   81.78759    8.99170    4.70560   51.64269    2.37386    0.24206    8.07351
 2317.00000   88.66645    9.33053    4.90102   52.94361    2.40697    0.23268    8.63596
 2317.50000   85.45995    8.64410    5.17117   53.98143    2.40881    0.24632    8.70926
 2318.00000   80.99092    8.43467    5.09852   54.45985    2.36910    0.21185    8.18612
 2318.50000   84.67975    8.64999    5.05978   51.58422    2.40390    0.18710    8.79105
 2319.00000   74.74598    9.18368    4.99573   52.16634    2.36041    0.25729    8.58547
 2319.50000   81.83358    8.19902    4.81229   50.10016    2.42527    0.24751    8.85876
 2320.00000   88.82577    8.12156    4.59153   55.49690    2.36163    0.23146    8.82689
 2320.50000   78.62425    8.76343    4.83891   52.74552    2.39622    0.25547    8.45247
 2321.00000   75.41149    8.59837    4.82951   54.37283    2.38005    0.21932    8.99068
 2321.50000   76.32435    8.72801    5.08400   56.29617    2.35521    0.21982    8.16277
 2322.00000   74.07171    9.00384    4.93369   53.90290    2.41279    0.21702    9.21709
 2322.50000   75.53110    8.54902    5.19183   53.24877    2.36738    0.24523    8.23636
 2323.00000   77.53736    8.14745    5.10644   53.87415    2.33484    0.20219    8.48560
 2323.50000   72.29700    9.31725    4.77321   53.62432    2.29942    0.21849    8.32984
 2324.00000   79.33781    8.39930    4.50305   56.00194    2.35967    0.23959    8.38696
 2324.50000   83.70594    8.37532    5.13676   54.14300    2.42724    0.20969    9.37707
 2325.00000   74.59057    9.01872    5.12909   52.44427    2.42373    0.22054    8.36118
 2325.50000   86.66052    8.56683    4.58154   55.64057    2.36448    0.18949    8.75533
 2326.00000   81.55276    8.65773    5.15421   56.01767    2.37485    0.24582    8.42938
 2326.50000   84.08636    8.81617    4.92636   50.89192    2.37217    0.21992    8.78097
 2327.00000   75.57890    8.99099    4.87965   56.64606    2.34616    0.21166    8.33675
 2327.50000   83.07527    8.56046    5.16804   54.32187    2.35774    0.20772    8.57684
 2328.00000   73.27750    9.11107    5.11160   54.17098    2.41567    0.22524    8.68861
 2328.50000   83.12289    8.00894    4.97051   55.62972    2.40140    0.20197    8.28346
 2329.00000   79.46530    8.87221    4.93247   52.49460    2.39451    0.27240    9.32732
 2329.50000   81.30676    8.38702    4.95868   55.54899    2.34631    0.18583    8.70428
 2330.00000   72.59690    9.04516    4.75298   52.89927    2.38942    0.22449    8.43221
 2330.50000   73.93385    8.67069    4.81955   50.71511    2.31732    0.23561    8.29083
 2331.00000   81.32963    8.42082    4.64769   51.68173    2.41176    0.21794    8.52752
 2331.50000   73.53601    8.81616    4.75914   54.82356    2.39428    0.23767    8.13520
 2332.00000   80.52799    8.87988    4.75001   51.81090    2.34620    0.21741    9.03469
 2332.50000   71.31045    8.79911    4.69386   56.93434    2.43509    0.26398    8.62938
 2333.00000   82.32116    8.29225    4.84586   56.10514    2.33276    0.21097    8.47360
 2333.50000   71.85178    8.45058    4.75131   56.40588    2.40259    0.18630    8.81379
 2334.00000   80.70998    8.58919    4.91414   54.00103    2.40338    0.20733    8.28355
 2334.50000   81.01068    8.57267    4.48683   54.27971    2.34957    0.24100    8.15321
 2335.00000   74.33268    8.80461    4.78621   51.38911    2.38566    0.23089    8.46096
 2335.50000   80.66065    7.96985    4.83279   55.78068    2.33774    0.24827    8.53826
 2336.00000   78.98668    8.66927    4.74195   54.56141    2.30149    0.24323    8.65918
 2336.50000   74.92418    8.47662    4.76720   54.94902    2.35488    0.22045    8.05712
 2337.00000   72.50951    8.30671    4.48223   57.20373    2.36846    0.22337    8.36310
 2337.50000   67.67302    8.33017    4.86817   52.62792    2.40633    0.22542    7.57496
 2338.00000   79.16824    8.48321    4.92400   53.60035    2.38906    0.27079    8.14530
 2338.50000   69.52978    7.46191    4.89079   54.51879    2.38989    0.24689    8.71458
 2339.00000   77.76430    8.32651    4.99743   52.00743    2.35669    0.27088    8.78831
 2339.50000   75.90410    8.26882    4.82760   53.51600    2.37126    0.24984    8.15740
 2340.00000   80.55079    8.68606    4.88064   54.89003    2.35930    0.23173    8.40262
 2340.50000   75.57856    8.27924    4.81373   53.26626    2.35049    0.21259    8.50768
 2341.00000   75.37523    8.45104    4.91763   56.54809    2.36947    0.23698    8.82343
 2341.50000   80.61549    8.97294    4.46228   50.92131    2.38956    0.23171    8.95873
 2342.00000   78.56507    8.80325    4.59662   56.20179    2.37018    0.23103    8.54592
 2342.50000   78.40418    8.77031    5.09033   55.29174    2.37769    0.22869    8.42182
 2343.00000   79.10334    8.34435    4.27848   52.84487    2.40829    0.19180    8.06689
 2343.50000   69.01272    8.65192    4.74015   52.14691    2.37246    0.25804    8.53242
 2344.00000   80.40809    8.41353    5.00025   49.84839    2.34750    0.23179    9.12248
 2344.50000   79.62003    8.41958    4.74476   52.43188    2.40446    0.20449    8.88706
 2345.00000   71.40780    8.59601    4.68003   56.12990    2.39558    0.24239    8.55246
 2345.50000   75.20432    8.28871    4.78454   53.93672    2.39750    0.21561    8.59101
 2346.00000   76.16168    8.91042    4.68565   56.38824    2.40646    0.24394    8.29345
 2346.50000   75.61922    8.40920    4.76007   52.83595    2.40142    0.25031    8.39286
 2347.00000   77.89446    8.63746    4.61485   55.50337    2.38862    0.25304    8.54428
 2347.50000   83.31545    8.88335    4.97088   52.66765    2.45954    0.22941    8.54519
 2348.00000   81.50089    8.75089    5.03143   52.18503    2.34929    0.22432    8.80322
 2348.50000   69.46439    8.01344    4.71772   53.91550    2.37029    0.22006    8.78862
 2349.00000   79.06925    8.56432    4.46473   52.81343    2.41694    0.21810    8.65617
 2349.50000   82.53697    8.68079    4.63489   51.07136    2.39224    0.23218    8.20026
