~Version ---------------------------------------------------
VERS.   2.0 : CWLS log ASCII Standard -VERSION 2.0
WRAP.    NO : One line per depth step
DLM . SPACE : Column Data Section Delimiter
~Well ------------------------------------------------------
STRT.m           1000.00000 : START DEPTH
STOP.m           3499.50000 : STOP DEPTH
STEP.m              0.50000 : STEP
NULL.               -999.25 : NULL VALUE
COMP.                       : COMPANY
WELL.               GEOSX-1 : WELL
FLD .           GEOX-ARIFOS : FIELD
LOC . Kuala Lumpur Malaysia : LOCATION
PROV.                       : PROVINCE
CNTY.                       : COUNTY
STAT.                       : STATE
CTRY.                       : COUNTRY
SRVC.    GEOX Earth Physics : SERVICE COMPANY
DATE.            2026-04-02 : DATE
UWI .                       : UNIQUE WELL ID
API .                       : API NUMBER
~Curve Information -----------------------------------------
DEPT.m      : Measured Depth
GR  .gAPI   : Gamma Ray
RD  .ohm.m  : Deep Resistivity
RS  .ohm.m  : Shallow Resistivity
DT  .us/ft  : Sonic Transit Time
RHOB.g/cm3  : Bulk Density
PHIN.v/v    : Neutron Porosity
CALI.in     : Caliper
~Params ----------------------------------------------------
~Other -----------------------------------------------------
~ASCII -----------------------------------------------------
# ...
 1990.00000   83.03060   12.81105    6.52422   56.09972    2.36733    0.28062    9.18759
 1990.50000   81.04170   13.59026    6.72980   56.45727    2.36011    0.28828    8.14092
 1991.00000   84.85696   13.10612    6.27862   50.89771    2.34398    0.24707    8.25619
 1991.50000   92.35313   12.97943    6.71973   53.79875    2.39685    0.24605    8.46685
 1992.00000   92.85726   12.79646    6.90507   54.22928    2.41626    0.24880    8.04070
 1992.50000   90.70739   12.99797    6.91727   56.20429    2.39440    0.21688    9.03709
 1993.00000   91.81762   12.73554    6.78523   56.25714    2.37618    0.24453    8.55495
 1993.50000   90.82307   13.77536    6.94423   57.14061    2.38233    0.28462    8.26302
 1994.00000   85.08466   13.13309    7.27220   56.36630    2.41521    0.24693    8.63434
 1994.50000   90.50142   13.11422    7.10207   53.23258    2.38237    0.22947    8.54382
 1995.00000   92.39344   13.29983    6.65173   58.71100    2.34204    0.26018    8.40860
 1995.50000   92.21229   13.40391    6.46263   58.34379    2.37141    0.23688    8.13745
 1996.00000   94.43470   13.39078    6.66825   53.26655    2.37847    0.24887    8.06914
 1996.50000   92.08079   13.42091    6.55671   56.43137    2.32988    0.22480    9.15604
 1997.00000   90.34551   12.90138    6.83300   54.55816    2.35121    0.22942    8.09418
 1997.50000   93.98786   12.99310    6.50312   56.00980    2.39281    0.26488    9.00939
 1998.00000   88.55319   13.30499    6.72143   57.82179    2.30514    0.25242    8.24657
 1998.50000   84.32496   12.90790    6.90023   59.95851    2.32237    0.23455    8.73701
 1999.00000   87.96739   13.05642    6.70912   57.18400    2.35463    0.25244    8.63963
 1999.50000   85.10644   13.16942    6.53663   56.25450    2.37057    0.23788    8.69963
 2000.00000   85.50314   13.27719    6.95750   54.96819    2.31927    0.23432    8.71960
 2000.50000   88.20436   12.50019    6.34338   55.99533    2.35624    0.27326    8.01653
 2001.00000   85.01262   13.23977    6.65026   58.33387    2.39469    0.26561    8.29710
 2001.50000   87.48253   12.94709    6.70413   55.50819    2.36218    0.24950    8.08959
 2002.00000   79.60172   13.22131    6.71228   53.80870    2.38833    0.25279    8.55679
 2002.50000   90.18357   13.23403    6.74185   52.32489    2.34244    0.24971    8.10300
 2003.00000   89.17027   13.47520    6.82448   56.57373    2.33594    0.25959    7.90569
 2003.50000   85.12579   13.39074    6.69196   56.02561    2.38575    0.23383    8.42876
 2004.00000   92.55429   13.38056    6.62209   54.22264    2.37140    0.26705    7.83728
 2004.50000   93.99258   13.40159    6.61083   57.54994    2.32479    0.25685    8.57762
 2005.00000   81.31345   13.04780    6.56670   54.63784    2.33637    0.24449    8.12271
 2005.50000   85.58398   12.96194    6.84317   55.19562    2.40738    0.23997    8.24783
 2006.00000   85.59808   13.20604    6.55301   55.41511    2.33274    0.26652    7.81588
 2006.50000   84.79031   13.15573    6.84833   54.73010    2.38855    0.24667    8.99503
 2007.00000   93.68307   12.83530    6.67944   55.88733    2.34621    0.23567    8.06113
 2007.50000   88.61228   13.04139    6.56805   57.70226    2.36050    0.24193    8.39080
 2008.00000   88.30438   12.90134    6.79265   53.09792    2.36948    0.26498    7.96248
 2008.50000   79.65303   12.64762    6.52014   56.34360    2.29765    0.21736    8.24930
 2009.00000   92.89465   13.28288    6.78994   55.69459    2.31684    0.24244    9.02555
 2009.50000   83.56633   12.90424    6.70152   55.64154    2.36335    0.27094    8.58924
 2010.00000   90.10718   13.49424    6.53638   57.06147    2.33907    0.24614    8.28291
 2010.50000   91.23913   12.38394    6.75804   55.40017    2.39074    0.25493    8.48975
 2011.00000   96.70011   12.69651    6.75831   56.24587    2.31270    0.27119    8.33183
 2011.50000   83.39711   12.86530    6.87717   56.70099    2.37788    0.26727    8.47227
 2012.00000   74.88789   13.18869    6.83557   54.24442    2.31967    0.24060    8.72316
 2012.50000   90.94876   12.95929    6.73728   55.83543    2.35044    0.24677    8.40067
 2013.00000   99.07597   12.92457    6.41019   54.71944    2.32911    0.26745    8.56600
 2013.50000   96.31188   12.48523    7.12211   54.93962    2.41815    0.26811    8.57095
 2014.00000   91.20901   12.46831    6.34835   54.54487    2.32094    0.24754    8.40216
 2014.50000   87.74593   12.90414    6.81561   56.11519    2.35750    0.24820    8.27922
 2015.00000   94.28295   12.39015    6.70870   55.32038    2.30939    0.25460    8.34244
 2015.50000   85.42267   12.63183    6.38431   55.93028    2.40923    0.27656    8.70976
 2016.00000   92.71507   12.93367    6.59097   55.09028    2.37332    0.27055    8.73473
 2016.50000   92.90335   12.48071    6.59677   51.90123    2.36543    0.26304    8.15866
 2017.00000   95.71960   13.24903    6.87033   55.15640    2.40559    0.22758    8.42170
 2017.50000  104.25923   13.12663    6.46325   55.20496    2.36582    0.24363    8.27412
 2018.00000   92.46521   12.28005    6.55022   55.54732    2.36803    0.24465    8.73999
 2018.50000   88.00034   12.46380    6.13210   53.85895    2.36543    0.27744    8.35864
 2019.00000   90.45915   12.04982    6.94296   52.63978    2.37843    0.24427    9.16028
 2019.50000   81.78333   12.49281    6.37862   56.26428    2.34679    0.27409    8.56537
 2020.00000   87.19665   12.94956    6.65480   54.45222    2.35517    0.23759    8.85460
 2020.50000   88.66514   12.58752    6.56584   55.32633    2.38595    0.23916    8.19562
 2021.00000   88.13228   12.84199    6.56323   54.40535    2.37000    0.25858    8.50352
 2021.50000   91.55548   12.23911    6.74151   54.94062    2.35829    0.28029    8.68485
 2022.00000   86.72242   12.92727    6.91051   54.03867    2.31974    0.24466    8.19001
 2022.50000   96.48031   12.51342    6.62326   52.98560    2.40674    0.19762    8.50610
 2023.00000   90.91665   12.67568    6.70070   55.85380    2.34200    0.21757    8.81556
 2023.50000   90.90940   12.63625    6.63217   53.68469    2.39150    0.25478    8.40176
 2024.00000   89.35654   12.27474    6.76662   55.20346    2.36719    0.21930    8.24447
 2024.50000   91.81189   12.30237    6.46725   55.68113    2.32316    0.23146    9.04089
 2025.00000   95.20118   12.93073    6.77163   53.67127    2.39957    0.24900    8.14848
 2025.50000   86.77961   12.75219    6.77538   52.42185    2.36968    0.19974    8.54677
 2026.00000   87.86407   12.93961    6.76651   59.66655    2.40214    0.24111    8.28752
 2026.50000   89.67524   12.71411    6.41470   53.74362    2.35665    0.22538    8.21895
 2027.00000   84.50355   12.65172    6.50979   56.03082    2.38328    0.21867    8.72250
 2027.50000   87.17546   12.08315    6.58808   58.64776    2.30932    0.23258    8.43834
 2028.00000   88.92932   12.51197    6.26275   56.33354    2.34723    0.22722    8.62177
 2028.50000   95.72086   12.57699    6.85263   54.13775    2.32409    0.25796    7.82346
 2029.00000   92.70003   13.16328    6.52792   54.58935    2.35108    0.27248    8.65094
 2029.50000   92.39330   12.77557    6.58390   53.04336    2.37651    0.24124    8.28382
 2030.00000   95.71779   13.02245    6.40845   56.45698    2.34426    0.23658    7.93634
 2030.50000   90.81420   12.73305    6.25522   55.81118    2.38836    0.24019    9.06542
 2031.00000   93.49096   12.33255    6.39653   53.63487    2.33678    0.22629    8.68030
 2031.50000   91.05993   12.57324    6.55792   52.56449    2.38908    0.22265    8.56818
 2032.00000   92.94006   12.60114    6.64550   51.99152    2.40185    0.21549    8.87483
 2032.50000   88.73648   12.24069    6.53992   56.59220    2.39301    0.22178    8.57427
 2033.00000   79.49303   12.39930    6.57366   54.84513    2.35231    0.28099    8.26042
 2033.50000   91.05237   12.44507    6.43365   55.01960    2.29892    0.23452    8.44751
 2034.00000   98.87398   12.98067    6.59706   52.92902    2.38019    0.18947    8.29649
 2034.50000   96.42760   11.86695    6.79113   51.63323    2.35900    0.23653    8.34989
